{
"type": "FeatureCollection",
"name": "atl_financial",
"crs": { "type": "name", "properties": { "name": "urn:ogc:def:crs:OGC:1.3:CRS84" } },
"features": [
{ "type": "Feature", "properties": { "locnum": "210119004", "name": "Community Loan Of Manchester", "street": "W Main St", "city": "Manchester", "state": "GA", "zip": "31816", "type": "Consumer Lending", "naics5": "522291", "naics7": "52229103", "salesvol": 2295.0 }, "geometry": { "type": "Point", "coordinates": [ -84.6137, 32.852 ] } },
{ "type": "Feature", "properties": { "locnum": "827623257", "name": "Security Finance Corp", "street": "W Main St", "city": "Manchester", "state": "GA", "zip": "31816", "type": "Consumer Lending", "naics5": "522291", "naics7": "52229103", "salesvol": 2295.0 }, "geometry": { "type": "Point", "coordinates": [ -84.6156, 32.8528 ] } },
{ "type": "Feature", "properties": { "locnum": "492263710", "name": "World Finance", "street": "N 5Th Ave", "city": "Manchester", "state": "GA", "zip": "31816", "type": "Consumer Lending", "naics5": "522291", "naics7": "52229103", "salesvol": 1530.0 }, "geometry": { "type": "Point", "coordinates": [ -84.619699999999895, 32.8586 ] } },
{ "type": "Feature", "properties": { "locnum": "453973679", "name": "1St Franklin Financial Corp", "street": "Warm Springs Hwy", "city": "Manchester", "state": "GA", "zip": "31816", "type": "Consumer Lending", "naics5": "522291", "naics7": "52229101", "salesvol": 3060.0 }, "geometry": { "type": "Point", "coordinates": [ -84.628499999999889, 32.8663 ] } },
{ "type": "Feature", "properties": { "locnum": "453973497", "name": "Thompson Financial Svc", "street": "Warm Springs Hwy", "city": "Manchester", "state": "GA", "zip": "31816", "type": "Consumer Lending", "naics5": "522291", "naics7": "52229103", "salesvol": 3060.0 }, "geometry": { "type": "Point", "coordinates": [ -84.629999999999882, 32.8691 ] } },
{ "type": "Feature", "properties": { "locnum": "416771799", "name": "Community Finance", "street": "Chipley Hwy", "city": "Pine Mountain", "state": "GA", "zip": "31822", "type": "Consumer Lending", "naics5": "522291", "naics7": "52229101", "salesvol": 2295.0 }, "geometry": { "type": "Point", "coordinates": [ -84.823799999999849, 32.8898 ] } },
{ "type": "Feature", "properties": { "locnum": "458358736", "name": "Woodbury Banking Co", "street": "Jones Mill Rd", "city": "Woodbury", "state": "GA", "zip": "30293", "type": "Consumer Lending", "naics5": "522291", "naics7": "52229103", "salesvol": 7650.0 }, "geometry": { "type": "Point", "coordinates": [ -84.583099999999874, 32.9846 ] } },
{ "type": "Feature", "properties": { "locnum": "827383522", "name": "Agsouth Farm Credit", "street": "S Talbotton St", "city": "Greenville", "state": "GA", "zip": "30222", "type": "Pawn Shop", "naics5": "522298", "naics7": "52229810", "salesvol": 4290.0 }, "geometry": { "type": "Point", "coordinates": [ -84.7099, 33.0177 ] } },
{ "type": "Feature", "properties": { "locnum": "826806416", "name": "1St Franklin Financial Corp", "street": "Veterans Pkwy", "city": "Barnesville", "state": "GA", "zip": "30204", "type": "Consumer Lending", "naics5": "522291", "naics7": "52229101", "salesvol": 3060.0 }, "geometry": { "type": "Point", "coordinates": [ -84.1571, 33.038800000000109 ] } },
{ "type": "Feature", "properties": { "locnum": "127916666", "name": "Loan South Finance & Tax Svc", "street": "Forsyth St", "city": "Barnesville", "state": "GA", "zip": "30204", "type": "Consumer Lending", "naics5": "522291", "naics7": "52229101", "salesvol": 765.0 }, "geometry": { "type": "Point", "coordinates": [ -84.1521, 33.0549 ] } },
{ "type": "Feature", "properties": { "locnum": "424921649", "name": "Barnesville Finance Co", "street": "Forsyth St", "city": "Barnesville", "state": "GA", "zip": "30204", "type": "Consumer Lending", "naics5": "522291", "naics7": "52229101", "salesvol": 2295.0 }, "geometry": { "type": "Point", "coordinates": [ -84.1521, 33.0549 ] } },
{ "type": "Feature", "properties": { "locnum": "425878673", "name": "Pipe County Pawn", "street": "Highway 19 S", "city": "Zebulon", "state": "GA", "zip": "30295", "type": "Pawn Shop", "naics5": "522298", "naics7": "52229813", "salesvol": 249.0 }, "geometry": { "type": "Point", "coordinates": [ -84.344199999999887, 33.096200000000145 ] } },
{ "type": "Feature", "properties": { "locnum": "428104639", "name": "Pike County Pawn", "street": "Highway 19 S", "city": "Zebulon", "state": "GA", "zip": "30295", "type": "Pawn Shop", "naics5": "522298", "naics7": "52229813", "salesvol": 332.0 }, "geometry": { "type": "Point", "coordinates": [ -84.344199999999887, 33.096200000000145 ] } },
{ "type": "Feature", "properties": { "locnum": "426600538", "name": "Spalding Pawn Shop", "street": "Macon Rd", "city": "Griffin", "state": "GA", "zip": "30224", "type": "Pawn Shop", "naics5": "522298", "naics7": "52229813", "salesvol": 166.0 }, "geometry": { "type": "Point", "coordinates": [ -84.212199999999896, 33.1866 ] } },
{ "type": "Feature", "properties": { "locnum": "634801583", "name": "Speedy Pawn", "street": "Beverly St", "city": "Griffin", "state": "GA", "zip": "30224", "type": "Pawn Shop", "naics5": "522298", "naics7": "52229813", "salesvol": 166.0 }, "geometry": { "type": "Point", "coordinates": [ -84.284, 33.2212 ] } },
{ "type": "Feature", "properties": { "locnum": "652351164", "name": "Springleaf Financial Svc", "street": "Memorial Dr", "city": "Griffin", "state": "GA", "zip": "30223", "type": "Consumer Lending", "naics5": "522291", "naics7": "52229108", "salesvol": 2295.0 }, "geometry": { "type": "Point", "coordinates": [ -84.2471, 33.2398 ] } },
{ "type": "Feature", "properties": { "locnum": "600406409", "name": "Griffin Loans Inc", "street": "E Poplar St", "city": "Griffin", "state": "GA", "zip": "30224", "type": "Consumer Lending", "naics5": "522291", "naics7": "52229103", "salesvol": 0.0 }, "geometry": { "type": "Point", "coordinates": [ -84.2628, 33.2454 ] } },
{ "type": "Feature", "properties": { "locnum": "205863608", "name": "Title Max", "street": "W Taylor St", "city": "Griffin", "state": "GA", "zip": "30223", "type": "Consumer Lending", "naics5": "522291", "naics7": "52229103", "salesvol": 3060.0 }, "geometry": { "type": "Point", "coordinates": [ -84.284499999999881, 33.2466 ] } },
{ "type": "Feature", "properties": { "locnum": "385099148", "name": "Loan South Finance & Tax Svc", "street": "W Taylor St", "city": "Griffin", "state": "GA", "zip": "30223", "type": "Consumer Lending", "naics5": "522291", "naics7": "52229103", "salesvol": 2295.0 }, "geometry": { "type": "Point", "coordinates": [ -84.2728, 33.2469 ] } },
{ "type": "Feature", "properties": { "locnum": "433579776", "name": "Check Into Cash", "street": "Georgia Highway 16 W", "city": "Griffin", "state": "GA", "zip": "30223", "type": "Consumer Lending", "naics5": "522291", "naics7": "52229111", "salesvol": 1530.0 }, "geometry": { "type": "Point", "coordinates": [ -84.2903, 33.2471 ] } },
{ "type": "Feature", "properties": { "locnum": "709948034", "name": "Check Into Cash Title Pawn", "street": "Georgia Highway 16 W", "city": "Griffin", "state": "GA", "zip": "30223", "type": "Consumer Lending", "naics5": "522291", "naics7": "52229109", "salesvol": 1530.0 }, "geometry": { "type": "Point", "coordinates": [ -84.2903, 33.2471 ] } },
{ "type": "Feature", "properties": { "locnum": "600405963", "name": "Southern Auto Title Pawn", "street": "W Taylor St", "city": "Griffin", "state": "GA", "zip": "30223", "type": "Pawn Shop", "naics5": "522298", "naics7": "52229813", "salesvol": 332.0 }, "geometry": { "type": "Point", "coordinates": [ -84.2802, 33.2473 ] } },
{ "type": "Feature", "properties": { "locnum": "719903916", "name": "Title Bucks", "street": "W Taylor St", "city": "Griffin", "state": "GA", "zip": "30223", "type": "Consumer Lending", "naics5": "522291", "naics7": "52229103", "salesvol": 2295.0 }, "geometry": { "type": "Point", "coordinates": [ -84.2709, 33.2473 ] } },
{ "type": "Feature", "properties": { "locnum": "826897845", "name": "Title Exchange Of Griffin", "street": "W Taylor St", "city": "Griffin", "state": "GA", "zip": "30223", "type": "Consumer Lending", "naics5": "522291", "naics7": "52229103", "salesvol": 1530.0 }, "geometry": { "type": "Point", "coordinates": [ -84.2793, 33.2474 ] } },
{ "type": "Feature", "properties": { "locnum": "205863749", "name": "World Finance", "street": "W Taylor St", "city": "Griffin", "state": "GA", "zip": "30223", "type": "Consumer Lending", "naics5": "522291", "naics7": "52229103", "salesvol": 3060.0 }, "geometry": { "type": "Point", "coordinates": [ -84.2706, 33.2476 ] } },
{ "type": "Feature", "properties": { "locnum": "402817819", "name": "E Pawn", "street": "W Taylor St", "city": "Griffin", "state": "GA", "zip": "30223", "type": "Pawn Shop", "naics5": "522298", "naics7": "52229813", "salesvol": 415.0 }, "geometry": { "type": "Point", "coordinates": [ -84.279499999999899, 33.2477 ] } },
{ "type": "Feature", "properties": { "locnum": "700385444", "name": "Community Loans", "street": "W Taylor St", "city": "Griffin", "state": "GA", "zip": "30223", "type": "Consumer Lending", "naics5": "522291", "naics7": "52229103", "salesvol": 1530.0 }, "geometry": { "type": "Point", "coordinates": [ -84.2844, 33.2478 ] } },
{ "type": "Feature", "properties": { "locnum": "436871513", "name": "Cash America Pawn", "street": "Georgia Highway 16 W", "city": "Griffin", "state": "GA", "zip": "30223", "type": "Pawn Shop", "naics5": "522298", "naics7": "52229813", "salesvol": 498.0 }, "geometry": { "type": "Point", "coordinates": [ -84.291699999999878, 33.2482 ] } },
{ "type": "Feature", "properties": { "locnum": "127960748", "name": "Griffin Pawn Shop", "street": "W Solomon St", "city": "Griffin", "state": "GA", "zip": "30223", "type": "Pawn Shop", "naics5": "522298", "naics7": "52229813", "salesvol": 83.0 }, "geometry": { "type": "Point", "coordinates": [ -84.2652, 33.2483 ] } },
{ "type": "Feature", "properties": { "locnum": "127966497", "name": "Security Finance Corp", "street": "W Solomon St", "city": "Griffin", "state": "GA", "zip": "30223", "type": "Consumer Lending", "naics5": "522291", "naics7": "52229103", "salesvol": 4590.0 }, "geometry": { "type": "Point", "coordinates": [ -84.2696, 33.2487 ] } },
{ "type": "Feature", "properties": { "locnum": "971265616", "name": "Rita's Jewelry Pawn & Gifts", "street": "W Solomon St", "city": "Griffin", "state": "GA", "zip": "30223", "type": "Pawn Shop", "naics5": "522298", "naics7": "52229813", "salesvol": 249.0 }, "geometry": { "type": "Point", "coordinates": [ -84.2691, 33.2487 ] } },
{ "type": "Feature", "properties": { "locnum": "127957009", "name": "City Finance & Tax Svc", "street": "N Hill St", "city": "Griffin", "state": "GA", "zip": "30223", "type": "Consumer Lending", "naics5": "522291", "naics7": "52229103", "salesvol": 2295.0 }, "geometry": { "type": "Point", "coordinates": [ -84.2637, 33.2491 ] } },
{ "type": "Feature", "properties": { "locnum": "664477890", "name": "Walter's Management", "street": "N Hill St", "city": "Griffin", "state": "GA", "zip": "30223", "type": "Consumer Lending", "naics5": "522291", "naics7": "52229103", "salesvol": 2295.0 }, "geometry": { "type": "Point", "coordinates": [ -84.2637, 33.2491 ] } },
{ "type": "Feature", "properties": { "locnum": "478160294", "name": "Savoy Financial Svc Inc", "street": "N Hill St", "city": "Griffin", "state": "GA", "zip": "30223", "type": "Consumer Lending", "naics5": "522291", "naics7": "52229103", "salesvol": 765.0 }, "geometry": { "type": "Point", "coordinates": [ -84.2634, 33.2497 ] } },
{ "type": "Feature", "properties": { "locnum": "496075615", "name": "Big Bucks", "street": "N Expressway", "city": "Griffin", "state": "GA", "zip": "30223", "type": "Pawn Shop", "naics5": "522298", "naics7": "52229813", "salesvol": 83.0 }, "geometry": { "type": "Point", "coordinates": [ -84.2871, 33.2518 ] } },
{ "type": "Feature", "properties": { "locnum": "359125705", "name": "Rapid Cash Title Pawn", "street": "N Expressway", "city": "Griffin", "state": "GA", "zip": "30223", "type": "Consumer Lending", "naics5": "522291", "naics7": "52229103", "salesvol": 1530.0 }, "geometry": { "type": "Point", "coordinates": [ -84.288299999999893, 33.2531 ] } },
{ "type": "Feature", "properties": { "locnum": "425931136", "name": "Onemain Financial", "street": "N Expressway", "city": "Griffin", "state": "GA", "zip": "30223", "type": "Consumer Lending", "naics5": "522291", "naics7": "52229108", "salesvol": 3825.0 }, "geometry": { "type": "Point", "coordinates": [ -84.291099999999886, 33.2738 ] } },
{ "type": "Feature", "properties": { "locnum": "409793432", "name": "Western Shamrock Finance", "street": "W Mcintosh Rd", "city": "Griffin", "state": "GA", "zip": "30223", "type": "Consumer Lending", "naics5": "522291", "naics7": "52229103", "salesvol": 1530.0 }, "geometry": { "type": "Point", "coordinates": [ -84.292599999999894, 33.2747 ] } },
{ "type": "Feature", "properties": { "locnum": "127964997", "name": "1St Franklin Financial Corp", "street": "N Expressway", "city": "Griffin", "state": "GA", "zip": "30223", "type": "Consumer Lending", "naics5": "522291", "naics7": "52229101", "salesvol": 3060.0 }, "geometry": { "type": "Point", "coordinates": [ -84.2916, 33.277 ] } },
{ "type": "Feature", "properties": { "locnum": "258812718", "name": "Title Max", "street": "N Expressway", "city": "Griffin", "state": "GA", "zip": "30223", "type": "Consumer Lending", "naics5": "522291", "naics7": "52229103", "salesvol": 3825.0 }, "geometry": { "type": "Point", "coordinates": [ -84.291399999999896, 33.2775 ] } },
{ "type": "Feature", "properties": { "locnum": "698712007", "name": "Insta Loan", "street": "N Expressway", "city": "Griffin", "state": "GA", "zip": "30223", "type": "Consumer Lending", "naics5": "522291", "naics7": "52229103", "salesvol": 2295.0 }, "geometry": { "type": "Point", "coordinates": [ -84.291399999999896, 33.2775 ] } },
{ "type": "Feature", "properties": { "locnum": "365326321", "name": "World Finance", "street": "E Court Sq", "city": "Franklin", "state": "GA", "zip": "30217", "type": "Consumer Lending", "naics5": "522291", "naics7": "52229103", "salesvol": 1530.0 }, "geometry": { "type": "Point", "coordinates": [ -85.0983, 33.2799 ] } },
{ "type": "Feature", "properties": { "locnum": "649542370", "name": "First American Title Lending", "street": "N Expressway", "city": "Griffin", "state": "GA", "zip": "30223", "type": "Consumer Lending", "naics5": "522291", "naics7": "52229103", "salesvol": 3825.0 }, "geometry": { "type": "Point", "coordinates": [ -84.292, 33.2802 ] } },
{ "type": "Feature", "properties": { "locnum": "394063408", "name": "Loanmax", "street": "N Expressway", "city": "Griffin", "state": "GA", "zip": "30223", "type": "Consumer Lending", "naics5": "522291", "naics7": "52229103", "salesvol": 765.0 }, "geometry": { "type": "Point", "coordinates": [ -84.292499999999862, 33.2882 ] } },
{ "type": "Feature", "properties": { "locnum": "633014998", "name": "Atlanta Title Loans", "street": "N Expressway", "city": "Griffin", "state": "GA", "zip": "30223", "type": "Consumer Lending", "naics5": "522291", "naics7": "52229103", "salesvol": 765.0 }, "geometry": { "type": "Point", "coordinates": [ -84.292499999999862, 33.2882 ] } },
{ "type": "Feature", "properties": { "locnum": "127971935", "name": "Pioneer Credit Co", "street": "S Mulberry St", "city": "Jackson", "state": "GA", "zip": "30233", "type": "Consumer Lending", "naics5": "522291", "naics7": "52229101", "salesvol": 3825.0 }, "geometry": { "type": "Point", "coordinates": [ -83.9664, 33.2925 ] } },
{ "type": "Feature", "properties": { "locnum": "827543802", "name": "1St Franklin Financial Corp", "street": "S Harkness St", "city": "Jackson", "state": "GA", "zip": "30233", "type": "Consumer Lending", "naics5": "522291", "naics7": "52229101", "salesvol": 3825.0 }, "geometry": { "type": "Point", "coordinates": [ -83.9745, 33.2939 ] } },
{ "type": "Feature", "properties": { "locnum": "433112098", "name": "Complete Cash", "street": "E 3Rd St", "city": "Jackson", "state": "GA", "zip": "30233", "type": "Consumer Lending", "naics5": "522291", "naics7": "52229109", "salesvol": 765.0 }, "geometry": { "type": "Point", "coordinates": [ -83.960399999999879, 33.2942 ] } },
{ "type": "Feature", "properties": { "locnum": "700337763", "name": "B B Pawns", "street": "W 3Rd St", "city": "Jackson", "state": "GA", "zip": "30233", "type": "Pawn Shop", "naics5": "522298", "naics7": "52229813", "salesvol": 166.0 }, "geometry": { "type": "Point", "coordinates": [ -83.9677, 33.2944 ] } },
{ "type": "Feature", "properties": { "locnum": "268760097", "name": "Loan South Finance & Tax Svc", "street": "E 3Rd St", "city": "Jackson", "state": "GA", "zip": "30233", "type": "Consumer Lending", "naics5": "522291", "naics7": "52229103", "salesvol": 1530.0 }, "geometry": { "type": "Point", "coordinates": [ -83.953799999999873, 33.2945 ] } },
{ "type": "Feature", "properties": { "locnum": "445026875", "name": "Security Finance Corp", "street": "Oak St", "city": "Jackson", "state": "GA", "zip": "30233", "type": "Consumer Lending", "naics5": "522291", "naics7": "52229103", "salesvol": 2295.0 }, "geometry": { "type": "Point", "coordinates": [ -83.967299999999867, 33.2947 ] } },
{ "type": "Feature", "properties": { "locnum": "827544586", "name": "World Finance", "street": "E 3Rd St", "city": "Jackson", "state": "GA", "zip": "30233", "type": "Consumer Lending", "naics5": "522291", "naics7": "52229103", "salesvol": 3060.0 }, "geometry": { "type": "Point", "coordinates": [ -83.9598, 33.2948 ] } },
{ "type": "Feature", "properties": { "locnum": "620734764", "name": "Jackson Pawn Shop", "street": "E 2Nd St", "city": "Jackson", "state": "GA", "zip": "30233", "type": "Pawn Shop", "naics5": "522298", "naics7": "52229813", "salesvol": 83.0 }, "geometry": { "type": "Point", "coordinates": [ -83.9664, 33.295200000000108 ] } },
{ "type": "Feature", "properties": { "locnum": "316784990", "name": "Security Finance Corp", "street": "S Warren St", "city": "Monticello", "state": "GA", "zip": "31064", "type": "Consumer Lending", "naics5": "522291", "naics7": "52229103", "salesvol": 1530.0 }, "geometry": { "type": "Point", "coordinates": [ -83.6838, 33.304300000000168 ] } },
{ "type": "Feature", "properties": { "locnum": "316784982", "name": "1St Franklin Financial Corp", "street": "W Washington St", "city": "Monticello", "state": "GA", "zip": "31064", "type": "Consumer Lending", "naics5": "522291", "naics7": "52229101", "salesvol": 2295.0 }, "geometry": { "type": "Point", "coordinates": [ -83.6911, 33.3056 ] } },
{ "type": "Feature", "properties": { "locnum": "248149528", "name": "Quick & Easy Title Pawn", "street": "N Expressway", "city": "Griffin", "state": "GA", "zip": "30223", "type": "Consumer Lending", "naics5": "522291", "naics7": "52229103", "salesvol": 765.0 }, "geometry": { "type": "Point", "coordinates": [ -84.2901, 33.3111 ] } },
{ "type": "Feature", "properties": { "locnum": "425931334", "name": "Spalding Pawn", "street": "N Expressway", "city": "Griffin", "state": "GA", "zip": "30223", "type": "Pawn Shop", "naics5": "522298", "naics7": "52229813", "salesvol": 83.0 }, "geometry": { "type": "Point", "coordinates": [ -84.2916, 33.312000000000104 ] } },
{ "type": "Feature", "properties": { "locnum": "983978578", "name": "Locust Grove Jewelry Gun-Pawn", "street": "Highway 42", "city": "Locust Grove", "state": "GA", "zip": "30248", "type": "Pawn Shop", "naics5": "522298", "naics7": "52229813", "salesvol": 166.0 }, "geometry": { "type": "Point", "coordinates": [ -84.1081, 33.344200000000122 ] } },
{ "type": "Feature", "properties": { "locnum": "412880031", "name": "Wright Pawn & Fine Jewelry", "street": "Roberts Point Rd", "city": "Jackson", "state": "GA", "zip": "30233", "type": "Pawn Shop", "naics5": "522298", "naics7": "52229813", "salesvol": 166.0 }, "geometry": { "type": "Point", "coordinates": [ -83.8728, 33.3473 ] } },
{ "type": "Feature", "properties": { "locnum": "227933363", "name": "Cash Credit Corp", "street": "Bill Gardner Pkwy", "city": "Locust Grove", "state": "GA", "zip": "30248", "type": "Consumer Lending", "naics5": "522291", "naics7": "52229103", "salesvol": 1530.0 }, "geometry": { "type": "Point", "coordinates": [ -84.119699999999895, 33.3539 ] } },
{ "type": "Feature", "properties": { "locnum": "433852916", "name": "First American Title Lending", "street": "Bill Gardner Pkwy", "city": "Locust Grove", "state": "GA", "zip": "30248", "type": "Consumer Lending", "naics5": "522291", "naics7": "52229103", "salesvol": 1530.0 }, "geometry": { "type": "Point", "coordinates": [ -84.119699999999895, 33.3539 ] } },
{ "type": "Feature", "properties": { "locnum": "400371347", "name": "Vision Intersoft Inc", "street": "Royce Dr", "city": "Locust Grove", "state": "GA", "zip": "30248", "type": "Consumer Lending", "naics5": "522291", "naics7": "52229101", "salesvol": 1530.0 }, "geometry": { "type": "Point", "coordinates": [ -84.1585, 33.360500000000108 ] } },
{ "type": "Feature", "properties": { "locnum": "677081598", "name": "Higgins Finance Co Llc", "street": "Greenville St", "city": "Newnan", "state": "GA", "zip": "30263", "type": "Consumer Lending", "naics5": "522291", "naics7": "52229101", "salesvol": 3060.0 }, "geometry": { "type": "Point", "coordinates": [ -84.7947, 33.363300000000137 ] } },
{ "type": "Feature", "properties": { "locnum": "478166291", "name": "Newnan Plaza Shop & Pawn", "street": "Greenville St", "city": "Newnan", "state": "GA", "zip": "30263", "type": "Pawn Shop", "naics5": "522298", "naics7": "52229813", "salesvol": 166.0 }, "geometry": { "type": "Point", "coordinates": [ -84.795299999999841, 33.3637 ] } },
{ "type": "Feature", "properties": { "locnum": "939727772", "name": "Western Finance Svc", "street": "Jefferson St", "city": "Newnan", "state": "GA", "zip": "30263", "type": "Consumer Lending", "naics5": "522291", "naics7": "52229103", "salesvol": 765.0 }, "geometry": { "type": "Point", "coordinates": [ -84.799199999999885, 33.377700000000104 ] } },
{ "type": "Feature", "properties": { "locnum": "422078012", "name": "Pawn Express Of Newnan", "street": "Temple Ave", "city": "Newnan", "state": "GA", "zip": "30263", "type": "Pawn Shop", "naics5": "522298", "naics7": "52229813", "salesvol": 166.0 }, "geometry": { "type": "Point", "coordinates": [ -84.8085, 33.380600000000115 ] } },
{ "type": "Feature", "properties": { "locnum": "396292096", "name": "Loan Max Title Loans", "street": "Jefferson St", "city": "Newnan", "state": "GA", "zip": "30263", "type": "Consumer Lending", "naics5": "522291", "naics7": "52229109", "salesvol": 1530.0 }, "geometry": { "type": "Point", "coordinates": [ -84.796, 33.3814 ] } },
{ "type": "Feature", "properties": { "locnum": "607393410", "name": "Atlanta Title Loans", "street": "Jefferson St", "city": "Newnan", "state": "GA", "zip": "30263", "type": "Consumer Lending", "naics5": "522291", "naics7": "52229103", "salesvol": 3060.0 }, "geometry": { "type": "Point", "coordinates": [ -84.796, 33.3814 ] } },
{ "type": "Feature", "properties": { "locnum": "695742999", "name": "Complete Cash", "street": "Temple Ave", "city": "Newnan", "state": "GA", "zip": "30263", "type": "Consumer Lending", "naics5": "522291", "naics7": "52229109", "salesvol": 765.0 }, "geometry": { "type": "Point", "coordinates": [ -84.8129, 33.3819 ] } },
{ "type": "Feature", "properties": { "locnum": "516625050", "name": "Abraham's Gold & Pawn", "street": "Temple Ave", "city": "Newnan", "state": "GA", "zip": "30263", "type": "Pawn Shop", "naics5": "522298", "naics7": "52229813", "salesvol": 166.0 }, "geometry": { "type": "Point", "coordinates": [ -84.8121, 33.382000000000126 ] } },
{ "type": "Feature", "properties": { "locnum": "229143862", "name": "Title Max", "street": "Jefferson St", "city": "Newnan", "state": "GA", "zip": "30263", "type": "Consumer Lending", "naics5": "522291", "naics7": "52229103", "salesvol": 3060.0 }, "geometry": { "type": "Point", "coordinates": [ -84.7958, 33.3823 ] } },
{ "type": "Feature", "properties": { "locnum": "205922099", "name": "Imog Jewlry & Pawn", "street": "Sharpsburg Mccullum Rd", "city": "Newnan", "state": "GA", "zip": "30265", "type": "Pawn Shop", "naics5": "522298", "naics7": "52229813", "salesvol": 249.0 }, "geometry": { "type": "Point", "coordinates": [ -84.6726, 33.3824 ] } },
{ "type": "Feature", "properties": { "locnum": "700385442", "name": "Community Loans", "street": "Bullsboro Dr", "city": "Newnan", "state": "GA", "zip": "30263", "type": "Consumer Lending", "naics5": "522291", "naics7": "52229103", "salesvol": 3060.0 }, "geometry": { "type": "Point", "coordinates": [ -84.7903, 33.383 ] } },
{ "type": "Feature", "properties": { "locnum": "128026747", "name": "Security Finance Corp", "street": "Temple Ave", "city": "Newnan", "state": "GA", "zip": "30263", "type": "Consumer Lending", "naics5": "522291", "naics7": "52229103", "salesvol": 3060.0 }, "geometry": { "type": "Point", "coordinates": [ -84.8137, 33.3833 ] } },
{ "type": "Feature", "properties": { "locnum": "635062144", "name": "Premier Title Lending", "street": "Temple Ave", "city": "Newnan", "state": "GA", "zip": "30263", "type": "Consumer Lending", "naics5": "522291", "naics7": "52229103", "salesvol": 2295.0 }, "geometry": { "type": "Point", "coordinates": [ -84.8137, 33.3833 ] } },
{ "type": "Feature", "properties": { "locnum": "672310984", "name": "Premier Title Pawn", "street": "Temple Ave", "city": "Newnan", "state": "GA", "zip": "30263", "type": "Consumer Lending", "naics5": "522291", "naics7": "52229109", "salesvol": 3825.0 }, "geometry": { "type": "Point", "coordinates": [ -84.8137, 33.3833 ] } },
{ "type": "Feature", "properties": { "locnum": "633019849", "name": "Title Bucks", "street": "Temple Ave", "city": "Newnan", "state": "GA", "zip": "30263", "type": "Consumer Lending", "naics5": "522291", "naics7": "52229103", "salesvol": 3060.0 }, "geometry": { "type": "Point", "coordinates": [ -84.8151, 33.3835 ] } },
{ "type": "Feature", "properties": { "locnum": "258795871", "name": "Sunset Finance Co Of Newnan", "street": "Bullsboro Dr", "city": "Newnan", "state": "GA", "zip": "30263", "type": "Consumer Lending", "naics5": "522291", "naics7": "52229103", "salesvol": 3060.0 }, "geometry": { "type": "Point", "coordinates": [ -84.7859, 33.3839 ] } },
{ "type": "Feature", "properties": { "locnum": "707327738", "name": "World Finance", "street": "Bullsboro Dr", "city": "Newnan", "state": "GA", "zip": "30263", "type": "Consumer Lending", "naics5": "522291", "naics7": "52229103", "salesvol": 2295.0 }, "geometry": { "type": "Point", "coordinates": [ -84.7829, 33.385400000000132 ] } },
{ "type": "Feature", "properties": { "locnum": "700082973", "name": "First American Title Lending", "street": "Bullsboro Dr", "city": "Newnan", "state": "GA", "zip": "30263", "type": "Consumer Lending", "naics5": "522291", "naics7": "52229103", "salesvol": 1530.0 }, "geometry": { "type": "Point", "coordinates": [ -84.7731, 33.3878 ] } },
{ "type": "Feature", "properties": { "locnum": "497681734", "name": "Service Loan Co", "street": "Bullsboro Dr", "city": "Newnan", "state": "GA", "zip": "30263", "type": "Consumer Lending", "naics5": "522291", "naics7": "52229103", "salesvol": 1530.0 }, "geometry": { "type": "Point", "coordinates": [ -84.7698, 33.3916 ] } },
{ "type": "Feature", "properties": { "locnum": "229143706", "name": "Covington Credit Corp", "street": "Bullsboro Dr", "city": "Newnan", "state": "GA", "zip": "30263", "type": "Consumer Lending", "naics5": "522291", "naics7": "52229103", "salesvol": 2295.0 }, "geometry": { "type": "Point", "coordinates": [ -84.7716, 33.3925 ] } },
{ "type": "Feature", "properties": { "locnum": "400645462", "name": "Insta Loan", "street": "Bullsboro Dr", "city": "Newnan", "state": "GA", "zip": "30263", "type": "Consumer Lending", "naics5": "522291", "naics7": "52229103", "salesvol": 3060.0 }, "geometry": { "type": "Point", "coordinates": [ -84.7657, 33.3936 ] } },
{ "type": "Feature", "properties": { "locnum": "424172690", "name": "1St Franklin Financial Corp", "street": "Bullsboro Dr", "city": "Newnan", "state": "GA", "zip": "30263", "type": "Consumer Lending", "naics5": "522291", "naics7": "52229101", "salesvol": 4590.0 }, "geometry": { "type": "Point", "coordinates": [ -84.7626, 33.395 ] } },
{ "type": "Feature", "properties": { "locnum": "612872408", "name": "Lendmark Financial Svc", "street": "Highway 34 E", "city": "Newnan", "state": "GA", "zip": "30265", "type": "Consumer Lending", "naics5": "522291", "naics7": "52229101", "salesvol": 2295.0 }, "geometry": { "type": "Point", "coordinates": [ -84.7446, 33.3966 ] } },
{ "type": "Feature", "properties": { "locnum": "422360108", "name": "Auto Cash Title Pawn", "street": "Highway 34 E", "city": "Newnan", "state": "GA", "zip": "30265", "type": "Pawn Shop", "naics5": "522298", "naics7": "52229813", "salesvol": 166.0 }, "geometry": { "type": "Point", "coordinates": [ -84.7517, 33.396900000000173 ] } },
{ "type": "Feature", "properties": { "locnum": "516625043", "name": "A-1 Fast Cash Inc", "street": "Highway 34 E", "city": "Newnan", "state": "GA", "zip": "30265", "type": "Pawn Shop", "naics5": "522298", "naics7": "52229813", "salesvol": 83.0 }, "geometry": { "type": "Point", "coordinates": [ -84.7297, 33.3985 ] } },
{ "type": "Feature", "properties": { "locnum": "705775833", "name": "Republic Finance Inc", "street": "Highway 34 E", "city": "Newnan", "state": "GA", "zip": "30265", "type": "Consumer Lending", "naics5": "522291", "naics7": "52229101", "salesvol": 2295.0 }, "geometry": { "type": "Point", "coordinates": [ -84.7297, 33.3985 ] } },
{ "type": "Feature", "properties": { "locnum": "715794791", "name": "Family Pawn Llc", "street": "Highway 34 E", "city": "Newnan", "state": "GA", "zip": "30265", "type": "Pawn Shop", "naics5": "522298", "naics7": "52229813", "salesvol": 166.0 }, "geometry": { "type": "Point", "coordinates": [ -84.725, 33.4018 ] } },
{ "type": "Feature", "properties": { "locnum": "402807102", "name": "Trading Post", "street": "Baker Rd", "city": "Newnan", "state": "GA", "zip": "30265", "type": "Pawn Shop", "naics5": "522298", "naics7": "52229813", "salesvol": 83.0 }, "geometry": { "type": "Point", "coordinates": [ -84.7065, 33.4053 ] } },
{ "type": "Feature", "properties": { "locnum": "708290266", "name": "T N T Pawn", "street": "Baker Rd", "city": "Newnan", "state": "GA", "zip": "30265", "type": "Pawn Shop", "naics5": "522298", "naics7": "52229813", "salesvol": 166.0 }, "geometry": { "type": "Point", "coordinates": [ -84.7065, 33.4053 ] } },
{ "type": "Feature", "properties": { "locnum": "426002807", "name": "Element Funding", "street": "Sharpsburg Mccullum Rd", "city": "Newnan", "state": "GA", "zip": "30265", "type": "Consumer Lending", "naics5": "522291", "naics7": "52229101", "salesvol": 3060.0 }, "geometry": { "type": "Point", "coordinates": [ -84.6821, 33.4067 ] } },
{ "type": "Feature", "properties": { "locnum": "128022985", "name": "Onemain Financial", "street": "Highway 34 E", "city": "Newnan", "state": "GA", "zip": "30265", "type": "Consumer Lending", "naics5": "522291", "naics7": "52229108", "salesvol": 2295.0 }, "geometry": { "type": "Point", "coordinates": [ -84.6792, 33.4093 ] } },
{ "type": "Feature", "properties": { "locnum": "620735597", "name": "Sib Financial Group", "street": "Tivoli Gardens Rd", "city": "Peachtree City", "state": "GA", "zip": "30269", "type": "Consumer Lending", "naics5": "522291", "naics7": "52229101", "salesvol": 1530.0 }, "geometry": { "type": "Point", "coordinates": [ -84.5614, 33.410700000000148 ] } },
{ "type": "Feature", "properties": { "locnum": "399616820", "name": "Bank Direct Finance", "street": "Walnut Grove Rd", "city": "Peachtree City", "state": "GA", "zip": "30269", "type": "Consumer Lending", "naics5": "522291", "naics7": "52229101", "salesvol": 765.0 }, "geometry": { "type": "Point", "coordinates": [ -84.5929, 33.4126 ] } },
{ "type": "Feature", "properties": { "locnum": "422245868", "name": "Car Financial", "street": "Stevens Entry", "city": "Peachtree City", "state": "GA", "zip": "30269", "type": "Consumer Lending", "naics5": "522291", "naics7": "52229102", "salesvol": 3825.0 }, "geometry": { "type": "Point", "coordinates": [ -84.565799999999868, 33.4151 ] } },
{ "type": "Feature", "properties": { "locnum": "427751112", "name": "Peachtree City Pawn", "street": "Highway 54 W", "city": "Peachtree City", "state": "GA", "zip": "30269", "type": "Pawn Shop", "naics5": "522298", "naics7": "52229813", "salesvol": 83.0 }, "geometry": { "type": "Point", "coordinates": [ -84.557, 33.427300000000102 ] } },
{ "type": "Feature", "properties": { "locnum": "427527995", "name": "Title Max", "street": "Highway 54 W", "city": "Peachtree City", "state": "GA", "zip": "30269", "type": "Consumer Lending", "naics5": "522291", "naics7": "52229103", "salesvol": 2295.0 }, "geometry": { "type": "Point", "coordinates": [ -84.5558, 33.4283 ] } },
{ "type": "Feature", "properties": { "locnum": "700389127", "name": "Highway 81 Pawn", "street": "Highway 81 E", "city": "Mcdonough", "state": "GA", "zip": "30252", "type": "Pawn Shop", "naics5": "522298", "naics7": "52229813", "salesvol": 166.0 }, "geometry": { "type": "Point", "coordinates": [ -84.0989, 33.428400000000103 ] } },
{ "type": "Feature", "properties": { "locnum": "425840096", "name": "Insta Loan", "street": "Highway 20 81", "city": "Mcdonough", "state": "GA", "zip": "30253", "type": "Consumer Lending", "naics5": "522291", "naics7": "52229103", "salesvol": 2295.0 }, "geometry": { "type": "Point", "coordinates": [ -84.1804, 33.429100000000112 ] } },
{ "type": "Feature", "properties": { "locnum": "406162629", "name": "Springleaf Financial Svc", "street": "Glynn St S", "city": "Fayetteville", "state": "GA", "zip": "30214", "type": "Consumer Lending", "naics5": "522291", "naics7": "52229108", "salesvol": 2295.0 }, "geometry": { "type": "Point", "coordinates": [ -84.4575, 33.4307 ] } },
{ "type": "Feature", "properties": { "locnum": "573220100", "name": "World Finance", "street": "Macon St", "city": "Mcdonough", "state": "GA", "zip": "30253", "type": "Consumer Lending", "naics5": "522291", "naics7": "52229103", "salesvol": 1530.0 }, "geometry": { "type": "Point", "coordinates": [ -84.1455, 33.4317 ] } },
{ "type": "Feature", "properties": { "locnum": "690586649", "name": "World Acceptance", "street": "Macon St", "city": "Mcdonough", "state": "GA", "zip": "30253", "type": "Consumer Lending", "naics5": "522291", "naics7": "52229103", "salesvol": 2295.0 }, "geometry": { "type": "Point", "coordinates": [ -84.1455, 33.4317 ] } },
{ "type": "Feature", "properties": { "locnum": "705407411", "name": "Lendmark Financial Svc", "street": "Willow Ln", "city": "Mcdonough", "state": "GA", "zip": "30253", "type": "Consumer Lending", "naics5": "522291", "naics7": "52229103", "salesvol": 2295.0 }, "geometry": { "type": "Point", "coordinates": [ -84.1804, 33.4327 ] } },
{ "type": "Feature", "properties": { "locnum": "417555213", "name": "Lovejoy Pawn", "street": "Tara Blvd", "city": "Hampton", "state": "GA", "zip": "30228", "type": "Pawn Shop", "naics5": "522298", "naics7": "52229813", "salesvol": 166.0 }, "geometry": { "type": "Point", "coordinates": [ -84.3233, 33.444900000000125 ] } },
{ "type": "Feature", "properties": { "locnum": "642821664", "name": "Title Max", "street": "Tara Blvd", "city": "Hampton", "state": "GA", "zip": "30228", "type": "Consumer Lending", "naics5": "522291", "naics7": "52229103", "salesvol": 3060.0 }, "geometry": { "type": "Point", "coordinates": [ -84.3233, 33.444900000000125 ] } },
{ "type": "Feature", "properties": { "locnum": "706308001", "name": "Insta Loan", "street": "Tara Blvd", "city": "Hampton", "state": "GA", "zip": "30228", "type": "Consumer Lending", "naics5": "522291", "naics7": "52229103", "salesvol": 2295.0 }, "geometry": { "type": "Point", "coordinates": [ -84.3233, 33.444900000000125 ] } },
{ "type": "Feature", "properties": { "locnum": "685321382", "name": "Sunset Finance Of Mc Donough", "street": "Keys Ferry St", "city": "Mcdonough", "state": "GA", "zip": "30253", "type": "Consumer Lending", "naics5": "522291", "naics7": "52229103", "salesvol": 2295.0 }, "geometry": { "type": "Point", "coordinates": [ -84.137199999999879, 33.4469 ] } },
{ "type": "Feature", "properties": { "locnum": "372724450", "name": "Kwik Kash Inc", "street": "Keys Ferry St", "city": "Mcdonough", "state": "GA", "zip": "30253", "type": "Pawn Shop", "naics5": "522298", "naics7": "52229813", "salesvol": 83.0 }, "geometry": { "type": "Point", "coordinates": [ -84.14, 33.4473 ] } },
{ "type": "Feature", "properties": { "locnum": "128415650", "name": "Airport Credit Corp\/Loans", "street": "Lanier Ave W", "city": "Fayetteville", "state": "GA", "zip": "30214", "type": "Consumer Lending", "naics5": "522291", "naics7": "52229103", "salesvol": 765.0 }, "geometry": { "type": "Point", "coordinates": [ -84.4639, 33.4474 ] } },
{ "type": "Feature", "properties": { "locnum": "428062946", "name": "Title Max", "street": "Tara Blvd", "city": "Lovejoy", "state": "GA", "zip": "30250", "type": "Consumer Lending", "naics5": "522291", "naics7": "52229103", "salesvol": 2295.0 }, "geometry": { "type": "Point", "coordinates": [ -84.3246, 33.4476 ] } },
{ "type": "Feature", "properties": { "locnum": "401529235", "name": "1St Franklin Financial Corp", "street": "John Frank Ward Blvd", "city": "Mcdonough", "state": "GA", "zip": "30253", "type": "Consumer Lending", "naics5": "522291", "naics7": "52229101", "salesvol": 5355.0 }, "geometry": { "type": "Point", "coordinates": [ -84.1402, 33.4477 ] } },
{ "type": "Feature", "properties": { "locnum": "431534788", "name": "Title Max", "street": "Tara Blvd", "city": "Hampton", "state": "GA", "zip": "30228", "type": "Consumer Lending", "naics5": "522291", "naics7": "52229103", "salesvol": 2295.0 }, "geometry": { "type": "Point", "coordinates": [ -84.324, 33.448000000000107 ] } },
{ "type": "Feature", "properties": { "locnum": "827049073", "name": "Southern Crescent Mortgage Inc", "street": "Lanier Ave W", "city": "Fayetteville", "state": "GA", "zip": "30214", "type": "Consumer Lending", "naics5": "522291", "naics7": "52229103", "salesvol": 3825.0 }, "geometry": { "type": "Point", "coordinates": [ -84.455999999999861, 33.4487 ] } },
{ "type": "Feature", "properties": { "locnum": "436341763", "name": "Southern Credit Union", "street": "Lanier Ave E", "city": "Fayetteville", "state": "GA", "zip": "30214", "type": "Consumer Lending", "naics5": "522291", "naics7": "52229103", "salesvol": 1530.0 }, "geometry": { "type": "Point", "coordinates": [ -84.4469, 33.4496 ] } },
{ "type": "Feature", "properties": { "locnum": "257077180", "name": "Title Max", "street": "Hampton Road 20\/81", "city": "Mcdonough", "state": "GA", "zip": "30253", "type": "Consumer Lending", "naics5": "522291", "naics7": "52229103", "salesvol": 1530.0 }, "geometry": { "type": "Point", "coordinates": [ -84.1892, 33.4503 ] } },
{ "type": "Feature", "properties": { "locnum": "425962359", "name": "I N L-Fayetteville Ga", "street": "Glynn St N", "city": "Fayetteville", "state": "GA", "zip": "30214", "type": "Consumer Lending", "naics5": "522291", "naics7": "52229103", "salesvol": 1530.0 }, "geometry": { "type": "Point", "coordinates": [ -84.4548, 33.4557000000001 ] } },
{ "type": "Feature", "properties": { "locnum": "706308028", "name": "Insta Loan", "street": "Glynn St N", "city": "Fayetteville", "state": "GA", "zip": "30214", "type": "Consumer Lending", "naics5": "522291", "naics7": "52229103", "salesvol": 2295.0 }, "geometry": { "type": "Point", "coordinates": [ -84.4548, 33.4557000000001 ] } },
{ "type": "Feature", "properties": { "locnum": "827072059", "name": "Pioneer Credit Co", "street": "Jonesboro Rd", "city": "Mcdonough", "state": "GA", "zip": "30253", "type": "Consumer Lending", "naics5": "522291", "naics7": "52229101", "salesvol": 3060.0 }, "geometry": { "type": "Point", "coordinates": [ -84.1773, 33.4584 ] } },
{ "type": "Feature", "properties": { "locnum": "717582036", "name": "Diversified Funding", "street": "Habersham Dr", "city": "Fayetteville", "state": "GA", "zip": "30214", "type": "Consumer Lending", "naics5": "522291", "naics7": "52229101", "salesvol": 1530.0 }, "geometry": { "type": "Point", "coordinates": [ -84.4547, 33.459 ] } },
{ "type": "Feature", "properties": { "locnum": "425592210", "name": "First American Title Lending", "street": "Jonesboro Rd", "city": "Mcdonough", "state": "GA", "zip": "30253", "type": "Consumer Lending", "naics5": "522291", "naics7": "52229103", "salesvol": 1530.0 }, "geometry": { "type": "Point", "coordinates": [ -84.220799999999898, 33.464400000000154 ] } },
{ "type": "Feature", "properties": { "locnum": "962232971", "name": "Springleaf Financial Svc", "street": "Jonesboro Rd", "city": "Mcdonough", "state": "GA", "zip": "30253", "type": "Consumer Lending", "naics5": "522291", "naics7": "52229108", "salesvol": 3060.0 }, "geometry": { "type": "Point", "coordinates": [ -84.220799999999898, 33.464400000000154 ] } },
{ "type": "Feature", "properties": { "locnum": "643329170", "name": "World Finance", "street": "Glynn St N", "city": "Fayetteville", "state": "GA", "zip": "30214", "type": "Consumer Lending", "naics5": "522291", "naics7": "52229103", "salesvol": 2295.0 }, "geometry": { "type": "Point", "coordinates": [ -84.449299999999894, 33.4652 ] } },
{ "type": "Feature", "properties": { "locnum": "425272669", "name": "1St Franklin Financial Corp", "street": "Banks Sta", "city": "Fayetteville", "state": "GA", "zip": "30214", "type": "Consumer Lending", "naics5": "522291", "naics7": "52229101", "salesvol": 2295.0 }, "geometry": { "type": "Point", "coordinates": [ -84.4486, 33.47 ] } },
{ "type": "Feature", "properties": { "locnum": "388324006", "name": "Title Max", "street": "Highway 85 N", "city": "Fayetteville", "state": "GA", "zip": "30214", "type": "Consumer Lending", "naics5": "522291", "naics7": "52229103", "salesvol": 2295.0 }, "geometry": { "type": "Point", "coordinates": [ -84.4429, 33.4732 ] } },
{ "type": "Feature", "properties": { "locnum": "127634541", "name": "Onemain Financial", "street": "Tara Blvd", "city": "Jonesboro", "state": "GA", "zip": "30236", "type": "Consumer Lending", "naics5": "522291", "naics7": "52229108", "salesvol": 3060.0 }, "geometry": { "type": "Point", "coordinates": [ -84.3377, 33.4763 ] } },
{ "type": "Feature", "properties": { "locnum": "354044711", "name": "Express Funding Solutions", "street": "Sutton Dr", "city": "Mcdonough", "state": "GA", "zip": "30252", "type": "Consumer Lending", "naics5": "522291", "naics7": "52229101", "salesvol": 2295.0 }, "geometry": { "type": "Point", "coordinates": [ -84.113699999999881, 33.4765 ] } },
{ "type": "Feature", "properties": { "locnum": "711002186", "name": "Southern Title Loans", "street": "Senoia Rd", "city": "Tyrone", "state": "GA", "zip": "30290", "type": "Consumer Lending", "naics5": "522291", "naics7": "52229103", "salesvol": 1530.0 }, "geometry": { "type": "Point", "coordinates": [ -84.5897, 33.4794 ] } },
{ "type": "Feature", "properties": { "locnum": "705610367", "name": "Republic Finance Inc", "street": "Highway 85 N", "city": "Fayetteville", "state": "GA", "zip": "30214", "type": "Consumer Lending", "naics5": "522291", "naics7": "52229101", "salesvol": 2295.0 }, "geometry": { "type": "Point", "coordinates": [ -84.4353, 33.4821 ] } },
{ "type": "Feature", "properties": { "locnum": "240790568", "name": "Payday Pawn Inc", "street": "Jodeco Rd", "city": "Mcdonough", "state": "GA", "zip": "30253", "type": "Pawn Shop", "naics5": "522298", "naics7": "52229813", "salesvol": 166.0 }, "geometry": { "type": "Point", "coordinates": [ -84.209699999999884, 33.4822 ] } },
{ "type": "Feature", "properties": { "locnum": "422246072", "name": "Am South", "street": "Carnes Rd", "city": "Jonesboro", "state": "GA", "zip": "30236", "type": "Consumer Lending", "naics5": "522291", "naics7": "52229103", "salesvol": 2295.0 }, "geometry": { "type": "Point", "coordinates": [ -84.297699999999892, 33.498800000000138 ] } },
{ "type": "Feature", "properties": { "locnum": "827093964", "name": "Jonesboro Exchange", "street": "S Main St", "city": "Jonesboro", "state": "GA", "zip": "30236", "type": "Pawn Shop", "naics5": "522298", "naics7": "52229813", "salesvol": 83.0 }, "geometry": { "type": "Point", "coordinates": [ -84.3519, 33.510500000000107 ] } },
{ "type": "Feature", "properties": { "locnum": "886966365", "name": "Sunny Side Pawn Shop", "street": "Kenwood Rd", "city": "Fayetteville", "state": "GA", "zip": "30214", "type": "Pawn Shop", "naics5": "522298", "naics7": "52229813", "salesvol": 83.0 }, "geometry": { "type": "Point", "coordinates": [ -84.4299, 33.5119 ] } },
{ "type": "Feature", "properties": { "locnum": "886971183", "name": "G & L Pawn Shop", "street": "Kenwood Rd", "city": "Fayetteville", "state": "GA", "zip": "30214", "type": "Pawn Shop", "naics5": "522298", "naics7": "52229813", "salesvol": 83.0 }, "geometry": { "type": "Point", "coordinates": [ -84.4299, 33.5119 ] } },
{ "type": "Feature", "properties": { "locnum": "128030152", "name": "J 'N' T Pawn Shop", "street": "Fayetteville Rd", "city": "Palmetto", "state": "GA", "zip": "30268", "type": "Pawn Shop", "naics5": "522298", "naics7": "52229813", "salesvol": 83.0 }, "geometry": { "type": "Point", "coordinates": [ -84.668, 33.5174 ] } },
{ "type": "Feature", "properties": { "locnum": "453974396", "name": "Pawn House", "street": "Main St", "city": "Palmetto", "state": "GA", "zip": "30268", "type": "Pawn Shop", "naics5": "522298", "naics7": "52229813", "salesvol": 83.0 }, "geometry": { "type": "Point", "coordinates": [ -84.6689, 33.518500000000159 ] } },
{ "type": "Feature", "properties": { "locnum": "394133490", "name": "Sunset Finance Co", "street": "N Main St", "city": "Jonesboro", "state": "GA", "zip": "30236", "type": "Consumer Lending", "naics5": "522291", "naics7": "52229103", "salesvol": 2295.0 }, "geometry": { "type": "Point", "coordinates": [ -84.3556, 33.5315 ] } },
{ "type": "Feature", "properties": { "locnum": "642821631", "name": "Title Max", "street": "Tara Blvd", "city": "Jonesboro", "state": "GA", "zip": "30236", "type": "Consumer Lending", "naics5": "522291", "naics7": "52229103", "salesvol": 1530.0 }, "geometry": { "type": "Point", "coordinates": [ -84.363399999999899, 33.532600000000109 ] } },
{ "type": "Feature", "properties": { "locnum": "827071432", "name": "Title Exchange & Pawn", "street": "N Main St", "city": "Jonesboro", "state": "GA", "zip": "30236", "type": "Pawn Shop", "naics5": "522298", "naics7": "52229813", "salesvol": 166.0 }, "geometry": { "type": "Point", "coordinates": [ -84.3587, 33.5343 ] } },
{ "type": "Feature", "properties": { "locnum": "827070707", "name": "World Finance", "street": "Spur 138", "city": "Jonesboro", "state": "GA", "zip": "30236", "type": "Consumer Lending", "naics5": "522291", "naics7": "52229103", "salesvol": 2295.0 }, "geometry": { "type": "Point", "coordinates": [ -84.363299999999882, 33.5379 ] } },
{ "type": "Feature", "properties": { "locnum": "886966217", "name": "Epawn", "street": "Spur 138", "city": "Jonesboro", "state": "GA", "zip": "30236", "type": "Pawn Shop", "naics5": "522298", "naics7": "52229813", "salesvol": 664.0 }, "geometry": { "type": "Point", "coordinates": [ -84.3628, 33.538000000000139 ] } },
{ "type": "Feature", "properties": { "locnum": "127977833", "name": "Onemain Financial", "street": "Tara Blvd", "city": "Jonesboro", "state": "GA", "zip": "30236", "type": "Consumer Lending", "naics5": "522291", "naics7": "52229108", "salesvol": 2295.0 }, "geometry": { "type": "Point", "coordinates": [ -84.367099999999894, 33.538800000000101 ] } },
{ "type": "Feature", "properties": { "locnum": "706308067", "name": "Title Bucks", "street": "Tara Blvd", "city": "Jonesboro", "state": "GA", "zip": "30236", "type": "Consumer Lending", "naics5": "522291", "naics7": "52229103", "salesvol": 2295.0 }, "geometry": { "type": "Point", "coordinates": [ -84.365499999999898, 33.5401 ] } },
{ "type": "Feature", "properties": { "locnum": "127817369", "name": "1St Franklin Financial Corp", "street": "Stripling Chapel Rd", "city": "Carrollton", "state": "GA", "zip": "30117", "type": "Consumer Lending", "naics5": "522291", "naics7": "52229101", "salesvol": 3825.0 }, "geometry": { "type": "Point", "coordinates": [ -85.0828, 33.5402 ] } },
{ "type": "Feature", "properties": { "locnum": "403646879", "name": "Easy Pay Title Pawn", "street": "E College St", "city": "Bowdon", "state": "GA", "zip": "30108", "type": "Pawn Shop", "naics5": "522298", "naics7": "52229813", "salesvol": 166.0 }, "geometry": { "type": "Point", "coordinates": [ -85.2482, 33.5403 ] } },
{ "type": "Feature", "properties": { "locnum": "403515741", "name": "Western Finance Svc", "street": "Tara Blvd", "city": "Jonesboro", "state": "GA", "zip": "30236", "type": "Consumer Lending", "naics5": "522291", "naics7": "52229103", "salesvol": 1530.0 }, "geometry": { "type": "Point", "coordinates": [ -84.365799999999879, 33.5405 ] } },
{ "type": "Feature", "properties": { "locnum": "573220050", "name": "1St Franklin Financial Corp", "street": "N Henry Blvd", "city": "Stockbridge", "state": "GA", "zip": "30281", "type": "Consumer Lending", "naics5": "522291", "naics7": "52229101", "salesvol": 3060.0 }, "geometry": { "type": "Point", "coordinates": [ -84.232, 33.5439 ] } },
{ "type": "Feature", "properties": { "locnum": "403523596", "name": "Flight Finance Of Stockbridge", "street": "N Henry Blvd", "city": "Stockbridge", "state": "GA", "zip": "30281", "type": "Consumer Lending", "naics5": "522291", "naics7": "52229101", "salesvol": 1530.0 }, "geometry": { "type": "Point", "coordinates": [ -84.2409, 33.5443 ] } },
{ "type": "Feature", "properties": { "locnum": "517625778", "name": "Guarantee Finance", "street": "N Henry Blvd", "city": "Stockbridge", "state": "GA", "zip": "30281", "type": "Consumer Lending", "naics5": "522291", "naics7": "52229101", "salesvol": 1530.0 }, "geometry": { "type": "Point", "coordinates": [ -84.2409, 33.5443 ] } },
{ "type": "Feature", "properties": { "locnum": "427985372", "name": "I N L", "street": "S Highway 27", "city": "Carrollton", "state": "GA", "zip": "30117", "type": "Consumer Lending", "naics5": "522291", "naics7": "52229103", "salesvol": 1530.0 }, "geometry": { "type": "Point", "coordinates": [ -85.0731, 33.5451 ] } },
{ "type": "Feature", "properties": { "locnum": "706308030", "name": "Insta Loan", "street": "S Highway 27", "city": "Carrollton", "state": "GA", "zip": "30117", "type": "Consumer Lending", "naics5": "522291", "naics7": "52229103", "salesvol": 2295.0 }, "geometry": { "type": "Point", "coordinates": [ -85.0731, 33.5451 ] } },
{ "type": "Feature", "properties": { "locnum": "677164840", "name": "Ge Capital Corp", "street": "Bernardo Dr", "city": "Riverdale", "state": "GA", "zip": "30296", "type": "Consumer Lending", "naics5": "522291", "naics7": "52229101", "salesvol": 3060.0 }, "geometry": { "type": "Point", "coordinates": [ -84.432099999999892, 33.5459 ] } },
{ "type": "Feature", "properties": { "locnum": "693967887", "name": "G A Auto Pawn", "street": "Highway 85", "city": "Riverdale", "state": "GA", "zip": "30274", "type": "Consumer Lending", "naics5": "522291", "naics7": "52229103", "salesvol": 2295.0 }, "geometry": { "type": "Point", "coordinates": [ -84.4144, 33.547100000000107 ] } },
{ "type": "Feature", "properties": { "locnum": "700327518", "name": "Community Loans", "street": "Highway 85", "city": "Riverdale", "state": "GA", "zip": "30274", "type": "Consumer Lending", "naics5": "522291", "naics7": "52229103", "salesvol": 2295.0 }, "geometry": { "type": "Point", "coordinates": [ -84.4144, 33.547100000000107 ] } },
{ "type": "Feature", "properties": { "locnum": "237352802", "name": "Title Bucks", "street": "Highway 85", "city": "Riverdale", "state": "GA", "zip": "30274", "type": "Consumer Lending", "naics5": "522291", "naics7": "52229103", "salesvol": 2295.0 }, "geometry": { "type": "Point", "coordinates": [ -84.4157, 33.5476 ] } },
{ "type": "Feature", "properties": { "locnum": "424009665", "name": "Riverdale Us Title Pawn", "street": "Highway 85", "city": "Riverdale", "state": "GA", "zip": "30274", "type": "Pawn Shop", "naics5": "522298", "naics7": "52229813", "salesvol": 166.0 }, "geometry": { "type": "Point", "coordinates": [ -84.4157, 33.5476 ] } },
{ "type": "Feature", "properties": { "locnum": "402601059", "name": "E Pawn Shop", "street": "Highway 85", "city": "Riverdale", "state": "GA", "zip": "30274", "type": "Pawn Shop", "naics5": "522298", "naics7": "52229813", "salesvol": 83.0 }, "geometry": { "type": "Point", "coordinates": [ -84.4149, 33.5476 ] } },
{ "type": "Feature", "properties": { "locnum": "608242012", "name": "Automotive Finance Corp", "street": "Oakley Industrial Blvd", "city": "Fairburn", "state": "GA", "zip": "30213", "type": "Consumer Lending", "naics5": "522291", "naics7": "52229102", "salesvol": 2295.0 }, "geometry": { "type": "Point", "coordinates": [ -84.5528, 33.5481 ] } },
{ "type": "Feature", "properties": { "locnum": "906904503", "name": "Cash America Pawn", "street": "N Henry Blvd", "city": "Stockbridge", "state": "GA", "zip": "30281", "type": "Pawn Shop", "naics5": "522298", "naics7": "52229813", "salesvol": 498.0 }, "geometry": { "type": "Point", "coordinates": [ -84.2534, 33.548200000000136 ] } },
{ "type": "Feature", "properties": { "locnum": "419732174", "name": "We Buy Gold Pawn Shop", "street": "Senoia Rd", "city": "Fairburn", "state": "GA", "zip": "30213", "type": "Pawn Shop", "naics5": "522298", "naics7": "52229813", "salesvol": 249.0 }, "geometry": { "type": "Point", "coordinates": [ -84.5773, 33.5483 ] } },
{ "type": "Feature", "properties": { "locnum": "705371963", "name": "First American Title Lending", "street": "Highway 138 Se", "city": "Stockbridge", "state": "GA", "zip": "30281", "type": "Consumer Lending", "naics5": "522291", "naics7": "52229103", "salesvol": 1530.0 }, "geometry": { "type": "Point", "coordinates": [ -84.275599999999855, 33.5493 ] } },
{ "type": "Feature", "properties": { "locnum": "211429311", "name": "Title Max", "street": "Highway 85", "city": "Riverdale", "state": "GA", "zip": "30274", "type": "Consumer Lending", "naics5": "522291", "naics7": "52229103", "salesvol": 3060.0 }, "geometry": { "type": "Point", "coordinates": [ -84.4154, 33.5495 ] } },
{ "type": "Feature", "properties": { "locnum": "962271078", "name": "Ace Cash Express", "street": "Highway 85", "city": "Riverdale", "state": "GA", "zip": "30274", "type": "Consumer Lending", "naics5": "522291", "naics7": "52229111", "salesvol": 1530.0 }, "geometry": { "type": "Point", "coordinates": [ -84.4142, 33.549800000000118 ] } },
{ "type": "Feature", "properties": { "locnum": "707357637", "name": "N F M Lending", "street": null, "city": "Stockbridge", "state": "GA", "zip": "30281", "type": "Consumer Lending", "naics5": "522291", "naics7": "52229103", "salesvol": 2295.0 }, "geometry": { "type": "Point", "coordinates": [ -84.2215, 33.549800000000118 ] } },
{ "type": "Feature", "properties": { "locnum": "403682843", "name": "Cash America Pawn", "street": "Tara Blvd", "city": "Jonesboro", "state": "GA", "zip": "30236", "type": "Pawn Shop", "naics5": "522298", "naics7": "52229813", "salesvol": 415.0 }, "geometry": { "type": "Point", "coordinates": [ -84.369, 33.5502 ] } },
{ "type": "Feature", "properties": { "locnum": "426829967", "name": "E Pawn", "street": "N Henry Blvd", "city": "Stockbridge", "state": "GA", "zip": "30281", "type": "Pawn Shop", "naics5": "522298", "naics7": "52229813", "salesvol": 166.0 }, "geometry": { "type": "Point", "coordinates": [ -84.2568, 33.5504 ] } },
{ "type": "Feature", "properties": { "locnum": "428062944", "name": "I N L", "street": "Highway 138 Sw", "city": "Riverdale", "state": "GA", "zip": "30296", "type": "Consumer Lending", "naics5": "522291", "naics7": "52229103", "salesvol": 2295.0 }, "geometry": { "type": "Point", "coordinates": [ -84.416399999999882, 33.5505 ] } },
{ "type": "Feature", "properties": { "locnum": "706308002", "name": "Insta Loan", "street": "Highway 138 Sw", "city": "Riverdale", "state": "GA", "zip": "30296", "type": "Consumer Lending", "naics5": "522291", "naics7": "52229103", "salesvol": 2295.0 }, "geometry": { "type": "Point", "coordinates": [ -84.416399999999882, 33.5505 ] } },
{ "type": "Feature", "properties": { "locnum": "661775809", "name": "Nuway Capital Funding", "street": "Highway 138 Sw", "city": "Riverdale", "state": "GA", "zip": "30296", "type": "Consumer Lending", "naics5": "522291", "naics7": "52229101", "salesvol": 17595.0 }, "geometry": { "type": "Point", "coordinates": [ -84.449499999999858, 33.5509 ] } },
{ "type": "Feature", "properties": { "locnum": "886966332", "name": "Cash America Pawn", "street": "Highway 85", "city": "Riverdale", "state": "GA", "zip": "30274", "type": "Pawn Shop", "naics5": "522298", "naics7": "52229813", "salesvol": 581.0 }, "geometry": { "type": "Point", "coordinates": [ -84.4152, 33.5511 ] } },
{ "type": "Feature", "properties": { "locnum": "573220993", "name": "Acme Pawn", "street": "Tara Blvd", "city": "Jonesboro", "state": "GA", "zip": "30236", "type": "Pawn Shop", "naics5": "522298", "naics7": "52229813", "salesvol": 83.0 }, "geometry": { "type": "Point", "coordinates": [ -84.371, 33.5513 ] } },
{ "type": "Feature", "properties": { "locnum": "643639404", "name": "First American Title Lending", "street": "Tara Blvd", "city": "Jonesboro", "state": "GA", "zip": "30236", "type": "Consumer Lending", "naics5": "522291", "naics7": "52229103", "salesvol": 1530.0 }, "geometry": { "type": "Point", "coordinates": [ -84.3703, 33.5514 ] } },
{ "type": "Feature", "properties": { "locnum": "700313092", "name": "Fast Cash Advance", "street": "N Henry Blvd", "city": "Stockbridge", "state": "GA", "zip": "30281", "type": "Consumer Lending", "naics5": "522291", "naics7": "52229103", "salesvol": 2295.0 }, "geometry": { "type": "Point", "coordinates": [ -84.2574, 33.5516 ] } },
{ "type": "Feature", "properties": { "locnum": "453999310", "name": "Atlanta Title Loans", "street": "Highway 85", "city": "Riverdale", "state": "GA", "zip": "30274", "type": "Consumer Lending", "naics5": "522291", "naics7": "52229103", "salesvol": 1530.0 }, "geometry": { "type": "Point", "coordinates": [ -84.4149, 33.552 ] } },
{ "type": "Feature", "properties": { "locnum": "705994554", "name": "Republic Finance Inc", "street": "Highway 138 W", "city": "Stockbridge", "state": "GA", "zip": "30281", "type": "Consumer Lending", "naics5": "522291", "naics7": "52229101", "salesvol": 2295.0 }, "geometry": { "type": "Point", "coordinates": [ -84.260899999999864, 33.552 ] } },
{ "type": "Feature", "properties": { "locnum": "425100510", "name": "Fairburn Auto Finance", "street": "Senoia Rd", "city": "Fairburn", "state": "GA", "zip": "30213", "type": "Consumer Lending", "naics5": "522291", "naics7": "52229102", "salesvol": 3060.0 }, "geometry": { "type": "Point", "coordinates": [ -84.5801, 33.5522 ] } },
{ "type": "Feature", "properties": { "locnum": "674481718", "name": "Insta Loan", "street": "Davidson Pkwy S", "city": "Stockbridge", "state": "GA", "zip": "30281", "type": "Consumer Lending", "naics5": "522291", "naics7": "52229103", "salesvol": 2295.0 }, "geometry": { "type": "Point", "coordinates": [ -84.2652, 33.5533 ] } },
{ "type": "Feature", "properties": { "locnum": "650004229", "name": "Title Max", "street": "Davidson Pkwy N", "city": "Stockbridge", "state": "GA", "zip": "30281", "type": "Consumer Lending", "naics5": "522291", "naics7": "52229103", "salesvol": 2295.0 }, "geometry": { "type": "Point", "coordinates": [ -84.2657, 33.5535 ] } },
{ "type": "Feature", "properties": { "locnum": "375421328", "name": "Security Finance Corp", "street": "Highway 138 Se", "city": "Stockbridge", "state": "GA", "zip": "30281", "type": "Consumer Lending", "naics5": "522291", "naics7": "52229103", "salesvol": 3825.0 }, "geometry": { "type": "Point", "coordinates": [ -84.265, 33.553900000000127 ] } },
{ "type": "Feature", "properties": { "locnum": "906904156", "name": "Covington Credit Corp", "street": "Highway 138 Se", "city": "Stockbridge", "state": "GA", "zip": "30281", "type": "Consumer Lending", "naics5": "522291", "naics7": "52229103", "salesvol": 4590.0 }, "geometry": { "type": "Point", "coordinates": [ -84.2649, 33.553900000000127 ] } },
{ "type": "Feature", "properties": { "locnum": "698160033", "name": "Peachtree Title Pawn", "street": null, "city": "Riverdale", "state": "GA", "zip": "30274", "type": "Pawn Shop", "naics5": "522298", "naics7": "52229813", "salesvol": 166.0 }, "geometry": { "type": "Point", "coordinates": [ -84.4016, 33.55440000000015 ] } },
{ "type": "Feature", "properties": { "locnum": "703808642", "name": "Sterling Finance Co", "street": "S Park St", "city": "Carrollton", "state": "GA", "zip": "30117", "type": "Consumer Lending", "naics5": "522291", "naics7": "52229101", "salesvol": 3825.0 }, "geometry": { "type": "Point", "coordinates": [ -85.073499999999896, 33.555000000000156 ] } },
{ "type": "Feature", "properties": { "locnum": "673968251", "name": "Guns & Gold Pawn Shop", "street": "Highway 85", "city": "Riverdale", "state": "GA", "zip": "30274", "type": "Pawn Shop", "naics5": "522298", "naics7": "52229813", "salesvol": 166.0 }, "geometry": { "type": "Point", "coordinates": [ -84.4136, 33.5554 ] } },
{ "type": "Feature", "properties": { "locnum": "705587956", "name": "Title Loans Of Atl", "street": "Highway 81 S", "city": "Covington", "state": "GA", "zip": "30016", "type": "Consumer Lending", "naics5": "522291", "naics7": "52229103", "salesvol": 2295.0 }, "geometry": { "type": "Point", "coordinates": [ -83.9227, 33.5562 ] } },
{ "type": "Feature", "properties": { "locnum": "407079193", "name": "Atlanta Title Loans", "street": "Tara Blvd", "city": "Jonesboro", "state": "GA", "zip": "30236", "type": "Pawn Shop", "naics5": "522298", "naics7": "52229813", "salesvol": 166.0 }, "geometry": { "type": "Point", "coordinates": [ -84.3714, 33.5582 ] } },
{ "type": "Feature", "properties": { "locnum": "706852889", "name": "Milestone Finance & Loan", "street": "Jonesboro Rd", "city": "Morrow", "state": "GA", "zip": "30260", "type": "Consumer Lending", "naics5": "522291", "naics7": "52229103", "salesvol": 2295.0 }, "geometry": { "type": "Point", "coordinates": [ -84.3466, 33.558900000000122 ] } },
{ "type": "Feature", "properties": { "locnum": "599702545", "name": "Springleaf Financial Svc", "street": "S Park St", "city": "Carrollton", "state": "GA", "zip": "30117", "type": "Consumer Lending", "naics5": "522291", "naics7": "52229108", "salesvol": 3060.0 }, "geometry": { "type": "Point", "coordinates": [ -85.075999999999894, 33.560300000000105 ] } },
{ "type": "Feature", "properties": { "locnum": "705871388", "name": "I N L Jonesboro Ga", "street": "Tara Blvd", "city": "Jonesboro", "state": "GA", "zip": "30236", "type": "Consumer Lending", "naics5": "522291", "naics7": "52229103", "salesvol": 2295.0 }, "geometry": { "type": "Point", "coordinates": [ -84.3707, 33.562200000000153 ] } },
{ "type": "Feature", "properties": { "locnum": "706308019", "name": "Insta Loan", "street": "Tara Blvd", "city": "Jonesboro", "state": "GA", "zip": "30236", "type": "Consumer Lending", "naics5": "522291", "naics7": "52229103", "salesvol": 2295.0 }, "geometry": { "type": "Point", "coordinates": [ -84.3707, 33.562200000000153 ] } },
{ "type": "Feature", "properties": { "locnum": "226945459", "name": "Check Into Cash Title Pawn", "street": "S Park St", "city": "Carrollton", "state": "GA", "zip": "30117", "type": "Consumer Lending", "naics5": "522291", "naics7": "52229111", "salesvol": 765.0 }, "geometry": { "type": "Point", "coordinates": [ -85.075, 33.5623 ] } },
{ "type": "Feature", "properties": { "locnum": "404177672", "name": "Pawn King", "street": "S Park St", "city": "Carrollton", "state": "GA", "zip": "30117", "type": "Pawn Shop", "naics5": "522298", "naics7": "52229813", "salesvol": 332.0 }, "geometry": { "type": "Point", "coordinates": [ -85.075, 33.5623 ] } },
{ "type": "Feature", "properties": { "locnum": "427129817", "name": "City Pawn & Title Loans", "street": "S Park St", "city": "Carrollton", "state": "GA", "zip": "30117", "type": "Pawn Shop", "naics5": "522298", "naics7": "52229813", "salesvol": 166.0 }, "geometry": { "type": "Point", "coordinates": [ -85.0758, 33.5637 ] } },
{ "type": "Feature", "properties": { "locnum": "439295399", "name": "Georgia Auto Pawn Inc", "street": "Jonesboro Rd", "city": "Morrow", "state": "GA", "zip": "30260", "type": "Consumer Lending", "naics5": "522291", "naics7": "52229103", "salesvol": 2295.0 }, "geometry": { "type": "Point", "coordinates": [ -84.343999999999895, 33.563800000000121 ] } },
{ "type": "Feature", "properties": { "locnum": "609662960", "name": "Diversified Systems Technology", "street": "Highway 85", "city": "Riverdale", "state": "GA", "zip": "30274", "type": "Consumer Lending", "naics5": "522291", "naics7": "52229103", "salesvol": 765.0 }, "geometry": { "type": "Point", "coordinates": [ -84.414, 33.564200000000106 ] } },
{ "type": "Feature", "properties": { "locnum": "394104145", "name": "Loanmax", "street": "S Park St", "city": "Carrollton", "state": "GA", "zip": "30117", "type": "Consumer Lending", "naics5": "522291", "naics7": "52229103", "salesvol": 1530.0 }, "geometry": { "type": "Point", "coordinates": [ -85.0756, 33.564500000000123 ] } },
{ "type": "Feature", "properties": { "locnum": "607393790", "name": "Atlanta Title Loans", "street": "S Park St", "city": "Carrollton", "state": "GA", "zip": "30117", "type": "Consumer Lending", "naics5": "522291", "naics7": "52229103", "salesvol": 1530.0 }, "geometry": { "type": "Point", "coordinates": [ -85.0756, 33.564500000000123 ] } },
{ "type": "Feature", "properties": { "locnum": "249826132", "name": "Title Max", "street": "S Park St", "city": "Carrollton", "state": "GA", "zip": "30117", "type": "Consumer Lending", "naics5": "522291", "naics7": "52229103", "salesvol": 2295.0 }, "geometry": { "type": "Point", "coordinates": [ -85.0748, 33.5646 ] } },
{ "type": "Feature", "properties": { "locnum": "401680412", "name": "Equity Auto Loan", "street": "S Park St", "city": "Carrollton", "state": "GA", "zip": "30117", "type": "Consumer Lending", "naics5": "522291", "naics7": "52229103", "salesvol": 2295.0 }, "geometry": { "type": "Point", "coordinates": [ -85.0748, 33.5646 ] } },
{ "type": "Feature", "properties": { "locnum": "407084631", "name": "Cash America Pawn", "street": "Highway 85", "city": "Riverdale", "state": "GA", "zip": "30274", "type": "Pawn Shop", "naics5": "522298", "naics7": "52229813", "salesvol": 249.0 }, "geometry": { "type": "Point", "coordinates": [ -84.413899999999884, 33.565 ] } },
{ "type": "Feature", "properties": { "locnum": "439296422", "name": "Georgia Auto Pawn Inc", "street": "S Park St", "city": "Carrollton", "state": "GA", "zip": "30117", "type": "Consumer Lending", "naics5": "522291", "naics7": "52229103", "salesvol": 1530.0 }, "geometry": { "type": "Point", "coordinates": [ -85.0762, 33.5657 ] } },
{ "type": "Feature", "properties": { "locnum": "700385429", "name": "Community Loans", "street": "S Park St", "city": "Carrollton", "state": "GA", "zip": "30117", "type": "Consumer Lending", "naics5": "522291", "naics7": "52229103", "salesvol": 1530.0 }, "geometry": { "type": "Point", "coordinates": [ -85.0762, 33.5657 ] } },
{ "type": "Feature", "properties": { "locnum": "127942159", "name": "Fairburn Pawn Shop", "street": "Sw Broad St", "city": "Fairburn", "state": "GA", "zip": "30213", "type": "Pawn Shop", "naics5": "522298", "naics7": "52229813", "salesvol": 249.0 }, "geometry": { "type": "Point", "coordinates": [ -84.5823, 33.566 ] } },
{ "type": "Feature", "properties": { "locnum": "983922196", "name": "Cash America Pawn", "street": "Tara Blvd", "city": "Jonesboro", "state": "GA", "zip": "30236", "type": "Pawn Shop", "naics5": "522298", "naics7": "52229813", "salesvol": 332.0 }, "geometry": { "type": "Point", "coordinates": [ -84.3718, 33.568 ] } },
{ "type": "Feature", "properties": { "locnum": "602501272", "name": "Mc Coy Brokerage Svc", "street": "Hiddenlake Dr", "city": "Rex", "state": "GA", "zip": "30273", "type": "Consumer Lending", "naics5": "522291", "naics7": "52229103", "salesvol": 2295.0 }, "geometry": { "type": "Point", "coordinates": [ -84.2866, 33.5683000000001 ] } },
{ "type": "Feature", "properties": { "locnum": "670639210", "name": "Plaza Sports & Pawn", "street": "Highway 20 Se", "city": "Conyers", "state": "GA", "zip": "30013", "type": "Pawn Shop", "naics5": "522298", "naics7": "52229813", "salesvol": 332.0 }, "geometry": { "type": "Point", "coordinates": [ -84.0173, 33.5685 ] } },
{ "type": "Feature", "properties": { "locnum": "374646321", "name": "World Acceptance", "street": "Jonesboro Rd", "city": "Union City", "state": "GA", "zip": "30291", "type": "Consumer Lending", "naics5": "522291", "naics7": "52229103", "salesvol": 1530.0 }, "geometry": { "type": "Point", "coordinates": [ -84.5421, 33.5695 ] } },
{ "type": "Feature", "properties": { "locnum": "706117555", "name": "World Finance", "street": "Jonesboro Rd", "city": "Union City", "state": "GA", "zip": "30291", "type": "Consumer Lending", "naics5": "522291", "naics7": "52229103", "salesvol": 2295.0 }, "geometry": { "type": "Point", "coordinates": [ -84.5421, 33.5695 ] } },
{ "type": "Feature", "properties": { "locnum": "422044235", "name": "First American Title Lending", "street": "Jonesboro Rd", "city": "Union City", "state": "GA", "zip": "30291", "type": "Consumer Lending", "naics5": "522291", "naics7": "52229103", "salesvol": 1530.0 }, "geometry": { "type": "Point", "coordinates": [ -84.5429, 33.5698 ] } },
{ "type": "Feature", "properties": { "locnum": "827899626", "name": "Wilkes Finance Corp", "street": "Jonesboro Rd", "city": "Union City", "state": "GA", "zip": "30291", "type": "Consumer Lending", "naics5": "522291", "naics7": "52229103", "salesvol": 3060.0 }, "geometry": { "type": "Point", "coordinates": [ -84.5444, 33.569900000000118 ] } },
{ "type": "Feature", "properties": { "locnum": "700565912", "name": "Morrison Finance & Tax", "street": "Mount Zion Blvd", "city": "Morrow", "state": "GA", "zip": "30260", "type": "Consumer Lending", "naics5": "522291", "naics7": "52229101", "salesvol": 2295.0 }, "geometry": { "type": "Point", "coordinates": [ -84.3137, 33.569900000000118 ] } },
{ "type": "Feature", "properties": { "locnum": "225950138", "name": "Ace Cash Express", "street": "Highway 85", "city": "Riverdale", "state": "GA", "zip": "30274", "type": "Consumer Lending", "naics5": "522291", "naics7": "52229111", "salesvol": 1530.0 }, "geometry": { "type": "Point", "coordinates": [ -84.4121, 33.5701 ] } },
{ "type": "Feature", "properties": { "locnum": "700385432", "name": "Community Loans", "street": "Jonesboro Rd", "city": "Union City", "state": "GA", "zip": "30291", "type": "Consumer Lending", "naics5": "522291", "naics7": "52229103", "salesvol": 3060.0 }, "geometry": { "type": "Point", "coordinates": [ -84.543899999999866, 33.571 ] } },
{ "type": "Feature", "properties": { "locnum": "242442234", "name": "Title Max", "street": "Jonesboro Rd", "city": "Union City", "state": "GA", "zip": "30291", "type": "Consumer Lending", "naics5": "522291", "naics7": "52229109", "salesvol": 1530.0 }, "geometry": { "type": "Point", "coordinates": [ -84.5446, 33.5712 ] } },
{ "type": "Feature", "properties": { "locnum": "424193673", "name": "Insta Loan", "street": "Jonesboro Rd", "city": "Union City", "state": "GA", "zip": "30291", "type": "Consumer Lending", "naics5": "522291", "naics7": "52229103", "salesvol": 2295.0 }, "geometry": { "type": "Point", "coordinates": [ -84.5446, 33.5712 ] } },
{ "type": "Feature", "properties": { "locnum": "613218080", "name": "Union City Pawn & Jewlery", "street": "Jonesboro Rd", "city": "Union City", "state": "GA", "zip": "30291", "type": "Pawn Shop", "naics5": "522298", "naics7": "52229813", "salesvol": 166.0 }, "geometry": { "type": "Point", "coordinates": [ -84.5446, 33.5712 ] } },
{ "type": "Feature", "properties": { "locnum": "698729720", "name": "Equity Auto Loan", "street": "Jonesboro Rd", "city": "Union City", "state": "GA", "zip": "30291", "type": "Consumer Lending", "naics5": "522291", "naics7": "52229103", "salesvol": 3825.0 }, "geometry": { "type": "Point", "coordinates": [ -84.5446, 33.5712 ] } },
{ "type": "Feature", "properties": { "locnum": "453997322", "name": "Springleaf Financial Svc", "street": "Mount Zion Rd", "city": "Morrow", "state": "GA", "zip": "30260", "type": "Consumer Lending", "naics5": "522291", "naics7": "52229108", "salesvol": 3060.0 }, "geometry": { "type": "Point", "coordinates": [ -84.340499999999892, 33.571400000000111 ] } },
{ "type": "Feature", "properties": { "locnum": "240789131", "name": "Mc Intosh Finance", "street": "Shannon Pkwy", "city": "Union City", "state": "GA", "zip": "30291", "type": "Consumer Lending", "naics5": "522291", "naics7": "52229101", "salesvol": 2295.0 }, "geometry": { "type": "Point", "coordinates": [ -84.5388, 33.5716 ] } },
{ "type": "Feature", "properties": { "locnum": "426827743", "name": "Insta Loan", "street": "Jonesboro Rd", "city": "Morrow", "state": "GA", "zip": "30260", "type": "Consumer Lending", "naics5": "522291", "naics7": "52229103", "salesvol": 2295.0 }, "geometry": { "type": "Point", "coordinates": [ -84.3432, 33.571700000000128 ] } },
{ "type": "Feature", "properties": { "locnum": "542557301", "name": "Auto Acceptance Corp", "street": "Main St", "city": "Riverdale", "state": "GA", "zip": "30274", "type": "Consumer Lending", "naics5": "522291", "naics7": "52229103", "salesvol": 30600.0 }, "geometry": { "type": "Point", "coordinates": [ -84.413899999999884, 33.573 ] } },
{ "type": "Feature", "properties": { "locnum": "418302092", "name": "Ace Cash Express", "street": "Highway 85", "city": "Riverdale", "state": "GA", "zip": "30274", "type": "Consumer Lending", "naics5": "522291", "naics7": "52229111", "salesvol": 1530.0 }, "geometry": { "type": "Point", "coordinates": [ -84.4125, 33.5733 ] } },
{ "type": "Feature", "properties": { "locnum": "427726015", "name": "Equity Auto Loan", "street": "Tara Blvd", "city": "Jonesboro", "state": "GA", "zip": "30236", "type": "Consumer Lending", "naics5": "522291", "naics7": "52229103", "salesvol": 2295.0 }, "geometry": { "type": "Point", "coordinates": [ -84.372399999999899, 33.5733 ] } },
{ "type": "Feature", "properties": { "locnum": "698160074", "name": "Title Max", "street": "Tara Blvd", "city": "Jonesboro", "state": "GA", "zip": "30236", "type": "Consumer Lending", "naics5": "522291", "naics7": "52229103", "salesvol": 2295.0 }, "geometry": { "type": "Point", "coordinates": [ -84.372399999999899, 33.5733 ] } },
{ "type": "Feature", "properties": { "locnum": "492279237", "name": "Cash Express-Title Pawn", "street": "Tara Blvd", "city": "Jonesboro", "state": "GA", "zip": "30236", "type": "Consumer Lending", "naics5": "522291", "naics7": "52229103", "salesvol": 2295.0 }, "geometry": { "type": "Point", "coordinates": [ -84.3711, 33.5738 ] } },
{ "type": "Feature", "properties": { "locnum": "673967410", "name": "Peachtree Title Pawn & Cash", "street": "Tara Blvd", "city": "Jonesboro", "state": "GA", "zip": "30236", "type": "Pawn Shop", "naics5": "522298", "naics7": "52229813", "salesvol": 166.0 }, "geometry": { "type": "Point", "coordinates": [ -84.3726, 33.5747 ] } },
{ "type": "Feature", "properties": { "locnum": "889513370", "name": "Fsi", "street": "Rivertown Rd", "city": "Fairburn", "state": "GA", "zip": "30213", "type": "Consumer Lending", "naics5": "522291", "naics7": "52229101", "salesvol": 1530.0 }, "geometry": { "type": "Point", "coordinates": [ -84.626599999999883, 33.5748 ] } },
{ "type": "Feature", "properties": { "locnum": "428062948", "name": "World Finance", "street": "Southlake Pkwy", "city": "Morrow", "state": "GA", "zip": "30260", "type": "Consumer Lending", "naics5": "522291", "naics7": "52229103", "salesvol": 2295.0 }, "geometry": { "type": "Point", "coordinates": [ -84.340599999999853, 33.575600000000151 ] } },
{ "type": "Feature", "properties": { "locnum": "474075041", "name": "Fast Cash Title Pawn", "street": "Newnan Rd", "city": "Carrollton", "state": "GA", "zip": "30117", "type": "Pawn Shop", "naics5": "522298", "naics7": "52229813", "salesvol": 249.0 }, "geometry": { "type": "Point", "coordinates": [ -85.0582, 33.5764 ] } },
{ "type": "Feature", "properties": { "locnum": "544415060", "name": "Finance Select Inc", "street": "Newnan Rd", "city": "Carrollton", "state": "GA", "zip": "30117", "type": "Pawn Shop", "naics5": "522298", "naics7": "52229813", "salesvol": 830.0 }, "geometry": { "type": "Point", "coordinates": [ -85.0582, 33.5767 ] } },
{ "type": "Feature", "properties": { "locnum": "703586834", "name": "Gold Nugget Pawn Shop", "street": "Newnan Rd", "city": "Carrollton", "state": "GA", "zip": "30117", "type": "Pawn Shop", "naics5": "522298", "naics7": "52229813", "salesvol": 166.0 }, "geometry": { "type": "Point", "coordinates": [ -85.0645, 33.577900000000184 ] } },
{ "type": "Feature", "properties": { "locnum": "423536197", "name": "Arbor Equity", "street": "Dixie Rd", "city": "Covington", "state": "GA", "zip": "30014", "type": "Consumer Lending", "naics5": "522291", "naics7": "52229103", "salesvol": 1530.0 }, "geometry": { "type": "Point", "coordinates": [ -83.7674, 33.578 ] } },
{ "type": "Feature", "properties": { "locnum": "378184170", "name": "Complete Cash", "street": "Maple St", "city": "Carrollton", "state": "GA", "zip": "30117", "type": "Consumer Lending", "naics5": "522291", "naics7": "52229109", "salesvol": 765.0 }, "geometry": { "type": "Point", "coordinates": [ -85.079, 33.5782 ] } },
{ "type": "Feature", "properties": { "locnum": "827984220", "name": "Riverdale Finance & Tax Inc", "street": "Church St", "city": "Riverdale", "state": "GA", "zip": "30274", "type": "Consumer Lending", "naics5": "522291", "naics7": "52229103", "salesvol": 2295.0 }, "geometry": { "type": "Point", "coordinates": [ -84.4158, 33.5786 ] } },
{ "type": "Feature", "properties": { "locnum": "826826257", "name": "Ace Cash Express", "street": "Tara Blvd", "city": "Jonesboro", "state": "GA", "zip": "30236", "type": "Consumer Lending", "naics5": "522291", "naics7": "52229111", "salesvol": 7650.0 }, "geometry": { "type": "Point", "coordinates": [ -84.3742, 33.578800000000143 ] } },
{ "type": "Feature", "properties": { "locnum": "407079656", "name": "Arrowhead Pawn & Jewelry", "street": "Tara Blvd", "city": "Jonesboro", "state": "GA", "zip": "30236", "type": "Pawn Shop", "naics5": "522298", "naics7": "52229813", "salesvol": 747.0 }, "geometry": { "type": "Point", "coordinates": [ -84.3744, 33.579 ] } },
{ "type": "Feature", "properties": { "locnum": "225239821", "name": "Payday Cash Advance", "street": "Highway 85", "city": "Riverdale", "state": "GA", "zip": "30274", "type": "Consumer Lending", "naics5": "522291", "naics7": "52229103", "salesvol": 2295.0 }, "geometry": { "type": "Point", "coordinates": [ -84.4111, 33.58 ] } },
{ "type": "Feature", "properties": { "locnum": "492279252", "name": "Instant Cash Loans-Car Titles", "street": "Tara Blvd", "city": "Jonesboro", "state": "GA", "zip": "30236", "type": "Consumer Lending", "naics5": "522291", "naics7": "52229109", "salesvol": 5355.0 }, "geometry": { "type": "Point", "coordinates": [ -84.3762, 33.581500000000112 ] } },
{ "type": "Feature", "properties": { "locnum": "629755315", "name": "Title Bucks", "street": "Tara Blvd", "city": "Jonesboro", "state": "GA", "zip": "30236", "type": "Consumer Lending", "naics5": "522291", "naics7": "52229103", "salesvol": 3060.0 }, "geometry": { "type": "Point", "coordinates": [ -84.3759, 33.581500000000112 ] } },
{ "type": "Feature", "properties": { "locnum": "421203588", "name": "Advance Southern", "street": "Azalea Dr", "city": "Covington", "state": "GA", "zip": "30014", "type": "Consumer Lending", "naics5": "522291", "naics7": "52229103", "salesvol": 2295.0 }, "geometry": { "type": "Point", "coordinates": [ -83.8358, 33.581500000000112 ] } },
{ "type": "Feature", "properties": { "locnum": "827613746", "name": "C & C Pawn Shop", "street": "N Park St", "city": "Carrollton", "state": "GA", "zip": "30117", "type": "Pawn Shop", "naics5": "522298", "naics7": "52229813", "salesvol": 83.0 }, "geometry": { "type": "Point", "coordinates": [ -85.0784, 33.5819 ] } },
{ "type": "Feature", "properties": { "locnum": "827887696", "name": "Southland Pawn & Jewelry", "street": "Jonesboro Rd", "city": "Morrow", "state": "GA", "zip": "30260", "type": "Pawn Shop", "naics5": "522298", "naics7": "52229813", "salesvol": 166.0 }, "geometry": { "type": "Point", "coordinates": [ -84.3397, 33.5821 ] } },
{ "type": "Feature", "properties": { "locnum": "424348308", "name": "Cash Express-Title Pawn", "street": "N Park St", "city": "Carrollton", "state": "GA", "zip": "30117", "type": "Pawn Shop", "naics5": "522298", "naics7": "52229813", "salesvol": 166.0 }, "geometry": { "type": "Point", "coordinates": [ -85.078, 33.5828 ] } },
{ "type": "Feature", "properties": { "locnum": "424486442", "name": "Finance Select Inc", "street": "N Park St", "city": "Carrollton", "state": "GA", "zip": "30117", "type": "Consumer Lending", "naics5": "522291", "naics7": "52229101", "salesvol": 2295.0 }, "geometry": { "type": "Point", "coordinates": [ -85.078, 33.5828 ] } },
{ "type": "Feature", "properties": { "locnum": "422331542", "name": "Complete Cash", "street": "N Park St", "city": "Carrollton", "state": "GA", "zip": "30117", "type": "Consumer Lending", "naics5": "522291", "naics7": "52229109", "salesvol": 765.0 }, "geometry": { "type": "Point", "coordinates": [ -85.0786, 33.583 ] } },
{ "type": "Feature", "properties": { "locnum": "422246076", "name": "Title Max", "street": "Tara Blvd", "city": "Morrow", "state": "GA", "zip": "30260", "type": "Consumer Lending", "naics5": "522291", "naics7": "52229103", "salesvol": 6120.0 }, "geometry": { "type": "Point", "coordinates": [ -84.325999999999866, 33.583 ] } },
{ "type": "Feature", "properties": { "locnum": "404159218", "name": "Pawn Pro Inc", "street": "Washington St Sw", "city": "Covington", "state": "GA", "zip": "30014", "type": "Pawn Shop", "naics5": "522298", "naics7": "52229813", "salesvol": 166.0 }, "geometry": { "type": "Point", "coordinates": [ -83.878199999999865, 33.583 ] } },
{ "type": "Feature", "properties": { "locnum": "685493710", "name": "Security Finance Corp", "street": "Bankhead Hwy", "city": "Carrollton", "state": "GA", "zip": "30117", "type": "Consumer Lending", "naics5": "522291", "naics7": "52229103", "salesvol": 3060.0 }, "geometry": { "type": "Point", "coordinates": [ -85.0592, 33.5863 ] } },
{ "type": "Feature", "properties": { "locnum": "424549119", "name": "World Acceptance", "street": "Bankhead Hwy", "city": "Carrollton", "state": "GA", "zip": "30117", "type": "Consumer Lending", "naics5": "522291", "naics7": "52229103", "salesvol": 2295.0 }, "geometry": { "type": "Point", "coordinates": [ -85.0587, 33.58650000000015 ] } },
{ "type": "Feature", "properties": { "locnum": "615666435", "name": "Title Bucks", "street": "Bankhead Hwy", "city": "Carrollton", "state": "GA", "zip": "30117", "type": "Consumer Lending", "naics5": "522291", "naics7": "52229103", "salesvol": 3060.0 }, "geometry": { "type": "Point", "coordinates": [ -85.054099999999892, 33.5876 ] } },
{ "type": "Feature", "properties": { "locnum": "634708325", "name": "Sunset Finance", "street": "Bankhead Hwy", "city": "Carrollton", "state": "GA", "zip": "30117", "type": "Consumer Lending", "naics5": "522291", "naics7": "52229101", "salesvol": 2295.0 }, "geometry": { "type": "Point", "coordinates": [ -85.052499999999881, 33.588600000000163 ] } },
{ "type": "Feature", "properties": { "locnum": "436140267", "name": "Credit Central", "street": "Bankhead Hwy", "city": "Carrollton", "state": "GA", "zip": "30117", "type": "Consumer Lending", "naics5": "522291", "naics7": "52229103", "salesvol": 1530.0 }, "geometry": { "type": "Point", "coordinates": [ -85.053399999999868, 33.5888 ] } },
{ "type": "Feature", "properties": { "locnum": "406169747", "name": "Title Max", "street": "Bankhead Hwy", "city": "Carrollton", "state": "GA", "zip": "30117", "type": "Consumer Lending", "naics5": "522291", "naics7": "52229103", "salesvol": 2295.0 }, "geometry": { "type": "Point", "coordinates": [ -85.052099999999868, 33.5888 ] } },
{ "type": "Feature", "properties": { "locnum": "700212321", "name": "L G Pawn", "street": "Bankhead Hwy", "city": "Carrollton", "state": "GA", "zip": "30117", "type": "Pawn Shop", "naics5": "522298", "naics7": "52229813", "salesvol": 166.0 }, "geometry": { "type": "Point", "coordinates": [ -85.0511, 33.5893 ] } },
{ "type": "Feature", "properties": { "locnum": "607393816", "name": "Title Max", "street": "Bankhead Hwy", "city": "Carrollton", "state": "GA", "zip": "30117", "type": "Consumer Lending", "naics5": "522291", "naics7": "52229103", "salesvol": 1530.0 }, "geometry": { "type": "Point", "coordinates": [ -85.0513, 33.589600000000168 ] } },
{ "type": "Feature", "properties": { "locnum": "388327728", "name": "Alcovy Jewelry & Pawn Inc", "street": "Washington St Sw", "city": "Covington", "state": "GA", "zip": "30014", "type": "Pawn Shop", "naics5": "522298", "naics7": "52229813", "salesvol": 166.0 }, "geometry": { "type": "Point", "coordinates": [ -83.876099999999894, 33.5897 ] } },
{ "type": "Feature", "properties": { "locnum": "661849570", "name": "Quick Cash", "street": "Bankhead Hwy", "city": "Carrollton", "state": "GA", "zip": "30117", "type": "Consumer Lending", "naics5": "522291", "naics7": "52229103", "salesvol": 1530.0 }, "geometry": { "type": "Point", "coordinates": [ -85.0488, 33.5903 ] } },
{ "type": "Feature", "properties": { "locnum": "827615857", "name": "Title Xchange", "street": "Bankhead Hwy", "city": "Carrollton", "state": "GA", "zip": "30117", "type": "Consumer Lending", "naics5": "522291", "naics7": "52229103", "salesvol": 1530.0 }, "geometry": { "type": "Point", "coordinates": [ -85.0488, 33.5903 ] } },
{ "type": "Feature", "properties": { "locnum": "642821201", "name": "Title Max", "street": "Highway 85", "city": "Riverdale", "state": "GA", "zip": "30274", "type": "Consumer Lending", "naics5": "522291", "naics7": "52229103", "salesvol": 3060.0 }, "geometry": { "type": "Point", "coordinates": [ -84.4076, 33.5903 ] } },
{ "type": "Feature", "properties": { "locnum": "706968686", "name": "I N L Riverdale Ga", "street": "Highway 85", "city": "Riverdale", "state": "GA", "zip": "30274", "type": "Consumer Lending", "naics5": "522291", "naics7": "52229103", "salesvol": 2295.0 }, "geometry": { "type": "Point", "coordinates": [ -84.4076, 33.5903 ] } },
{ "type": "Feature", "properties": { "locnum": "707804504", "name": "Insta Loan", "street": "Highway 85", "city": "Riverdale", "state": "GA", "zip": "30274", "type": "Consumer Lending", "naics5": "522291", "naics7": "52229103", "salesvol": 2295.0 }, "geometry": { "type": "Point", "coordinates": [ -84.4076, 33.5903 ] } },
{ "type": "Feature", "properties": { "locnum": "643386956", "name": "Title Max", "street": "Old Dixie Hwy", "city": "Forest Park", "state": "GA", "zip": "30297", "type": "Consumer Lending", "naics5": "522291", "naics7": "52229103", "salesvol": 1530.0 }, "geometry": { "type": "Point", "coordinates": [ -84.3767, 33.5917 ] } },
{ "type": "Feature", "properties": { "locnum": "425999324", "name": "Morrison Finance & Tax", "street": "Mount Zion Blvd", "city": "Ellenwood", "state": "GA", "zip": "30294", "type": "Consumer Lending", "naics5": "522291", "naics7": "52229101", "salesvol": 2295.0 }, "geometry": { "type": "Point", "coordinates": [ -84.3023, 33.59190000000013 ] } },
{ "type": "Feature", "properties": { "locnum": "127814861", "name": "Carroll Finance Co", "street": "Bankhead Hwy", "city": "Carrollton", "state": "GA", "zip": "30117", "type": "Consumer Lending", "naics5": "522291", "naics7": "52229103", "salesvol": 2295.0 }, "geometry": { "type": "Point", "coordinates": [ -85.0462, 33.5921 ] } },
{ "type": "Feature", "properties": { "locnum": "698616158", "name": "Pdq Auto & Loan Finder", "street": "Silver Queen Rd", "city": "Ellenwood", "state": "GA", "zip": "30294", "type": "Consumer Lending", "naics5": "522291", "naics7": "52229103", "salesvol": 2295.0 }, "geometry": { "type": "Point", "coordinates": [ -84.2989, 33.5942 ] } },
{ "type": "Feature", "properties": { "locnum": "127817187", "name": "Onemain Financial", "street": "Bankhead Hwy", "city": "Carrollton", "state": "GA", "zip": "30116", "type": "Consumer Lending", "naics5": "522291", "naics7": "52229108", "salesvol": 2295.0 }, "geometry": { "type": "Point", "coordinates": [ -85.040099999999839, 33.5943 ] } },
{ "type": "Feature", "properties": { "locnum": "380609230", "name": "Credit Central", "street": "Monticello St Sw", "city": "Covington", "state": "GA", "zip": "30014", "type": "Consumer Lending", "naics5": "522291", "naics7": "52229103", "salesvol": 765.0 }, "geometry": { "type": "Point", "coordinates": [ -83.8604, 33.5962 ] } },
{ "type": "Feature", "properties": { "locnum": "707013907", "name": "Element Funding", "street": "Clark St Sw", "city": "Covington", "state": "GA", "zip": "30014", "type": "Consumer Lending", "naics5": "522291", "naics7": "52229103", "salesvol": 2295.0 }, "geometry": { "type": "Point", "coordinates": [ -83.8597, 33.596900000000112 ] } },
{ "type": "Feature", "properties": { "locnum": "226218600", "name": "United Auto Acceptance", "street": "Garden Walk Blvd", "city": "College Park", "state": "GA", "zip": "30349", "type": "Consumer Lending", "naics5": "522291", "naics7": "52229103", "salesvol": 10710.0 }, "geometry": { "type": "Point", "coordinates": [ -84.4276, 33.5974 ] } },
{ "type": "Feature", "properties": { "locnum": "602612277", "name": "Lendmark Financial Svc Inc", "street": "Usher St Nw", "city": "Covington", "state": "GA", "zip": "30014", "type": "Consumer Lending", "naics5": "522291", "naics7": "52229101", "salesvol": 0.0 }, "geometry": { "type": "Point", "coordinates": [ -83.8634, 33.5976 ] } },
{ "type": "Feature", "properties": { "locnum": "906911896", "name": "Quick Loans", "street": "Highway 278 Ne", "city": "Covington", "state": "GA", "zip": "30014", "type": "Consumer Lending", "naics5": "522291", "naics7": "52229103", "salesvol": 2295.0 }, "geometry": { "type": "Point", "coordinates": [ -83.8327, 33.5991 ] } },
{ "type": "Feature", "properties": { "locnum": "670639228", "name": "Title Bucks", "street": "Highway 278 E", "city": "Covington", "state": "GA", "zip": "30014", "type": "Consumer Lending", "naics5": "522291", "naics7": "52229103", "salesvol": 2295.0 }, "geometry": { "type": "Point", "coordinates": [ -83.833, 33.5994 ] } },
{ "type": "Feature", "properties": { "locnum": "403989284", "name": "World Finance", "street": "N Park St", "city": "Carrollton", "state": "GA", "zip": "30117", "type": "Consumer Lending", "naics5": "522291", "naics7": "52229103", "salesvol": 2295.0 }, "geometry": { "type": "Point", "coordinates": [ -85.080399999999898, 33.5995 ] } },
{ "type": "Feature", "properties": { "locnum": "827599960", "name": "Western Finance Svc", "street": "N Park St", "city": "Carrollton", "state": "GA", "zip": "30117", "type": "Consumer Lending", "naics5": "522291", "naics7": "52229103", "salesvol": 3825.0 }, "geometry": { "type": "Point", "coordinates": [ -85.080399999999898, 33.5995 ] } },
{ "type": "Feature", "properties": { "locnum": "403157327", "name": "All American Gold & Pawn Brkrs", "street": "Bankhead Hwy", "city": "Carrollton", "state": "GA", "zip": "30116", "type": "Pawn Shop", "naics5": "522298", "naics7": "52229813", "salesvol": 166.0 }, "geometry": { "type": "Point", "coordinates": [ -85.0299, 33.6001 ] } },
{ "type": "Feature", "properties": { "locnum": "705846548", "name": "Title Pawn Rescue", "street": "Riverdale Rd", "city": "Atlanta", "state": "GA", "zip": "30349", "type": "Pawn Shop", "naics5": "522298", "naics7": "52229813", "salesvol": 249.0 }, "geometry": { "type": "Point", "coordinates": [ -84.4295, 33.6002 ] } },
{ "type": "Feature", "properties": { "locnum": "127935070", "name": "Elm Street Pawn Brokers", "street": "Elm St Ne", "city": "Covington", "state": "GA", "zip": "30014", "type": "Pawn Shop", "naics5": "522298", "naics7": "52229813", "salesvol": 166.0 }, "geometry": { "type": "Point", "coordinates": [ -83.8571, 33.6008 ] } },
{ "type": "Feature", "properties": { "locnum": "427986441", "name": "Credit Central", "street": "Pace St", "city": "Covington", "state": "GA", "zip": "30014", "type": "Consumer Lending", "naics5": "522291", "naics7": "52229103", "salesvol": 2295.0 }, "geometry": { "type": "Point", "coordinates": [ -83.86, 33.6014 ] } },
{ "type": "Feature", "properties": { "locnum": "421730074", "name": "Complete Cash", "street": "Highway 278 Ne", "city": "Covington", "state": "GA", "zip": "30014", "type": "Consumer Lending", "naics5": "522291", "naics7": "52229109", "salesvol": 2295.0 }, "geometry": { "type": "Point", "coordinates": [ -83.8397, 33.6015 ] } },
{ "type": "Feature", "properties": { "locnum": "635030554", "name": "John's Pawn Shop", "street": "Highway 278 Ne", "city": "Covington", "state": "GA", "zip": "30014", "type": "Pawn Shop", "naics5": "522298", "naics7": "52229813", "salesvol": 249.0 }, "geometry": { "type": "Point", "coordinates": [ -83.838999999999857, 33.6017 ] } },
{ "type": "Feature", "properties": { "locnum": "615553294", "name": "Sunset Finance Of Covington", "street": "Highway 278 Ne", "city": "Covington", "state": "GA", "zip": "30014", "type": "Consumer Lending", "naics5": "522291", "naics7": "52229103", "salesvol": 2295.0 }, "geometry": { "type": "Point", "coordinates": [ -83.8414, 33.60200000000011 ] } },
{ "type": "Feature", "properties": { "locnum": "436214475", "name": "E Pawn", "street": "Riverdale Rd", "city": "Atlanta", "state": "GA", "zip": "30349", "type": "Pawn Shop", "naics5": "522298", "naics7": "52229813", "salesvol": 249.0 }, "geometry": { "type": "Point", "coordinates": [ -84.4303, 33.602100000000107 ] } },
{ "type": "Feature", "properties": { "locnum": "425838004", "name": "Onemain Financial", "street": "Highway 278 Ne", "city": "Covington", "state": "GA", "zip": "30014", "type": "Consumer Lending", "naics5": "522291", "naics7": "52229108", "salesvol": 3060.0 }, "geometry": { "type": "Point", "coordinates": [ -83.8549, 33.6023 ] } },
{ "type": "Feature", "properties": { "locnum": "427986440", "name": "Community Loans Of America", "street": "Highway 278 Ne", "city": "Covington", "state": "GA", "zip": "30014", "type": "Consumer Lending", "naics5": "522291", "naics7": "52229103", "salesvol": 1530.0 }, "geometry": { "type": "Point", "coordinates": [ -83.8549, 33.6023 ] } },
{ "type": "Feature", "properties": { "locnum": "127940526", "name": "World Finance", "street": "Highway 278 Nw", "city": "Covington", "state": "GA", "zip": "30014", "type": "Consumer Lending", "naics5": "522291", "naics7": "52229103", "salesvol": 3825.0 }, "geometry": { "type": "Point", "coordinates": [ -83.8617, 33.6027 ] } },
{ "type": "Feature", "properties": { "locnum": "943872473", "name": "Lendmark Financial Svc", "street": "Highway 278 Ne", "city": "Covington", "state": "GA", "zip": "30014", "type": "Consumer Lending", "naics5": "522291", "naics7": "52229101", "salesvol": 3825.0 }, "geometry": { "type": "Point", "coordinates": [ -83.8592, 33.6028 ] } },
{ "type": "Feature", "properties": { "locnum": "605121227", "name": "Title Max", "street": "Highway 278", "city": "Covington", "state": "GA", "zip": "30014", "type": "Consumer Lending", "naics5": "522291", "naics7": "52229103", "salesvol": 3060.0 }, "geometry": { "type": "Point", "coordinates": [ -83.8567, 33.6029 ] } },
{ "type": "Feature", "properties": { "locnum": "427986442", "name": "Equity Auto Loan", "street": "Highway 278 Nw", "city": "Covington", "state": "GA", "zip": "30014", "type": "Consumer Lending", "naics5": "522291", "naics7": "52229103", "salesvol": 2295.0 }, "geometry": { "type": "Point", "coordinates": [ -83.8667, 33.603200000000129 ] } },
{ "type": "Feature", "properties": { "locnum": "706308035", "name": "Insta Loan", "street": "Highway 278 Nw", "city": "Covington", "state": "GA", "zip": "30014", "type": "Consumer Lending", "naics5": "522291", "naics7": "52229103", "salesvol": 2295.0 }, "geometry": { "type": "Point", "coordinates": [ -83.8667, 33.603200000000129 ] } },
{ "type": "Feature", "properties": { "locnum": "705663895", "name": "Emergency Pawn", "street": "Highway 278 Ne", "city": "Covington", "state": "GA", "zip": "30014", "type": "Pawn Shop", "naics5": "522298", "naics7": "52229813", "salesvol": 249.0 }, "geometry": { "type": "Point", "coordinates": [ -83.847, 33.603200000000129 ] } },
{ "type": "Feature", "properties": { "locnum": "471437897", "name": "Great American Loans", "street": "Highway 278 Nw", "city": "Covington", "state": "GA", "zip": "30014", "type": "Consumer Lending", "naics5": "522291", "naics7": "52229103", "salesvol": 1530.0 }, "geometry": { "type": "Point", "coordinates": [ -83.8686, 33.6038 ] } },
{ "type": "Feature", "properties": { "locnum": "127934230", "name": "Covington Credit Corp", "street": "Highway 278 Nw", "city": "Covington", "state": "GA", "zip": "30014", "type": "Consumer Lending", "naics5": "522291", "naics7": "52229103", "salesvol": 2295.0 }, "geometry": { "type": "Point", "coordinates": [ -83.8709, 33.6046 ] } },
{ "type": "Feature", "properties": { "locnum": "719891707", "name": "American Credit Acceptance", "street": "Old Dixie Hwy", "city": "Forest Park", "state": "GA", "zip": "30297", "type": "Consumer Lending", "naics5": "522291", "naics7": "52229101", "salesvol": 77265.0 }, "geometry": { "type": "Point", "coordinates": [ -84.3804, 33.6049 ] } },
{ "type": "Feature", "properties": { "locnum": "612172387", "name": "Auto Finance", "street": "Old Dixie Hwy", "city": "Forest Park", "state": "GA", "zip": "30297", "type": "Consumer Lending", "naics5": "522291", "naics7": "52229101", "salesvol": 19125.0 }, "geometry": { "type": "Point", "coordinates": [ -84.3798, 33.6054 ] } },
{ "type": "Feature", "properties": { "locnum": "127935302", "name": "1St Franklin Financial Corp", "street": "Highway 278 Nw", "city": "Covington", "state": "GA", "zip": "30014", "type": "Consumer Lending", "naics5": "522291", "naics7": "52229101", "salesvol": 2295.0 }, "geometry": { "type": "Point", "coordinates": [ -83.873899999999892, 33.6054 ] } },
{ "type": "Feature", "properties": { "locnum": "595310590", "name": "Security Finance Corp", "street": "Highway 278 Nw", "city": "Covington", "state": "GA", "zip": "30014", "type": "Consumer Lending", "naics5": "522291", "naics7": "52229103", "salesvol": 765.0 }, "geometry": { "type": "Point", "coordinates": [ -83.873799999999875, 33.6054 ] } },
{ "type": "Feature", "properties": { "locnum": "706859877", "name": "Ball Pawn Llc", "street": "Riverdale Rd", "city": "Atlanta", "state": "GA", "zip": "30349", "type": "Pawn Shop", "naics5": "522298", "naics7": "52229813", "salesvol": 249.0 }, "geometry": { "type": "Point", "coordinates": [ -84.4349, 33.6066 ] } },
{ "type": "Feature", "properties": { "locnum": "527880371", "name": "Cash America Pawn", "street": "Old National Hwy", "city": "Atlanta", "state": "GA", "zip": "30349", "type": "Pawn Shop", "naics5": "522298", "naics7": "52229813", "salesvol": 332.0 }, "geometry": { "type": "Point", "coordinates": [ -84.4714, 33.6069 ] } },
{ "type": "Feature", "properties": { "locnum": "250983913", "name": "Title Max", "street": "Riverdale Rd", "city": "Atlanta", "state": "GA", "zip": "30349", "type": "Consumer Lending", "naics5": "522291", "naics7": "52229103", "salesvol": 1530.0 }, "geometry": { "type": "Point", "coordinates": [ -84.4362, 33.6071 ] } },