{
"type": "FeatureCollection",
"name": "atl_payday_limit",
"crs": { "type": "name", "properties": { "name": "urn:ogc:def:crs:OGC:1.3:CRS84" } },
"features": [
{ "type": "Feature", "properties": { "id": 1, "name": "A D R Financial Service", "street": "1260 Glenwood Ave Se", "city": "Atlanta", "state": "GA", "zip": 30316 }, "geometry": { "type": "Point", "coordinates": [ -84.3460701, 33.7403172 ] } },
{ "type": "Feature", "properties": { "id": 2, "name": "A Payday Advance", "street": "1260 Glenwood Ave Se", "city": "Atlanta", "state": "GA", "zip": 30316 }, "geometry": { "type": "Point", "coordinates": [ -84.3460701, 33.7403172 ] } },
{ "type": "Feature", "properties": { "id": 5, "name": "ACE Cash Express", "street": "863 Oak St Sw", "city": "Atlanta", "state": "GA", "zip": 30310 }, "geometry": { "type": "Point", "coordinates": [ -84.4160732, 33.7410434 ] } },
{ "type": "Feature", "properties": { "id": 8, "name": "ACE Cash Express", "street": "233 Peachtree Street Northeast", "city": "Atlanta", "state": "GA", "zip": 30303 }, "geometry": { "type": "Point", "coordinates": [ -84.3870953, 33.7604599 ] } },
{ "type": "Feature", "properties": { "id": 9, "name": "ACE Cash Express", "street": "2841 Greenbriar Parkway Southwest", "city": "Atlanta", "state": "GA", "zip": 30331 }, "geometry": { "type": "Point", "coordinates": [ -84.4934528, 33.6877868 ] } },
{ "type": "Feature", "properties": { "id": 11, "name": "ACE Cash Express", "street": "3714 Roswell Road Northeast", "city": "Atlanta", "state": "GA", "zip": 30342 }, "geometry": { "type": "Point", "coordinates": [ -84.3824264, 33.8567894 ] } },
{ "type": "Feature", "properties": { "id": 12, "name": "ACE Cash Express", "street": "2581 Piedmont Road Northeast Suite A800", "city": "Atlanta", "state": "GA", "zip": 30324 }, "geometry": { "type": "Point", "coordinates": [ -84.3645915, 33.8256045 ] } },
{ "type": "Feature", "properties": { "id": 13, "name": "ACE Cash Express", "street": "461 Ponce De Leon Avenue Northeast", "city": "Atlanta", "state": "GA", "zip": 30308 }, "geometry": { "type": "Point", "coordinates": [ -84.3718892, 33.7730187 ] } },
{ "type": "Feature", "properties": { "id": 14, "name": "ACE Cash Express", "street": "2261 Cheshire Bridge Road Northeast", "city": "Atlanta", "state": "GA", "zip": 30324 }, "geometry": { "type": "Point", "coordinates": [ -84.351785, 33.8168606 ] } },
{ "type": "Feature", "properties": { "id": 15, "name": "ACE Cash Express", "street": "381 Moreland Avenue Southeast", "city": "Atlanta", "state": "GA", "zip": 30316 }, "geometry": { "type": "Point", "coordinates": [ -84.3495651, 33.743596 ] } },
{ "type": "Feature", "properties": { "id": 16, "name": "ACE Cash Express", "street": "495 Whitehall Street Southwest Suite C", "city": "Atlanta", "state": "GA", "zip": 30303 }, "geometry": { "type": "Point", "coordinates": [ -84.403824899999989, 33.744082 ] } },
{ "type": "Feature", "properties": { "id": 17, "name": "ACE Cash Express", "street": "3583 Mrtn Lthr Kng Jr Drive", "city": "Atlanta", "state": "GA", "zip": 30331 }, "geometry": { "type": "Point", "coordinates": [ -84.5042537, 33.7601668 ] } },
{ "type": "Feature", "properties": { "id": 18, "name": "ACE Cash Express", "street": "3583 Mlk B", "city": "Atlanta", "state": "GA", "zip": 30303 }, "geometry": { "type": "Point", "coordinates": [ -84.5042537, 33.7601668 ] } },
{ "type": "Feature", "properties": { "id": 29, "name": "ACE Cash Express", "street": "277 Marietta Street Northwest # A", "city": "Atlanta", "state": "GA", "zip": 30313 }, "geometry": { "type": "Point", "coordinates": [ -84.3959085, 33.7612266 ] } },
{ "type": "Feature", "properties": { "id": 34, "name": "ACE Cash Express", "street": "3714 Roswell Rd Ne", "city": "Atlanta", "state": "GA", "zip": 30342 }, "geometry": { "type": "Point", "coordinates": [ -84.3824264, 33.8567894 ] } },
{ "type": "Feature", "properties": { "id": 37, "name": "ACE Cash Express", "street": "2841 Greenbriar Pkwy Sw", "city": "Atlanta", "state": "GA", "zip": 30331 }, "geometry": { "type": "Point", "coordinates": [ -84.4934528, 33.6877868 ] } },
{ "type": "Feature", "properties": { "id": 38, "name": "ACE Cash Express", "street": "3583 Martin Luther King Jr Dr", "city": "Atlanta", "state": "GA", "zip": 30331 }, "geometry": { "type": "Point", "coordinates": [ -84.5042537, 33.7601668 ] } },
{ "type": "Feature", "properties": { "id": 40, "name": "ACE Cash Express", "street": "3714 Roswell Rd Ne Ste A", "city": "Atlanta", "state": "GA", "zip": 30342 }, "geometry": { "type": "Point", "coordinates": [ -84.3824264, 33.8567894 ] } },
{ "type": "Feature", "properties": { "id": 42, "name": "ACE Cash Express", "street": "381 Moreland Ave Se", "city": "Atlanta", "state": "GA", "zip": 30316 }, "geometry": { "type": "Point", "coordinates": [ -84.3495651, 33.743596 ] } },
{ "type": "Feature", "properties": { "id": 45, "name": "Ach Inc", "street": "Atlanta", "city": "Atlanta", "state": "GA", "zip": 30303 }, "geometry": { "type": "Point", "coordinates": [ -84.3883717, 33.755711 ] } },
{ "type": "Feature", "properties": { "id": 47, "name": "Advance America", "street": "56 Marietta St Nw", "city": "Atlanta", "state": "GA", "zip": 30303 }, "geometry": { "type": "Point", "coordinates": [ -84.3915303, 33.7554561 ] } },
{ "type": "Feature", "properties": { "id": 50, "name": "All Checks Cashed", "street": "801 Jackson Pkwy Nw", "city": "Atlanta", "state": "GA", "zip": 30318 }, "geometry": { "type": "Point", "coordinates": [ -84.4735012, 33.7767133 ] } },
{ "type": "Feature", "properties": { "id": 51, "name": "All Checks Cashed", "street": "495 Moreland Avenue", "city": "Atlanta", "state": "GA", "zip": 30316 }, "geometry": { "type": "Point", "coordinates": [ -84.3496675, 33.7406191 ] } },
{ "type": "Feature", "properties": { "id": 52, "name": "All Checks Cashed", "street": "12 Peachtree St # 2", "city": "Atlanta", "state": "GA", "zip": 30303 }, "geometry": { "type": "Point", "coordinates": [ -84.3903326, 33.7536678 ] } },
{ "type": "Feature", "properties": { "id": 53, "name": "All Checks Cashed", "street": "801 James Jackson Pkwy Nw", "city": "Atlanta", "state": "GA", "zip": 30318 }, "geometry": { "type": "Point", "coordinates": [ -84.4735012, 33.7767133 ] } },
{ "type": "Feature", "properties": { "id": 55, "name": "All Checks Cashed - Store 01", "street": "585 Memorial Drive Southeast", "city": "Atlanta", "state": "GA", "zip": 30312 }, "geometry": { "type": "Point", "coordinates": [ -84.3683892, 33.7464853 ] } },
{ "type": "Feature", "properties": { "id": 56, "name": "All Checks Cashed 2", "street": "10 Northside Dr Nw", "city": "Atlanta", "state": "GA", "zip": 30314 }, "geometry": { "type": "Point", "coordinates": [ -84.4032809, 33.7549566 ] } },
{ "type": "Feature", "properties": { "id": 57, "name": "All Checks Cashed 6", "street": "495 Moreland Ave Se", "city": "Atlanta", "state": "GA", "zip": 30316 }, "geometry": { "type": "Point", "coordinates": [ -84.3496675, 33.7406191 ] } },
{ "type": "Feature", "properties": { "id": 58, "name": "All Checks Cashed 6", "street": "495 Moreland Avenue Southeast", "city": "Atlanta", "state": "GA", "zip": 30316 }, "geometry": { "type": "Point", "coordinates": [ -84.3496675, 33.7406191 ] } },
{ "type": "Feature", "properties": { "id": 60, "name": "Alliance Merchant Services", "street": "Atlanta", "city": "Atlanta", "state": "GA", "zip": 30303 }, "geometry": { "type": "Point", "coordinates": [ -84.3883717, 33.755711 ] } },
{ "type": "Feature", "properties": { "id": 61, "name": "American Check Cashing", "street": "12 Peachtree Street Northwest", "city": "Atlanta", "state": "GA", "zip": 30303 }, "geometry": { "type": "Point", "coordinates": [ -84.3903326, 33.7536678 ] } },
{ "type": "Feature", "properties": { "id": 64, "name": "American Check Cashing Inc", "street": "801 James Jackson Parkway Nortrhwest", "city": "Atlanta", "state": "GA", "zip": 30318 }, "geometry": { "type": "Point", "coordinates": [ -84.4735012, 33.7767133 ] } },
{ "type": "Feature", "properties": { "id": 65, "name": "Atlanta Authorized Paymaster Sales & Service", "street": "1075 Robin Lane Northeast", "city": "Atlanta", "state": "GA", "zip": 30306 }, "geometry": { "type": "Point", "coordinates": [ -84.3525249, 33.8044158 ] } },
{ "type": "Feature", "properties": { "id": 66, "name": "Atlanta Cash It Here Inc", "street": "2100 Campbellton Rd Sw", "city": "Atlanta", "state": "GA", "zip": 30311 }, "geometry": { "type": "Point", "coordinates": [ -84.4568946, 33.7064186 ] } },
{ "type": "Feature", "properties": { "id": 69, "name": "Atlanta Check Cashers Inc", "street": "2435 Martin Luther Dr", "city": "Atlanta", "state": "GA", "zip": 30311 }, "geometry": { "type": "Point", "coordinates": [ -84.4672214, 33.7518295 ] } },
{ "type": "Feature", "properties": { "id": 72, "name": "Atlanta Check Cashers Inc", "street": "20 Forsyth St Nw", "city": "Atlanta", "state": "GA", "zip": 30303 }, "geometry": { "type": "Point", "coordinates": [ -84.3915072, 33.7552233 ] } },
{ "type": "Feature", "properties": { "id": 74, "name": "Atlanta Check Cashers Inc", "street": "2435 Martin Luther King Jr Dr", "city": "Atlanta", "state": "GA", "zip": 30311 }, "geometry": { "type": "Point", "coordinates": [ -84.4672214, 33.7518295 ] } },
{ "type": "Feature", "properties": { "id": 78, "name": "Business Center Etc", "street": "3480 Greenbriar Parkway Southwest", "city": "Atlanta", "state": "GA", "zip": 30331 }, "geometry": { "type": "Point", "coordinates": [ -84.5026391, 33.6828859 ] } },
{ "type": "Feature", "properties": { "id": 79, "name": "Business Center Etc Inc", "street": "3480 Greenbriar Pkwy Sw", "city": "Atlanta", "state": "GA", "zip": 30331 }, "geometry": { "type": "Point", "coordinates": [ -84.5026391, 33.6828859 ] } },
{ "type": "Feature", "properties": { "id": 80, "name": "Cash America Pawn", "street": "126 Cleveland Avenue Southwest", "city": "Atlanta", "state": "GA", "zip": 30315 }, "geometry": { "type": "Point", "coordinates": [ -84.3932426, 33.6808273 ] } },
{ "type": "Feature", "properties": { "id": 81, "name": "Cash America Pawn Regional Office", "street": "3850 Jonesboro Road Southeast", "city": "Atlanta", "state": "GA", "zip": 30354 }, "geometry": { "type": "Point", "coordinates": [ -84.3635377, 33.6509256 ] } },
{ "type": "Feature", "properties": { "id": 82, "name": "Cash Depot Inc", "street": "569 Joseph E Lowery Blvd", "city": "Atlanta", "state": "GA", "zip": 30310 }, "geometry": { "type": "Point", "coordinates": [ -84.4180988, 33.7395932 ] } },
{ "type": "Feature", "properties": { "id": 83, "name": "Cash Depot Inc", "street": "569 Josph E Lwry Boulevard Southwest", "city": "Atlanta", "state": "GA", "zip": 30310 }, "geometry": { "type": "Point", "coordinates": [ -84.4180988, 33.7395932 ] } },
{ "type": "Feature", "properties": { "id": 84, "name": "Cash Mart", "street": "3843 Jonesboro Road Southeast", "city": "Atlanta", "state": "GA", "zip": 30354 }, "geometry": { "type": "Point", "coordinates": [ -84.3664223, 33.6492595 ] } },
{ "type": "Feature", "properties": { "id": 86, "name": "Check Cash Plus", "street": "221 Cleveland Avenue Southwest", "city": "Atlanta", "state": "GA", "zip": 30315 }, "geometry": { "type": "Point", "coordinates": [ -84.3965607, 33.6816975 ] } },
{ "type": "Feature", "properties": { "id": 87, "name": "Check Cashers Inc", "street": "486 Decatur St Se Ste 4", "city": "Atlanta", "state": "GA", "zip": 30312 }, "geometry": { "type": "Point", "coordinates": [ -84.371843, 33.7515956 ] } },
{ "type": "Feature", "properties": { "id": 88, "name": "Check Cashers Inc No 1", "street": "486 Decatur Street Southeast Suite 4", "city": "Atlanta", "state": "GA", "zip": 30312 }, "geometry": { "type": "Point", "coordinates": [ -84.371843, 33.7515956 ] } },
{ "type": "Feature", "properties": { "id": 93, "name": "Clayton County Investigator", "street": "Atlanta", "city": "Atlanta", "state": "GA", "zip": 30303 }, "geometry": { "type": "Point", "coordinates": [ -84.3883717, 33.755711 ] } },
{ "type": "Feature", "properties": { "id": 95, "name": "Community Fincl Svc Ctr Corp", "street": "585 Memorial Dr Se", "city": "Atlanta", "state": "GA", "zip": 30312 }, "geometry": { "type": "Point", "coordinates": [ -84.3683892, 33.7464853 ] } },
{ "type": "Feature", "properties": { "id": 96, "name": "County Bank Of Rehoboth Beach De Dba Xtra Cash", "street": "Atlanta", "city": "Atlanta", "state": "GA", "zip": 30303 }, "geometry": { "type": "Point", "coordinates": [ -84.3883717, 33.755711 ] } },
{ "type": "Feature", "properties": { "id": 97, "name": "Discount Check Cashers", "street": "3208 Mrtn Lthr Kng Jr Drive", "city": "Atlanta", "state": "GA", "zip": 30311 }, "geometry": { "type": "Point", "coordinates": [ -84.4924469, 33.7518953 ] } },
{ "type": "Feature", "properties": { "id": 98, "name": "Discount Check Cashers", "street": "3208 Mlk J", "city": "Atlanta", "state": "GA", "zip": 30311 }, "geometry": { "type": "Point", "coordinates": [ -84.4924469, 33.7518953 ] } },
{ "type": "Feature", "properties": { "id": 99, "name": "Discount Check Cashing", "street": "3599 Mrtn Lthr Kng Jr Drive", "city": "Atlanta", "state": "GA", "zip": 30331 }, "geometry": { "type": "Point", "coordinates": [ -84.5048395, 33.759454 ] } },
{ "type": "Feature", "properties": { "id": 100, "name": "Discount Check Cashing", "street": "3599 Mlk J", "city": "Atlanta", "state": "GA", "zip": 30331 }, "geometry": { "type": "Point", "coordinates": [ -84.5048395, 33.759454 ] } },
{ "type": "Feature", "properties": { "id": 101, "name": "Discount Check Cashing And Gro", "street": "3208 Martin Luther King Jr Dr", "city": "Atlanta", "state": "GA", "zip": 30311 }, "geometry": { "type": "Point", "coordinates": [ -84.4924469, 33.7518953 ] } },
{ "type": "Feature", "properties": { "id": 102, "name": "Discount Check Cashing Llc", "street": "97 Peachtree Street Southwest", "city": "Atlanta", "state": "GA", "zip": 30303 }, "geometry": { "type": "Point", "coordinates": [ -84.392579, 33.752103 ] } },
{ "type": "Feature", "properties": { "id": 103, "name": "Dye Keith", "street": "486 Decatur Street Southeast", "city": "Atlanta", "state": "GA", "zip": 30312 }, "geometry": { "type": "Point", "coordinates": [ -84.371843, 33.7515956 ] } },
{ "type": "Feature", "properties": { "id": 104, "name": "E U Financial Services", "street": "20 Broad St Sw", "city": "Atlanta", "state": "GA", "zip": 30303 }, "geometry": { "type": "Point", "coordinates": [ -84.3913508, 33.7542567 ] } },
{ "type": "Feature", "properties": { "id": 107, "name": "Electronic Payment Processing", "street": "Atlanta", "city": "Atlanta", "state": "GA", "zip": 30303 }, "geometry": { "type": "Point", "coordinates": [ -84.3883717, 33.755711 ] } },
{ "type": "Feature", "properties": { "id": 112, "name": "Georgia Catalog Sales", "street": "945 East Paces Ferry Road Northeast", "city": "Atlanta", "state": "GA", "zip": 30326 }, "geometry": { "type": "Point", "coordinates": [ -84.3560978, 33.8465077 ] } },
{ "type": "Feature", "properties": { "id": 113, "name": "Georgia Catalog Sales", "street": "945 East Paces Ferry Road Northeast # B", "city": "Atlanta", "state": "GA", "zip": 30326 }, "geometry": { "type": "Point", "coordinates": [ -84.3560978, 33.8465077 ] } },
{ "type": "Feature", "properties": { "id": 114, "name": "Georgia Catalog Sales 14", "street": "945 East Paces Ferry Road Northeast", "city": "Atlanta", "state": "GA", "zip": 30326 }, "geometry": { "type": "Point", "coordinates": [ -84.3560978, 33.8465077 ] } },
{ "type": "Feature", "properties": { "id": 115, "name": "Globalx", "street": "270 Peachtree Street Northwest", "city": "Atlanta", "state": "GA", "zip": 30303 }, "geometry": { "type": "Point", "coordinates": [ -84.387956699999989, 33.7619055 ] } },
{ "type": "Feature", "properties": { "id": 116, "name": "Greenbriar Check Cashiers", "street": "2975 Headland Drive Southwest", "city": "Atlanta", "state": "GA", "zip": 30311 }, "geometry": { "type": "Point", "coordinates": [ -84.4873661, 33.6917093 ] } },
{ "type": "Feature", "properties": { "id": 117, "name": "Imm Check Cashers", "street": "2975 Headland Dr Sw", "city": "Atlanta", "state": "GA", "zip": 30311 }, "geometry": { "type": "Point", "coordinates": [ -84.4873661, 33.6917093 ] } },
{ "type": "Feature", "properties": { "id": 118, "name": "Interlink Financial Services", "street": "233 Mitchell Street Southwest", "city": "Atlanta", "state": "GA", "zip": 30303 }, "geometry": { "type": "Point", "coordinates": [ -84.3952708, 33.752312 ] } },
{ "type": "Feature", "properties": { "id": 122, "name": "Lakewood Check Cashing", "street": "1959 Lakewood Avenue Southeast", "city": "Atlanta", "state": "GA", "zip": 30315 }, "geometry": { "type": "Point", "coordinates": [ -84.384852, 33.7026126 ] } },
{ "type": "Feature", "properties": { "id": 123, "name": "Lakewood Check Cashing", "street": "1959 Lakewood Ave Se", "city": "Atlanta", "state": "GA", "zip": 30315 }, "geometry": { "type": "Point", "coordinates": [ -84.384852, 33.7026126 ] } },
{ "type": "Feature", "properties": { "id": 124, "name": "Latino Services", "street": "1799 Lakewood Ter Se", "city": "Atlanta", "state": "GA", "zip": 30315 }, "geometry": { "type": "Point", "coordinates": [ -84.379280799999989, 33.7051301 ] } },
{ "type": "Feature", "properties": { "id": 125, "name": "M & G Check Cashing", "street": "1292 Donnelly Ave Sw", "city": "Atlanta", "state": "GA", "zip": 30310 }, "geometry": { "type": "Point", "coordinates": [ -84.4297339, 33.734643 ] } },
{ "type": "Feature", "properties": { "id": 130, "name": "Money Market Of Atlanta", "street": "209 Edgewood Avenue Southeast", "city": "Atlanta", "state": "GA", "zip": 30303 }, "geometry": { "type": "Point", "coordinates": [ -84.3799603, 33.7539261 ] } },
{ "type": "Feature", "properties": { "id": 131, "name": "Money World", "street": "55 Moreland Ave Se", "city": "Atlanta", "state": "GA", "zip": 30316 }, "geometry": { "type": "Point", "coordinates": [ -84.3496945, 33.7521164 ] } },
{ "type": "Feature", "properties": { "id": 132, "name": "Money World No 3 Inc", "street": "1195 Wylie St Se", "city": "Atlanta", "state": "GA", "zip": 30316 }, "geometry": { "type": "Point", "coordinates": [ -84.3496077, 33.7520696 ] } },
{ "type": "Feature", "properties": { "id": 134, "name": "Mr Payroll", "street": "689 Boulevard Ne", "city": "Atlanta", "state": "GA", "zip": 30308 }, "geometry": { "type": "Point", "coordinates": [ -84.3704815, 33.7735118 ] } },
{ "type": "Feature", "properties": { "id": 137, "name": "N R M C Financial Services", "street": "1955 Campbellton Rd Sw", "city": "Atlanta", "state": "GA", "zip": 30311 }, "geometry": { "type": "Point", "coordinates": [ -84.4531748, 33.7086287 ] } },
{ "type": "Feature", "properties": { "id": 138, "name": "Nice Check Cashing", "street": "1153 Rlph Dvd Abrnthy", "city": "Atlanta", "state": "GA", "zip": 30310 }, "geometry": { "type": "Point", "coordinates": [ -84.4255127, 33.7385863 ] } },
{ "type": "Feature", "properties": { "id": 142, "name": "Nice Check Cashing Inc", "street": "2636 Mrtn Lthr Kng Jr Drive Suite 26", "city": "Atlanta", "state": "GA", "zip": 30311 }, "geometry": { "type": "Point", "coordinates": [ -84.4740456, 33.7530965 ] } },
{ "type": "Feature", "properties": { "id": 143, "name": "Nice Check Cashing Inc", "street": "2636 Mrtn Lthr Kng Jr Drive Suite 26", "city": "Atlanta", "state": "GA", "zip": 30311 }, "geometry": { "type": "Point", "coordinates": [ -84.4740456, 33.7530965 ] } },
{ "type": "Feature", "properties": { "id": 144, "name": "Nice Check Cashing Inc", "street": "2636 Mlk J", "city": "Atlanta", "state": "GA", "zip": 30311 }, "geometry": { "type": "Point", "coordinates": [ -84.4740456, 33.7530965 ] } },
{ "type": "Feature", "properties": { "id": 145, "name": "Nice Check Cashing Inc", "street": "31-B Forsyth St Nw", "city": "Atlanta", "state": "GA", "zip": 30303 }, "geometry": { "type": "Point", "coordinates": [ -84.3908154, 33.7554829 ] } },
{ "type": "Feature", "properties": { "id": 146, "name": "Nice Financial Services", "street": "31 Forsyth St Sw", "city": "Atlanta", "state": "GA", "zip": 30303 }, "geometry": { "type": "Point", "coordinates": [ -84.3930109, 33.7536377 ] } },
{ "type": "Feature", "properties": { "id": 147, "name": "Nice Financial Services", "street": "1153 Ralph David Abernathy Blv", "city": "Atlanta", "state": "GA", "zip": 30310 }, "geometry": { "type": "Point", "coordinates": [ -84.4255935, 33.7389055 ] } },
{ "type": "Feature", "properties": { "id": 150, "name": "Now Check Cashing Inc", "street": "1352 Lakewood Ave Se", "city": "Atlanta", "state": "GA", "zip": 30315 }, "geometry": { "type": "Point", "coordinates": [ -84.3815959, 33.7174821 ] } },
{ "type": "Feature", "properties": { "id": 162, "name": "Tower Beer Wine Spirits", "street": "2161 Piedmont Road Northeast", "city": "Atlanta", "state": "GA", "zip": 30324 }, "geometry": { "type": "Point", "coordinates": [ -84.3658698, 33.8155829 ] } },
{ "type": "Feature", "properties": { "id": 163, "name": "Tower Package Store", "street": "2161 Piedmont Rd Ne", "city": "Atlanta", "state": "GA", "zip": 30324 }, "geometry": { "type": "Point", "coordinates": [ -84.3658698, 33.8155829 ] } },
{ "type": "Feature", "properties": { "id": 165, "name": "Trimax Financial", "street": "2740 Greenbriar Pkwy Sw Ste B1", "city": "Atlanta", "state": "GA", "zip": 30331 }, "geometry": { "type": "Point", "coordinates": [ -84.4887038, 33.6885136 ] } },
{ "type": "Feature", "properties": { "id": 166, "name": "Twenty Four Hour Check Cashing", "street": "2636 Martin Luther Dr", "city": "Atlanta", "state": "GA", "zip": 30311 }, "geometry": { "type": "Point", "coordinates": [ -84.4740456, 33.7530965 ] } },
{ "type": "Feature", "properties": { "id": 168, "name": "Universal Check Cashiers", "street": "211 Peachtree St Sw", "city": "Atlanta", "state": "GA", "zip": 30303 }, "geometry": { "type": "Point", "coordinates": [ -84.3950284, 33.7490687 ] } },
{ "type": "Feature", "properties": { "id": 170, "name": "Xtrabucks", "street": "2685 Metropolitan Pkwy Sw", "city": "Atlanta", "state": "GA", "zip": 30315 }, "geometry": { "type": "Point", "coordinates": [ -84.4091253, 33.682517 ] } },
{ "type": "Feature", "properties": { "id": 172, "name": "Y & T Check Cashing", "street": "1391 Moreland Ave Se", "city": "Atlanta", "state": "GA", "zip": 30316 }, "geometry": { "type": "Point", "coordinates": [ -84.3499124, 33.7169001 ] } },
{ "type": "Feature", "properties": { "id": 173, "name": "Your Check Cashing Store", "street": "2555 Bolton Road Northwest Suite 7", "city": "Atlanta", "state": "GA", "zip": 30318 }, "geometry": { "type": "Point", "coordinates": [ -84.4518426, 33.8203605 ] } },
{ "type": "Feature", "properties": { "id": 174, "name": "Your Check Cashing Store Inc", "street": "2555 Bolton Rd Nw Ste 7", "city": "Atlanta", "state": "GA", "zip": 30318 }, "geometry": { "type": "Point", "coordinates": [ -84.4518426, 33.8203605 ] } }
]
}
