ein,name,street,city,state,zip,category,description,ntee_code,asset_amt,income_amt,revenue_amt,lat,long
161617534,Clanin Family Foundation,14780 E Bluff Rd,Alpharetta,GA,30004-6939,Philanthropy,Corporate Foundations,T21,25022,3,,34.1407699584961,-84.3078002929688
201498565,Cloud Walk Worldwide Inc,240 Ranchette Rd,Milton,GA,30004-3754,Religious,Christianity,X20,136906,399903,365164,34.1017837524414,-84.3676986694336
200594280,Summit Equestrian Outreach Foundation,570 Sheringham Ln,Alpharetta,GA,30005-2523,Philanthropy,Community Foundations,T31,459,0,0,34.0600471496582,-84.2009811401367
200783822,True Vine International Ministries Inc,1351 Windage Court Sw,Marietta,GA,30008-0000,Religious,Protestant,X21,,,,33.8877334594727,-84.5911560058594
010922991,Crossroads Community Church,3445 King Arthur Dr Sw,Marietta,GA,30008-7679,Religious,Protestant,X21,,,,33.8702583312988,-84.5975875854492
010663564,Abundant Life Community Church Inc,625 Sims Industrial Blvd Ste A,Alpharetta,GA,30009-2095,Religious,Protestant,X21,,,,34.0603523254395,-84.3067932128906
010700751,Truth Fund I Inc,2500 Northwinds Pkwy Ste 275,Alpharetta,GA,30009-2265,Philanthropy,Private Independent Foundations,T22,143094,66643,,34.0589179992676,-84.2846832275391
134268623,Exide Activities Committee,13000 Deerfield Parkway,Milton,GA,30004-6119,Community Capacity Bldg,Community & Neighborhood Development,S20,0,0,0,34.0975227355957,-84.2646408081055
161764071,Womens Corner Inc,31 Wild Oat Ct,Grayson,GA,30017-4178,Employment,Employment Preparation & Procurement,J20,0,0,0,33.9116859436035,-83.9497451782227
161660770,Big Faith Temple Holiness Church Inc,2785 Harbins Mill Dr,Dacula,GA,30019-1992,Religious,Christianity,X20,,,,33.9549827575684,-83.8651275634766
201140796,Someone To Talk To Inc,35 Dacula Rd,Dacula,GA,30019-2135,Human Services,Family Services,P40,1,0,0,34.0298919677734,-83.9089660644531
050554653,Jesus The Warrior King Ministries New & Restored Church Of Christ In,3550 Clarkston Industrial Blvd,Clarkston,GA,30021-1333,Religious,Protestant,X21,,,,33.8179740905762,-84.244270324707
043607300,Give God All The Glory Outreach Ministries,3221 Oakbrook Ln,Clarkston,GA,30021-1004,Religious,Christianity,X20,,,,33.8112602233887,-84.2566909790039
200454348,Ryan Boslet Scholarship Fund,945 Tresillian Ct,Alpharetta,GA,30022-8039,Philanthropy,Named Trusts NEC,T90,3471,1004,,34.0302467346191,-84.2412033081055
050595285,Tov Vision Community Church Inc,101 Raynold Stone Court,Suwanee,GA,30021-0000,Religious,Christianity,X20,,,,34.0216751098633,-84.0371170043945
050561266,K D Moore Community Development Center Inc,4007 Church St,Clarkston,GA,30021-1714,Human Services,Human Services NEC,P99,0,0,0,33.8117637634277,-84.2377090454102
200982606,Antinori Family Foundation,1020 Chesson Ct,Alpharetta,GA,30022-7174,Philanthropy,Private Grantmaking Foundations,T20,3404,3500,,34.0150604248047,-84.2488708496094
201771550,J V Outreach Inc,5045 Morton Ferry Cir,Alpharetta,GA,30022-6622,Human Services,Human Services,P20,11733,15071,15071,34.0411376953125,-84.2121276855469
200134216,Hurlbert Family Foundation,240 Berry Glen Ct,Alpharetta,GA,30022-1675,Philanthropy,Private Independent Foundations,T22,1792417,79122,,33.9970207214355,-84.255012512207
113832708,Tomorrow Foundation Inc,4055 Old Southwick Pass,Johns Creek,GA,30022-7161,Philanthropy,Private Grantmaking Foundations,T20,1,1,,34.0119552612305,-84.2465133666992
161768259,New Life Intl Prophetic Outreach Ministries Of The World Inc,4042 Ridge Grove Way,Suwanee,GA,30024-4527,Religious,Christianity,X20,,,,34.0278778076172,-84.0981521606445
201334432,Global Christian Network,2609 Brynfield Cv,Suwanee,GA,30024-7280,Religious,Religious Television,X82,14793,350734,350734,34.0214653015137,-84.0414733886719
141944668,Romanian Media Ministries Inc,3459 Lawrenceville-Suwanee Rd,Suwanee,GA,30024-6427,Religious,Religious Media & Communications,X80,6095,18134,18134,34.0438079833984,-84.0550231933594
113739604,Gwinnett Islamic Circle Inc,50 Old Peachtree Rd Ne Ste 211,Suwanee,GA,30024-2964,Religious,Islam,X40,1280032,359690,359690,34.032470703125,-84.0430374145508
201472853,Fusion Church Inc,122 Forkner Dr,Decatur,GA,30030-1609,Religious,Christianity,X20,,,,33.7861747741699,-84.2892379760742
200431301,Glory Ministries Selah Inc,2380 Summerland Dr,Decatur,GA,30032-6339,Religious,Christianity,X20,,,,33.7190475463867,-84.2911834716797
113692696,Collard Greens For The Soul Inc,325 Eastwyck Cir,Decatur,GA,30032-6654,Human Services,Human Services,P20,54,0,0,33.7168922424316,-84.2655792236328
020701444,Spring Valley Civic Association Inc,3626 Springside Dr,Decatur,GA,30032-0000,Community Capacity Bldg,Community & Neighborhood Development,S20,0,0,0,33.7196578979492,-84.2430801391602
134332999,Juxtaposed Center For Transformation Inc,2360 Green Forrest Dr,Decatur,GA,30032-7162,Housing Shelter,Housing & Shelter NEC,L99,0,0,0,33.7216186523438,-84.2616729736328
050535618,Glory Christian Ministries International Inc,3255 Lawrencevillesuwanee Rd Suite,Suwanee,GA,30024-6540,Religious,Protestant,X21,,,,34.036937713623,-84.0529022216797
200596646,Soul Visions Educational Foundation Inc,1324 Crescentwood Ln,Decatur,GA,30032-2449,Philanthropy,Private Independent Foundations,T22,214,55,,33.7590560913086,-84.253044128418
201684957,Northwest Youth Power Elc Site 3 Inc,3471 Glenwood Rd,Decatur,GA,30032-4407,Human Services,Child Day Care,P33,249385,532278,532278,33.7383766174316,-84.275520324707
010796052,Grace Kingdom Church,2398 Tyler Way,Decatur,GA,30032-6328,Religious,Protestant,X21,0,0,0,33.723258972168,-84.291259765625
200681593,Ufcw Local 1996 Building Corp,3302 Mcginnis Ferry Rd Ste 201,Suwanee,GA,30024-7148,Community Capacity Bldg,Real Estate Associations,S47,4005597,372830,-36425,34.0316925048828,-84.0667877197266
043765741,Worship Center International Church Inc,1078 Druid Lk,Decatur,GA,30033-4200,Religious,Christianity,X20,,,,33.8115386962891,-84.2837982177734
020799028,Yes Lord Incorporated,2394 Whites Mill Ln,Decatur,GA,30032-6331,Religious,Protestant,X21,,,,33.7177314758301,-84.2915878295898
061814812,Georgia Tech Business Network,1493 Leafmore Pl,Decatur,GA,30033-2050,Community Capacity Bldg,Chambers of Commerce & Business Leagues,S41,0,0,0,33.8247032165527,-84.2900924682617
030481093,Dekalb Initiative For Children And Families,4380 Memorial Drive,Decatur,GA,30032-1239,Human Services,Family Services,P40,9874,43970,43970,33.7758102416992,-84.2461853027344
200184493,Renaissance Ministries Inc,4222 Abilene Ct,Decatur,GA,30034-6025,Human Services,Child Day Care,P33,0,0,0,33.6682395935059,-84.2178115844727
141996510,Howey Hudson Lowe Foundation Inc,3307 Renoir Ct,Decatur,GA,30034-5181,Human Services,Human Services,P20,5577,25763,25763,33.6862335205078,-84.2294235229492
010740608,Smart Place Adult And Children Services Inc,1916 Glenfair Rd,Decatur,GA,30035-1849,Human Services,Residential Care & Adult Day Programs,P70,754072,1080593,1080593,33.733642578125,-84.2304153442383
020703136,Good Shepherd Foundation Inc,3401 Rainbow Dr,Decatur,GA,30034-1808,Housing Shelter,Homeless Shelters,L41,,,,33.7117500305176,-84.2523803710938
141898376,Unique Community Development Outreach Ministries Inc,1260 Evangeline Dr,Decatur,GA,30035-1008,Human Services,Human Services,P20,0,0,0,33.7577972412109,-84.2277908325195
161684216,Namaska Ministries,4415 Covington Hwy Unit 1300,Decatur,GA,30035-1220,Religious,Protestant,X21,,,,33.7480812072754,-84.2239837646484
200783614,Seajoy Inc,5586 Wildwood Trl,Lithonia,GA,30038-4863,Human Services,Child Day Care,P33,15000,197204,197204,33.678035736084,-84.1620254516602
200399846,Life Changing Eye Opening Ministries Inc,4123 Brooks Mill Dr,Lithonia,GA,30038-4144,Religious,Christianity,X20,,,,33.658447265625,-84.1518707275391
200826207,Celestial Church Of Christ Christs Gospel Parish Inc,4415 Covington Hwy Unit 1400,Decatur,GA,30035-1221,Religious,Christianity,X20,,,,33.7480812072754,-84.2239837646484
201788145,New Birth Church Holdings Inc,6400 Woodrow Rd,Lithonia,GA,30038-2437,Religious,Support NEC,X19,,,,33.6945610046387,-84.1282653808594
010917172,Caring Touch Ministries Inc,3850 E Saddle Ridge Dr,Lithonia,GA,30038-3971,Food,Food Programs,K30,0,0,0,33.6660079956055,-84.1665649414062
200604839,Victorias Friends Inc,345 Peachtree Industrial Blvd Ste 1,Suwanee,GA,30024-8819,Religious,Religion-Related NEC,X99,47789,133076,133076,34.0657691955566,-84.0720291137695
030424341,Campus Ministries United Inc,6440 Rock Springs Rd,Lithonia,GA,30038-1828,Religious,Interfaith Coalitions,X90,0,0,0,33.6865768432617,-84.1404342651367
201539010,Unique Personality Counseling Inc,6640 Housworth Ln,Lithonia,GA,30038-4641,Human Services,Family Services,P40,0,0,0,33.6489486694336,-84.1199569702148
030509073,Bridge The Gap Ministries Inc,2860 Lenora Springs Dr,Snellville,GA,30039-5228,Religious,Religion-Related NEC,X99,16662,61735,61735,33.8095054626465,-84.0026626586914
200173825,Board For Critical Care Transport Paramedic Certification,4835 Riveredge Cv,Snellville,GA,30039-6960,Community Capacity Bldg,Chambers of Commerce & Business Leagues,S41,452280,460171,460171,33.7752494812012,-84.0592041015625
200500324,Ousley Community Church,3261 Panola Rd,Lithonia,GA,30038-2322,Human Services,Human Services,P20,,,,33.6910820007324,-84.1751327514648
201515638,New Birth Church Association Inc,6400 Woodrow Rd,Lithonia,GA,30038-2437,Religious,Interfaith Coalitions,X90,,,,33.6945610046387,-84.1282653808594
141862519,Edu-Tech Enterprises Inc,4343 Apollo Ct,Snellville,GA,30039-5910,Employment,Job Training,J22,0,0,0,33.8154525756836,-84.0657577514648
141843698,Trinity Worship Center International Inc,3461 Gleneagles Ct,Snellville,GA,30039-5690,Religious,Protestant,X21,,,,33.7883453369141,-84.0195465087891
113734972,Armour Of Life,3196 Village Glen Trl,Snellville,GA,30039-4663,Human Services,Human Services,P20,0,0,0,33.8189926147461,-84.0330429077148
200973697,Tu Lien Buddhist Temple Inc,3465 Lenora Church Rd,Snellville,GA,30039-4807,Religious,Buddhism,X50,160234,95057,95057,33.8199844360352,-84.0122222900391
010709861,First Gospel Of Nation Mission Center Inc,1320 Bailing Rd,Lawrenceville,GA,30043-6220,Religious,Christianity,X20,18869,12504,12504,33.974681854248,-84.0373611450195
200141005,Hattie & Floyde Chatmon Scholarship Fund Inc,1291 Shyre Crest Way,Lawrenceville,GA,30043-4439,Philanthropy,Private Grantmaking Foundations,T20,54009,6340,,33.9941253662109,-83.9984664916992
161771996,International Community Outreach Church,1450 Royale Castle Dr,Lawrenceville,GA,30043-6927,Religious,Christianity,X20,,,,34.026123046875,-83.9410552978516
113660126,Crazy Missionaries Inc,1884 Wilson Wynd Way,Lawrenceville,GA,30043-6059,Religious,Protestant,X21,0,0,0,34.0114250183105,-84.0022354125977
061484296,L & J Ho Private Family Foundation,1150 Home Place Dr,Lawrenceville,GA,30043-8651,Philanthropy,Private Operating Foundations,T23,11373,172,,33.9787864685059,-84.0468597412109
161619948,Sigma Phi Psi Sorority Inc,1695 Millhaven Cove Ct,Lawrenceville,GA,30043-2799,Public Social Benefit,Military & Veterans‰Ûª Organizations,W30,,,,34.0331764221191,-83.9619750976562
200226458,C3 Center Inc,1065 Walther Blvd,Lawrenceville,GA,30043-8417,Human Services,Personal Social Services,P50,0,0,0,33.9730262756348,-84.0169448852539
201457153,Alpha Outreach Ministries,1654 Hampton Hollow Trl,Lawrenceville,GA,30043-5176,Human Services,Human Services,P20,0,0,0,33.9789237976074,-84.0600204467773
043646814,Atlanta Telugu Christhava Samavesam,1500 Leisure Lake Dr,Lawrenceville,GA,30044-6247,Religious,Christianity,X20,,,,33.9004707336426,-84.0068893432617
043670750,Wishes 4 Me Foundation Inc,1971 Sumter Ct,Lawrenceville,GA,30044-5977,Human Services,Emergency Assistance,P60,526897,282495,282495,33.9083480834961,-84.0323867797852
030557918,Community Entrepreneurship Institute Inc,1181 Rocky Rd,Lawrenceville,GA,30044-6211,Community Capacity Bldg,Economic Development,S30,0,0,0,33.8994178771973,-84.0141677856445
020560001,Trumpet Of The Lord,935 Foxfire Dr,Lawrenceville,GA,30044-5522,Religious,Christianity,X20,0,0,0,33.8847007751465,-84.065544128418
161663757,Gatekeepers International Inc,1625 Collins Hill Rd,Lawrenceville,GA,30043-3616,Religious,Christianity,X20,,,,33.9979629516602,-84.0128555297852
161711921,Benevolence Outreach Services Inc,656 Simon Ive Dr,Lawrenceville,GA,30045-8564,Religious,Protestant,X21,0,0,0,33.9477920532227,-83.9476318359375
113826144,Restoring Souls Ministry Inc,1425 Snow Hill Dr,Lawrenceville,GA,30045-3458,Religious,Protestant,X21,0,0,0,33.9153022766113,-83.9293670654297
200764408,Hope Evangelical Church Inc,455 Arnold Rd,Lawrenceville,GA,30044-5349,Religious,Protestant,X21,,,,33.9081687927246,-84.0516204833984
030441623,Daisyland Christian Center,976 Autumn Blaze Ln,Lawrenceville,GA,30045-7244,Religious,Protestant,X21,,,,33.9411926269531,-83.9410552978516
200793797,Christ Temple International House Of Rescue,760 Chapel Hill Dr,Lawrenceville,GA,30045-2370,Religious,Christianity,X20,,,,33.9530296325684,-83.9274673461914
201253234,Freedom Christian Ministry,420 Grayson Hwy Ste 200/300,Lawmnceville,GA,30045-6343,Religious,Christianity,X20,,,,33.9239158630371,-83.9737091064453
141881932,Iglesia Roca De Salvacion Inc,256 Kingsport Dr,Lawrenceville,GA,30046-7605,Religious,Christianity,X20,,,,33.9475860595703,-84.0237808227539
043836323,Disabled American Veterans,750 South Perry Street,Lawrenceville,GA,30046-3233,Public Social Benefit,Military & Veterans‰Ûª Organizations,W30,6019,35964,35964,33.9499359130859,-83.9883270263672
020573450,Gwinnett Fire Employee Benevolent Fund,408 Hurricane Shoals Rd Ne,Lawrenceville,GA,30046-4406,Human Services,Emergency Assistance,P60,0,0,0,33.9761047363281,-83.9772491455078
201852941,New Day Family Services Inc,1172 Timber Glen Ct Sw,Lilburn,GA,30047-3224,Human Services,Emergency Assistance,P60,0,0,0,33.8589172363281,-84.0908279418945
030383125,Elim Romanian Pentecoastal Church,142 Scenic Hwy,Lawrenceville,GA,30046-5700,Religious,Christianity,X20,,,,33.950569152832,-83.9823760986328
020794828,Unidos En Cristo Inc,4800 Lawrenceville Hwy Suite 2/3A,Lilburn,GA,30047-3845,Religious,Protestant,X21,,,,33.8952407836914,-84.1401672363281
201791988,Jireh Worship & Arts,509 Shadow Valley Ct,Lithonia,GA,30058-3269,Human Services,Personal Social Services,P50,0,0,0,33.7689437866211,-84.1361846923828
010596594,Druid Hills Of Lithonia Church Of God In Christ Inc,6954 Braswell St,Lithonia,GA,30058-4406,Religious,Protestant,X21,,,,33.7191047668457,-84.1038360595703
010749058,Lithonia Housing Authority Development Corporation,6878 Max Cleland Blvd,Lithonia,GA,30058-4467,Housing Shelter,Housing Development,L20,,,,33.7133674621582,-84.1072006225586
043750610,Step Up In Georgia Inc,7448 Conyers St,Lithonia,GA,30058-4325,Human Services,Senior Centers,P81,1175,137729,137729,33.7094917297363,-84.1028518676758
061719642,Celines Place Inc,1768 Young Rd,Lithonia,GA,30058-5657,Human Services,Group Homes,P73,0,177467,177467,33.7410469055176,-84.1550674438477
030409412,Vision Of Hope Worship & Deliverance Temple Inc,770 Stonebridge Cres,Lithonia,GA,30058-8266,Religious,Protestant,X21,,,,33.7741775512695,-84.0855331420898
113567459,Abundant Life Outreach Ministry Inc,1170 Vermillion Cir Sw,Marietta,GA,30060-6171,Religious,Protestant,X21,,,,33.8698844909668,-84.5879516601562
030574174,Word Of Victory Ministries,6382 Phillips Ct,Lithonia,GA,30058-8922,Religious,Protestant,X21,,,,33.7339820861816,-84.129508972168
113774021,Bridge Pointe Church Inc,285 Victory Dr Se,Marietta,GA,30060-2303,Religious,Protestant,X21,,,,33.9454956054688,-84.5314254760742
010763326,Christ Ministry Of The Living Word,330 Pat Mell Rd Sw Apt E2,Marietta,GA,30060-4787,Religious,Christianity,X20,,,,33.9022598266602,-84.5630340576172
200379556,Athens Institute Of Ministry Inc,2256 Rushmore Dr,Marietta,GA,30062-6540,Religious,Christianity,X20,1059,19567,19567,34.0039749145508,-84.3982467651367
201572767,Georgia Wireless Association Inc,3800 Ardsley Ct,Marietta,GA,30062-5811,Community Capacity Bldg,Chambers of Commerce & Business Leagues,S41,24710,301634,301634,33.9949645996094,-84.4405822753906
113842754,Atlanta Chinese Christian Church Northwest Inc,1837 Bill Murdock Rd,Marietta,GA,30062-5345,Religious,Protestant,X21,867982,668804,668804,33.9950828552246,-84.4436645507812
030532316,Marietta Daily Journal Community Foundation,580 Fairground St,Marietta,GA,30060-0000,Philanthropy,Private Independent Foundations,T22,419432,18721,,33.965202331543,-84.5368423461914
200455122,Brasuell Simmons Foundation Inc,1840 Pemberton Pl,Marietta,GA,30062-8126,Philanthropy,Private Independent Foundations,T22,34448,114256,,33.9961700439453,-84.4150161743164
141841438,Phoenix Rising Center For Women Inc,2799 Brookcliff Lndg,Marietta,GA,30062-4860,Human Services,Group Homes,P73,753047,128453,128453,33.9876365661621,-84.4702606201172
030417768,New Mercies Christian Church,4000 Five Forks Trickum Road,Lilburn,GA,30047-2485,Religious,Christianity,X20,,,,33.8694534301758,-84.0910110473633
010899328,House Without Walls International Christian Center,260 Manning Rd Sw Nbr 64,Marietta,GA,30064-0000,Religious,Christianity,X20,,,,33.9466934204102,-84.5756454467773
020705977,Blessed-2-Serve Inc,799 Polk St Nw,Marietta,GA,30064-2029,Human Services,Human Services,P20,0,0,0,33.9557609558105,-84.5749130249023
201231981,Holy Rollerz Christian Car Club,2381 Johnston Ct Sw,Marietta,GA,30064-2638,Religious,Protestant,X21,0,0,0,33.9511413574219,-84.6199569702148
200377692,Atlanta Gallery Association Inc,320 Terrell Dr Sw,Marietta,GA,30064-2923,Community Capacity Bldg,Chambers of Commerce & Business Leagues,S41,0,0,0,33.9441833496094,-84.5958709716797
050566060,Second Chance Ministry P H O D,956 Hodges Ct,Marietta,GA,30064-6422,Religious,Protestant,X21,0,0,0,33.9276428222656,-84.6390838623047
010898956,Core Ministries International,2495 Smith Ave Sw,Marietta,GA,30064-4218,Religious,Protestant,X21,0,0,0,33.893009185791,-84.6284484863281
010814709,Gods Evangelistic Ministries International Inc,1615 Cobb Pkwy N Apt 7303,Marietta,GA,30062-9211,Religious,Christianity,X20,,,,33.9912109375,-84.5785140991211
010911681,Issele-Uku Association Of Atlanta Inc,1069 Lakefield Walk,Marietta,GA,30064-5758,Human Services,Human Services,P20,0,0,0,33.9302444458008,-84.6300048828125
200878440,Hoenes Foundation Inc,167 Lake Somerset Dr Nw,Marietta,GA,30064-1719,Philanthropy,Private Independent Foundations,T22,7381,1000,,33.957592010498,-84.6472702026367
020721666,Lighting The Way Ministries Inc,4401 Marsh Rd,Marietta,GA,30066-1830,Religious,Alliances & Advocacy,X01,0,0,0,34.0580863952637,-84.5105438232422
200557250,Light Of Christ Anglican Church Inc,1275 Kennestone Cir Ste 500,Marietta,GA,30066-6038,Religious,Christianity,X20,,,,33.9801177978516,-84.5497970581055
113767801,Heritage Hospice Foundation,3315 Hilltop Dr,Marietta,GA,30066-3787,Human Services,Emergency Assistance,P60,0,0,0,34.0307807922363,-84.5293273925781
010730818,Ciudad De Angeles Inc,5240 Roswell Rd,Marietta,GA,30062-6523,Human Services,Residential Care & Adult Day Programs,P70,554915,664440,664440,34.0016937255859,-84.3984222412109
020560194,Turner Hill Community Development Corporation,C/O Sundra Vann 492 N Marietta Pkwy,Marietta,GA,30060-0000,Community Capacity Bldg,Community & Neighborhood Development,S20,69412,160345,160345,33.9587821960449,-84.5370254516602
043500963,Bacnet Manufacturers Association Inc,2900 Delk Rd Se Ste 700 Pmb 321,Marietta,GA,30067-5350,Community Capacity Bldg,Chambers of Commerce & Business Leagues,S41,1724804,1438739,1438739,33.9238700866699,-84.4674987792969
200042283,Franklin E & Lettie B Nixon Christian Foundation Inc,810 Dorado Cir Se,Marietta,GA,30067-4731,Philanthropy,Private Grantmaking Foundations,T20,2751,1,,33.9317893981934,-84.4282379150391
061709921,Lumos Foundation Inc,4250 Paper Mill Rd Se,Marietta,GA,30067-4725,Philanthropy,Private Independent Foundations,T22,2252999,1577914,,33.9466781616211,-84.4300765991211
020592761,Indonesian Community Church,3623 Robinson Walk Dr,Marietta,GA,30068-2455,Religious,Christianity,X20,,,,33.9748497009277,-84.4463577270508
200148170,Green Meeting Industry Council Inc,2900 Delk Rd Se Ste 700 Pmb 321,Marietta,GA,30067-5350,Community Capacity Bldg,Chambers of Commerce & Business Leagues,S41,91598,403417,403417,33.9238700866699,-84.4674987792969
134320991,Christian Rites Of Passage Inc,3100 Gant Quarters Way,Marietta,GA,30068-3742,Religious,Christianity,X20,0,0,0,33.9491119384766,-84.4628677368164
201726792,Iglesia Cristiana Pentecostal Del Mmm,6400 Atlantic Blvd Ste 140,Norcross,GA,30071-1214,Religious,Christianity,X20,,,,33.9390563964844,-84.2371063232422
043706794,You Can Make The Difference Limited,6180 Atlantic Blvd,Norcross,GA,30071-1309,Public Social Benefit,Public & Societal Benefit NEC,W99,0,0,0,33.9422950744629,-84.2308120727539
200943038,Drake House Inc,10500 Clara Drive,Roswell,GA,30075-7690,Housing Shelter,Homeless Shelters,L41,2314030,1365509,1346709,34.0356521606445,-84.3456115722656
061788019,Roswell Community Masjid Inc,345 Market Pl,Roswell,GA,30075-3993,Religious,Islam,X40,,,,34.0300788879395,-84.3404312133789
200302842,New Orleans Baptist Ministries Inc,535 Colonial Park Dr Ste A100,Roswell,GA,30075-3779,Religious,Support NEC,X19,,,,34.0327415466309,-84.3453826904297
200329110,Mongolia Ministries Inc,3605 Sandy Plains Rd Ste 244-222,Marietta,GA,30066-3068,Religious,Protestant,X21,6520,16790,16790,34.0368576049805,-84.4623489379883
030423620,Victory World Christian School Inc,5905 Brook Hollow Pkwy,Norcross,GA,30071-3533,Philanthropy,Community Foundations,T31,513711,815774,815774,33.918815612793,-84.2049102783203
010878619,Believe Ministries Inc,110 Roswell Farms Cir,Roswell,GA,30075-4351,Religious,Christianity,X20,45032,61473,61473,34.0184898376465,-84.3697814941406
200040238,Billie S Been Foundation Inc,300 Colonial Center Parkway,Roswell,GA,30076-4899,Philanthropy,Private Independent Foundations,T22,228075,4230,,34.0439338684082,-84.3263473510742
161761224,Voter Ga,220 Tallow Box Dr,Roswell,GA,30076-3425,Civil Rights,Voter Education & Registration,R40,0,0,0,34.0032348632812,-84.2875289916992
201381671,Grace Summit Inc,2304 Macy Dr,Roswell,GA,30076-6342,Religious,Christianity,X20,88703,189804,189804,34.0489501953125,-84.3601226806641
020537582,Day Of Change International Ministries,2482 Pierce Cir,Snellville,GA,30078-5766,Human Services,Child Day Care,P33,0,0,0,33.8462448120117,-84.0299606323242
200338959,Cup Of Joy Inc,1775 Woodstock Rd Ste 150,Roswell,GA,30075-8222,Religious,Christianity,X20,36019,180956,180956,34.0605735778809,-84.4132308959961
061838604,Well Of Water Ministries,7008 Roundtable Ct Se,Smyrna,GA,30080-5735,Human Services,Personal Social Services,P50,0,0,0,33.8614463806152,-84.5116653442383
061618190,Georgia Production Partnership Inc,1704 Rose Mill Way Se,Smyrna,GA,30080-1607,Community Capacity Bldg,Chambers of Commerce & Business Leagues,S41,51853,64118,58960,33.8728942871094,-84.5038833618164
201127103,Greater Refuge Tabernacle Ministries International,4611 Greer Circle,Stone Mountain,GA,30083-1024,Religious,Christianity,X20,71087,75783,75783,33.8320541381836,-84.2006149291992
050530551,Christ Covenant Church Inc,4275 Sheppard Xing Way,Stone Mtn,GA,30083-4598,Religious,Christianity,X20,,,,33.783878326416,-84.2109985351562
200172496,Gods Inner Faith Temple & Sanctuary Ltd,861 Holcomb Bridge Rd Ste 109,Roswell,GA,30076-1900,Religious,Christianity,X20,,,,34.0290756225586,-84.3365173339844
200304712,Brookwood Tip-Off Club Inc,1255 Dogwood Rd,Snellville,GA,30078-2249,Human Services,Centers to Support the Independence of Specific Populations,P80,12949,95484,82331,33.8841094970703,-84.0380249023438
020180534,New Saints Tree Of Life Deliverance Church International Inc,4512 Allgood Springs Dr,Stone Mtn,GA,30083-4812,Religious,Protestant,X21,,,,33.7781105041504,-84.2096939086914
201544873,New Vision Ministries,476 Halwick Way,Stone Mtn,GA,30083-4377,Religious,Christianity,X20,,,,33.7898979187012,-84.1984100341797
010867165,Omore Taya Inc,4297 Tucker North Ct,Tucker,GA,30084-3632,Philanthropy,Private Grantmaking Foundations,T20,55498,97986,,33.8655700683594,-84.2108535766602
061673042,Abba House Human Development And Resources Center Of Georgia,730 Rowland Rd,Stone Mtn,GA,30083-4837,Human Services,Residential Care & Adult Day Programs,P70,116237,444620,444620,33.7762718200684,-84.2059555053711
030504593,Enlightenment Buddhist Association Inc,690 Belgrave Ln,Tucker,GA,30084-2076,Religious,Buddhism,X50,,,,33.883113861084,-84.1757049560547
134203311,Congregation Beth Adonai,4129 Bancroft Cir,Tucker,GA,30084-4411,Religious,Judaism,X30,,,,33.8525772094727,-84.2194061279297
134211895,Light Of Hope Outreach Inc,778 Rays Rd Ste 103,Stone Mtn,GA,30083-3107,Religious,Christianity,X20,0,0,0,33.8013038635254,-84.2203903198242
134281826,Magnolia Gardens Pch Inc,778 Rays Rd Ste 108,Stone Mtn,GA,30083-3107,Human Services,Human Services NEC,P99,0,695908,695908,33.8013038635254,-84.2203903198242
020688518,Childrens Hope International Inc,3394 Canadian Way,Tucker,GA,30084-8101,Human Services,Children & Youth Services,P30,0,0,0,33.8238296508789,-84.2496566772461
010719322,Christian Mission Of Atlanta,5561 Memorial Dr Ste L,Stone Mtn,GA,30083-3237,Religious,Protestant,X21,,,,33.8006286621094,-84.2118606567383
133888854,Vedanta West Communications Inc,2331 Brockett Rd,Tucker,GA,30084-4412,Religious,Interfaith Coalitions,X90,0,0,0,33.8533401489258,-84.2230834960938
200354682,505 Inc,5622 Shadow View Dr,Stone Mtn,GA,30087-2952,Religious,Christianity,X20,2911,5700,5700,33.8454551696777,-84.1426773071289
043770274,Precious Living Inc,448 Registry Blf,Stone Mtn,GA,30087-6602,Human Services,Residential Care & Adult Day Programs,P70,1,153091,153091,33.7879257202148,-84.1040115356445
020740920,Atlanta Holland Club Inc,5119 Chastleton Dr,Stone Mtn,GA,30087-1443,Human Services,Ethnic & Immigrant Centers,P84,0,0,0,33.8396377563477,-84.1779327392578
043264425,Christian Initiatives And Technical Education Inc,778 Deer Lake Trl,Stone Mtn,GA,30087-5463,Community Capacity Bldg,Community & Neighborhood Development,S20,0,0,0,33.7991523742676,-84.1112060546875
030543692,Cruse Of Oil Ministries,698 Wynbrooke Pkwy,Stone Mtn,GA,30087-4799,Religious,Christianity,X20,,,,33.7926559448242,-84.109375
043610471,Truth Evangelistic Ministries Inc,544 Julius Dr,Stone Mtn,GA,30087-5903,Religious,Christianity,X20,,,,33.7911834716797,-84.1557846069336
043613843,All Gods Little Children,5833 Oakleaf Way,Stone Mtn,GA,30087-5132,Human Services,Emergency Assistance,P60,0,0,0,33.7817916870117,-84.1507797241211
020790900,Ministers United By Christ,5143 Oak Leaf Ter,Stone Mtn,GA,30087-3253,Religious,Christianity,X20,1,15345,15345,33.831859588623,-84.1119766235352
161618814,Reaching The Lost Agape Ministries Inc,4927 Woodhurst Way,Stone Mtn,GA,30088-3525,Religious,Christianity,X20,,,,33.749095916748,-84.1888885498047
200066467,Faith Works Ministries Inc,5314 Oshea Ln,Stone Mtn,GA,30088-1417,Religious,Christianity,X20,,,,33.7859153747559,-84.1727752685547
010582284,Community Connections Inc,2300 W Park Place Blvd Ste 114,Stone Mtn,GA,30087-3561,Human Services,Foster Care,P32,837378,2248919,2248919,33.814323425293,-84.1134872436523
030492697,Bible Based Community Church Inc,5693 Pennybrook Ct,Stone Mtn,GA,30087-5753,Religious,Christianity,X20,,,,33.7928924560547,-84.1572647094727
061721841,War Ministries Inc,1463 Stoneleigh Way,Stone Mtn,GA,30088-3429,Human Services,Human Services,P20,0,0,0,33.7477149963379,-84.16259765625
030563105,Deliverance Crew Ministries Inc,5332 Kelleys Creek Dr,Stone Mtn,GA,30088-3827,Religious,Protestant,X21,0,0,0,33.7461585998535,-84.1715240478516
201155764,Mingledorffs Charitable Tr,6675 Jones Mill Ct,Norcross,GA,30092-3622,Philanthropy,Public Foundations,T30,0,0,0,33.9433898925781,-84.2527236938477
134204733,Industrial Asset Management Council Inc,6625 The Corners Pkwy Ste 200,Norcross,GA,30092-3334,Community Capacity Bldg,Chambers of Commerce & Business Leagues,S41,3618204,2663831,2663831,33.958797454834,-84.2366714477539
133200719,Ravi Zacharias International Ministries,4725 Peachtree Corners Cir Ste 250,Norcross,GA,30092-2586,Religious,Christianity,X20,9191971,29407538,22113274,33.9790916442871,-84.2241821289062
134339476,A New Way Ministries Inc,1093 Redwood Dr,Norcross,GA,30093-3739,Religious,Christianity,X20,1226,43656,43656,33.8954391479492,-84.1907043457031
020749880,County Line Baptist Church,5258 Rockbridge Dr,Stone Mtn,GA,30087-4221,Religious,Christianity,X20,,,,33.7950248718262,-84.0926361083984
010844492,Christ Evangelistic Ministry,5567 Memorial Dr Ste G,St Mountain,GA,30083-3238,Religious,Protestant,X21,,,,33.8006477355957,-84.211555480957
200824458,Tabernacle Of David Christian Center Inc,4281 Steve Reynolds Blvd Ste D,Norcross,GA,30093-3502,Religious,Protestant,X21,293376,141030,141030,33.927375793457,-84.1476364135742
200991479,Zion International Church,4855 River Green Pkwy Ste 200,Duluth,GA,30096-8337,Religious,Protestant,X21,,,,34.0140151977539,-84.1681900024414
201588918,Life Church Of Jesus Inc,3751 Venture Dr Ste 270,Duluth,GA,30096-5003,Religious,Christianity,X20,,,,33.9538612365723,-84.1324615478516
020741063,Broadway Terrace Corporation,2405 Satellite Blvd Ste 100,Duluth,GA,30096-9084,Housing Shelter,Senior Citizens‰Ûª Housing & Retirement Communities,L22,1354901,393642,393642,33.975399017334,-84.0937423706055
113664629,Georgia Chapter Of Acoem,3871 Murdock Ct,Duluth,GA,30096-4308,Community Capacity Bldg,Business & Industry,S40,0,0,0,33.9626693725586,-84.1485137939453
010593102,Hosannas Horse Granger,3757 Centennial Trl,Duluth,GA,30096-6217,Human Services,Centers to Support the Independence of Specific Populations,P80,1,1,,33.9582557678223,-84.1742706298828
020796936,Blankets Of Love Outreach Inc,1902 Dilcrest Dr,Duluth,GA,30096-8975,Philanthropy,Public Foundations,T30,0,0,0,33.9558753967285,-84.117301940918
113667032,Theology Cafe Inc,3495 Tulip Tree Ln,Duluth,GA,30096-5332,Religious,Christianity,X20,0,0,0,34.0113258361816,-84.1691436767578
200146362,Ncr Charity Corporation,3095 Satellite Blvd Bldg 800,Duluth,GA,30096-5814,Philanthropy,Corporate Foundations,T21,63356,100540,100540,33.9623374938965,-84.1142883300781
030387765,Latter Rain Ministries Inc,2386 Bransley Pl,Duluth,GA,30097-4336,Religious,Christianity,X20,,,,34.0050888061523,-84.1151275634766
161463549,Baroda Medical College Foundation Inc,2783 Thurleston Ln,Duluth,GA,30097-4999,Philanthropy,Private Grantmaking Foundations,T20,113803,78363,4317,33.9885292053223,-84.1156921386719
030400974,Swiss-American Chamber Of Commerce Inc,11460 Johns Creek Pkwy,Duluth,GA,30097-1556,Community Capacity Bldg,Chambers of Commerce & Business Leagues,S41,0,0,0,34.0556869506836,-84.171516418457
030429253,Society For The Preservation Of Physician Assistant History Inc,12000 Findley Rd Ste 160,Johns Creek,GA,30097-1409,Philanthropy,Public Foundations,T30,39075,267910,267910,34.061710357666,-84.1721954345703
200193694,Christ Mission International Inc,3575 Acworth Due West Rd Nw,Acworth,GA,30101-3811,Human Services,Human Services,P20,,,,34.0401573181152,-84.6747741699219
030508504,Destiny Seekers International Inc,3682 Autumn View Dr Nw,Acworth,GA,30101-7672,Religious,Protestant,X21,0,0,0,34.0476112365723,-84.7357025146484
201286304,1St & 8Th Support Group,1401 Downington Vw Nw,Acworth,GA,30101-8409,Human Services,Gift Distribution,P58,0,0,0,33.9902076721191,-84.7213134765625
201656044,Good News Atlanta Church Inc,2550 Pleasant Hill Rd Ste 421,Duluth,GA,30096-9265,Religious,Protestant,X21,,,,33.9686737060547,-84.1448440551758
200789590,Safe Harbor Community Church,5801 Brookstone Cir Nw,Acworth,GA,30101-4502,Religious,Protestant,X21,,,,33.9988212585449,-84.720085144043
141969628,Word To The World Mission Inc,1207 Creek Forest Ln,Austell,GA,30106-1486,Religious,Christianity,X20,0,0,0,33.8627548217773,-84.5895538330078
010602272,African Ministers Charter Inc,4033 Rhinehart Ct,Austell,GA,30106-1877,Religious,Protestant,X21,,,,33.8518676757812,-84.6141128540039
141848349,Radha Madhav Society,2769 Duluth Hwy,Duluth,GA,30096-4019,Religious,Hinduism,X70,,,,33.9849700927734,-84.1281967163086
201840769,Christ Centered Church Incorporated,7712 Parkside Dr,Lithia Spgs,GA,30122-6869,Religious,Protestant,X21,,,,33.7644844055176,-84.6147079467773
020728707,Reachout America Npo Inc,301 Fontaine Rd Sw,Mableton,GA,30126-1778,Human Services,Personal Social Services,P50,8168,32927,32927,33.829029083252,-84.5602111816406
010494042,Maple Farms Foundation,4750 Austell Rd,Austell,GA,30106-2004,Philanthropy,Private Grantmaking Foundations,T20,1574323,72770,,33.8381843566895,-84.6114044189453
061685045,H U S H Inc,2726 Beaver Creek Xing,Powder Spgs,GA,30127-1556,Philanthropy,Public Foundations,T30,0,0,0,33.8854751586914,-84.6452407836914
010766887,His Hands Extended Inc,5105 Sophy Dr,Powder Spgs,GA,30127-5540,Human Services,Family Services,P40,9480,3848,3848,33.9012680053711,-84.7021865844727
161687884,Vision Center Inc,5004 Evelyn Way,Powder Spgs,GA,30127-2055,Religious,Protestant,X21,,,,33.872013092041,-84.6712188720703
010719532,Full Counsel Apostolic Ministries,1311 Veterans Memorial Hwy Sw,Mableton,GA,30126-3111,Religious,Christianity,X20,,,,33.8158912658691,-84.5926971435547
050578873,Victory Convenant Ministries Inc,5148 Martin Farms Ln,Powder Spgs,GA,30127-8430,Religious,Protestant,X21,0,0,0,33.8301811218262,-84.6924438476562
200365740,Crossties Ministries Inc,5254 Miranda Way,Powder Spgs,GA,30127-8414,Human Services,Human Services,P20,0,0,0,33.8256225585938,-84.6915817260742
201467842,Atlanta Training Opportunities And Ultimate Careers For Homeless,3948 Flint Hill Rd,Powder Spgs,GA,30127-2809,Housing Shelter,Homeless Shelters,L41,0,0,0,33.8573036193848,-84.6461563110352
030546537,Nekot Humanitarian Services,5344 Yoshino Ter,Powder Spgs,GA,30127-6007,Human Services,Human Services,P20,0,0,0,33.8831672668457,-84.7110061645508
134211296,Living Water Church Incorporated,4688 Moon Rd,Powder Spgs,GA,30127-3701,Religious,Christianity,X20,,,,33.8883285522461,-84.690185546875
010846507,In The Masters Company Inc,900 Casteel Rd,Powder Spgs,GA,30127-4403,Religious,Religious Printing & Publishing,X83,0,0,0,33.9321022033691,-84.6619262695312
161766457,Rehoboth Faith Ministry Inc,3875 Powder Springs Rd,Powder Springs,GA,30127-2759,Religious,Protestant,X21,,,,33.8603668212891,-84.6672286987305
061506580,A-Z Worldwide Charities Inc,1330 Veterans Memorial Hwy Bldg 1 S,Mableton,GA,30126-3235,Philanthropy,Public Foundations,T30,0,91415,91415,33.8015060424805,-84.518196105957
010929656,Contemporary Church Of God,6743 Brookfield Way,Douglasville,GA,30134-1462,Religious,Protestant,X21,,,,33.724796295166,-84.7890167236328
043650820,Calvary Youth Services Inc,1430 Lost Mountain Rd,Powder Spgs,GA,30127-1069,Philanthropy,Public Foundations,T30,4402400,194870,194870,33.9184532165527,-84.6921844482422
200248729,Quality Living Alternative Inc,8854 Campbellton St,Douglasville,GA,30134-2205,Human Services,Group Homes,P73,0,464269,464269,33.7401428222656,-84.7393646240234
134355995,Celestial Church Of Christ The Light Of Christ Parish,3725 Riley Rd,Douglasville,GA,30134-4330,Religious,Protestant,X21,1250,39724,39724,33.7801055908203,-84.6950531005859
161749142,Covenants Of Promise Ministries Inc,6811 Wood Gate Way,Douglasville,GA,30134-5729,Religious,Christianity,X20,0,0,0,33.7789573669434,-84.7525787353516
010756960,His Kingdom Come Ministries Intl,5455 Sweet Spring Dr,Powder Spring,GA,30127-0000,Religious,Christianity,X20,,,,33.820011138916,-84.6784820556641
010654584,Jeremiah Outreach Center,3044 Hope Ct,Douglasville,GA,30135-4428,Human Services,Centers to Support the Independence of Specific Populations,P80,0,0,0,33.7033882141113,-84.6761703491211
200137917,Larger Than Life Christian Ministries Inc,4017 Greentree Ct,Douglasville,GA,30135-7251,Religious,Protestant,X21,,,,33.6958274841309,-84.7057952880859
020724792,New Alliance Assembly Missionary Church,361 Mccook Cir Nw,Kennesaw,GA,30144-3155,Religious,Protestant,X21,0,133730,133730,33.9962692260742,-84.5662460327148
161696718,Redeemed Christian Church Of God- Praise Chapel Douglasville Ga Inc,8957 Highway 5,Douglasville,GA,30134-1538,Religious,Christianity,X20,,,,33.7390823364258,-84.7737655639648
061687074,Savannah Safe Haven Center Inc,2202 Fairburn Rd,Douglasville,GA,30135-1156,Human Services,Family Services,P40,0,0,0,33.7458000183105,-84.6934356689453
113743343,Good Shepherd Mission Foundation Inc,1461 Winterfield Ct Nw,Kennesaw,GA,30152-6704,Religious,Religious Radio,X84,331777,1716,1716,33.9882583618164,-84.6140747070312
200815589,Lasting Hope Inc,1971 Mccollum Pkwy Nw,Kennesaw,GA,30144-3637,Philanthropy,Private Grantmaking Foundations,T20,157501,98792,,34.014705657959,-84.6071090698242
201219182,Life Bridge Community Church Inc,3102 Loring Rd Ste 1470,Kennesaw,GA,30152-2300,Religious,Christianity,X20,,,,34.030517578125,-84.66259765625
010656046,Marvelous Light Christian Ministry,2160 Lee Rd,Lithia Spgs,GA,30122-3457,Religious,Protestant,X21,,,,33.7461433410645,-84.662483215332
010686454,Laz Foundation Inc,3903 Nemours Tril,Kennesaw,GA,30152-0000,Religious,Christianity,X20,6061,6250,6250,33.9981994628906,-84.6640777587891
200693316,Mission Team Inc,856 Old Mountain Rd Nw,Kennesaw,GA,30152-3843,Religious,Protestant,X21,12634,20050,20050,33.9739418029785,-84.6916046142578
061818546,Grace Community Support Corporation,3737 Stilesboro Rd Nw,Kennesaw,GA,30152-3152,Human Services,Neighborhood Centers,P28,572,64657,64657,33.9985542297363,-84.6594467163086
161706853,Kmhs Njrotc Cpo Inc,1898 Kennesaw Due West Rd Nw,Kennesaw,GA,30152-4221,Public Social Benefit,Public & Societal Benefit NEC,W99,13222,87414,87414,34.0004844665527,-84.6253356933594
010769486,Carmel And Sharon Ministries Inc,1880 Drew Cir,Austell,GA,30168-4355,Human Services,Homeless Centers,P85,0,0,0,33.8133926391602,-84.6072769165039
030550030,Its Only Social Inc,5900 Maxham Rd Ste 14,Austell,GA,30168-4258,Human Services,Human Services,P20,0,0,0,33.811149597168,-84.6195602416992
113720181,Divine Destiny Christian Center Intl,3387 Highway 5 Ste A,Douglasville,GA,30135-6900,Religious,Christianity,X20,,,,33.7139511108398,-84.7695693969727
134335316,Gracelife Family Ministry,3417 Highway 5 Ste A,Douglasville,GA,30135-2378,Religious,Christianity,X20,0,0,0,33.7129936218262,-84.769905090332
201414588,Youth Connections Inc Group Home,385 Lake Jonathan Ln,Fairburn,GA,30213-3912,Human Services,Group Homes,P73,12500,334487,334487,33.5825881958008,-84.605842590332
010837245,Pergom International,6535 White Mill Rd,Fairburn,GA,30213-2543,Housing Shelter,Housing Development,L20,0,0,0,33.5791702270508,-84.6181259155273
061664974,Truth Faith Ministry Inc,3425 Estate Lake Dr,Fairburn,GA,30213-3111,Religious,Professional Societies & Associations,X03,0,0,0,33.5652694702148,-84.5008010864258
200809470,Save R Kids Childrens Homes Inc,3355 Old Jonesboro Rd,Fairburn,GA,30213-3233,Human Services,Group Homes,P73,7592,59639,59639,33.5524253845215,-84.5024566650391
113751226,Nellie Mckay Ministries International Inc,5500 Oakley Industrial Blvd Apt 316,Fairburn,GA,30213-6029,Religious,Christianity,X20,0,0,0,33.5427055358887,-84.568229675293
030607183,Image Bearers Ministries,115 Kathi Ave,Fayetteville,GA,30214-1691,Religious,Christianity,X20,7185,82981,82981,33.4573440551758,-84.4523391723633
050542426,Nations Community Restoration,130 Creekview Trl,Fayetteville,GA,30214-7228,Food,Food Programs,K30,0,0,0,33.488452911377,-84.4683609008789
200195398,Caribbean Missions Outreach Inc,255 Triple Creek Trl,Fayetteville,GA,30214-2353,Religious,Christianity,X20,0,0,0,33.5310096740723,-84.495246887207
020750885,Miller Grove Baptist Church,195 Senoia Rd,Fairburn,GA,30213-1567,Religious,Christianity,X20,,,,33.558666229248,-84.5832901000977
201165855,World Impact Ministries Inc,115 Victor Ln,Fayetteville,GA,30214-3798,Religious,Protestant,X21,,,,33.499568939209,-84.4796524047852
010673023,Touching Hearts Ministries Inc,140 Kathi Avenue,Fayetteville,GA,30214-1656,Religious,Christianity,X20,0,0,0,33.4568939208984,-84.452262878418
030410833,The@New Family Of Christ Ministries Inc,403 Fayette Pl Hwy 85,Fayetteville,GA,30214-1653,Religious,Protestant,X21,,,,33.4550971984863,-84.453254699707
201306992,Servants Of Jesus Christ Ministries Inc,43 Harbour Lake Dr,Fayetteville,GA,30215-6603,Religious,Protestant,X21,0,0,0,33.4333152770996,-84.3918380737305
030514690,Public Policy Development Of The Southeast Region Inc,140 Forest Lake Way,Fayetteville,GA,30215-2109,Human Services,Human Services,P20,0,0,0,33.4089088439941,-84.4295806884766
134359678,Love Beyond Bars Program Inc,185 Braemar Dr,Fayetteville,GA,30215-1832,Human Services,Human Services NEC,P99,0,50,50,33.4415740966797,-84.4882125854492
200210671,Southeast Credit Union Real Estate Network,120 Grandview Trce,Fayetteville,GA,30215-5737,Community Capacity Bldg,Real Estate Associations,S47,0,0,0,33.3613395690918,-84.4234313964844
010635954,Fayetteville Main Street Tourism Association Inc,240 Glynn St S,Fayetteville,GA,30214-2040,Community Capacity Bldg,Business & Industry,S40,238691,505577,505577,33.4457015991211,-84.4551162719727
020543612,Whom Inc,400 Ryoaks Dr,Hampton,GA,30228-4923,Religious,Protestant,X21,,,,33.4070281982422,-84.2844848632812
200931646,Shepherds Place Inc,304 Yorkshire Trce,Hampton,GA,30228-4806,Religious,Christianity,X20,,,,33.3547286987305,-84.273551940918
200909081,Great Congregation Of The Lord Calvary Church Of God Inc,583 Togwatee Pass,Hampton,GA,30228-6151,Religious,Protestant,X21,,,,33.463020324707,-84.3711624145508
030428964,Islamic Community Center Of Atlanta Inc,288 Lanier Ave E,Fayetteville,GA,30214-1604,Religious,Islam,X40,57722,102688,102688,33.44873046875,-84.4505081176758
061715855,Armour Of God Christian Ministries,7596 Park Ln,Jonesboro,GA,30236-2077,Religious,Christianity,X20,,,,33.5461349487305,-84.3815383911133
050611658,Spirit Of Victory Ministries Inc,1073 Forest Gln,Jonesboro,GA,30238-8831,Religious,Christianity,X20,,,,33.4682502746582,-84.3604125976562
010566773,Deliverance Tabernacle Of Praise,1572 Highway 85 N Ste 336,Fayetteville,GA,30214-7729,Religious,Christianity,X20,,,,33.4906883239746,-84.431999206543
043828175,Joseph And Mary Ministries Inc,9416 Bogey Ct,Jonesboro,GA,30238-5703,Religious,Religion-Related NEC,X99,0,0,0,33.499454498291,-84.4022903442383
031600840,Covenant Family Christian Center Inc,10579 Village Trl,Jonesboro,GA,30238-7989,Religious,Christianity,X20,,,,33.4657363891602,-84.3544006347656
043625430,Worldwide Seed Of Life Inc,601 Seaport Dr,Jonesboro,GA,30238-4115,Religious,Protestant,X21,,,,33.5011596679688,-84.3707885742188
010954243,Amazing Grace Evangelical International Ministries Inc,949 Pointe South Pkwy,Jonesboro,GA,30238-4390,Human Services,Human Services,P20,14541,50461,50461,33.5216064453125,-84.4220809936523
050567949,Montez Head Ministries Inc,536 Easton Dr,Locust Grove,GA,30248-4562,Religious,Protestant,X21,0,0,0,33.3365173339844,-84.082389831543
010932630,Global Leadership Christian Center,187 Lantana Dr,Locust Grove,GA,30248-7094,Religious,Christianity,X20,,,,33.3403549194336,-84.1779861450195
161683146,Turning Point Church Inc,78 Old Jackson Rd,Mcdonough,GA,30252-3029,Religious,Protestant,X21,,,,33.4268989562988,-84.0971374511719
200342693,Blackwelder Ministries Inc,3011 Toby Ct,Mcdonough,GA,30252-8562,Religious,Christianity,X20,20309,284599,280093,33.4611167907715,-84.0630035400391
043700749,A More Excellent Way Ministries,107 W Lake Dr,Mcdonough,GA,30252-6614,Religious,Christianity,X20,,,,33.4633941650391,-84.0520095825195
010801962,Revision Ministries Inc,3910 Airline Rd,Mcdonough,GA,30252-4034,Religious,Christianity,X20,25639,17699,,33.5463371276855,-84.0890045166016
043788260,His Freedom Reigns Inc,458 Salem Ridge Ct,Mcdonough,GA,30253-4780,Religious,Protestant,X21,,,,33.4975776672363,-84.1567840576172
201474285,Mcdonough Junior Womens Club,184 Ivy Trce,Mcdonough,GA,30253-7298,Community Capacity Bldg,Women‰Ûªs Service Clubs,S81,0,0,0,33.4134902954102,-84.2106704711914
200335031,Sacred Journey Hospice Foundation Inc,136 Peach Dr,Mcdonough,GA,30253-4600,Human Services,Hospices,P74,199913,112924,95781,33.4875259399414,-84.1975631713867
061837682,International Community Bible Church Inc,750 Mount Carmel Rd,Mcdonough,GA,30253-5920,Religious,Christianity,X20,,,,33.4475021362305,-84.2159423828125
201249256,Connecting Henry Inc,66 Veterans Dr,Mcdonough,GA,30253-2204,Human Services,Human Services,P20,76665,296406,296406,33.4519500732422,-84.1450271606445
020660657,Mcdonough Hospitality And Tourism Board Inc,5 Griffin St,Mcdonough,GA,30253-3140,Community Capacity Bldg,Chambers of Commerce & Business Leagues,S41,286114,490627,488325,33.4475708007812,-84.1472778320312
010799871,Tabernacle Of God International Ministries Inc,745 Magnolia Gardens Walk,Mcdonough,GA,30253-6082,Religious,Christianity,X20,,,,33.4565696716309,-84.1756439208984
020545623,Renfroe Family Foundation Inc,5916 East Lake Pkwy,Mcdonough,GA,30253-4802,Philanthropy,Corporate Foundations,T21,12309,1,,33.5076217651367,-84.1436157226562
113757965,Lukes Big Heart Foundation Corp,2339 Gordon Rd,Moreland,GA,30259-2583,Philanthropy,Public Foundations,T30,0,0,0,33.2898292541504,-84.7160034179688
201213970,Southside Baptist Church Of Fayette County Inc,1332 Highway 92 S,Fayetteville,GA,30215-5436,Religious,Christianity,X20,,,,33.3931999206543,-84.4344635009766
043787713,Boys2men Home And Sanctuary For Youth Inc,1672 Northridge Dr,Morrow,GA,30260-1745,Human Services,Children & Youth Services,P30,1410,16784,16784,33.5798683166504,-84.3376617431641
113646200,Christian Growth Ministries Inc,1895 Joy Lake Rd,Morrow,GA,30260-3699,Religious,Christianity,X20,,,,33.6076736450195,-84.32763671875
043636489,Salvation Christian Center Inc,5771 Trammell Rd Apt 5 C,Morrow,GA,30260-1335,Religious,Protestant,X21,,,,33.5971069335938,-84.3212585449219
201678077,Truth & Life Ministries Inc,1078 Citizens Pkwy Ste G,Morrow,GA,30260-2968,Religious,Christianity,X20,,,,33.5598754882812,-84.3546600341797
134266534,Word Of Fire Deliverance And Healing Apostolic Ministries Inc,7021 Tara Blvd Ste 116,Jonesboro,GA,30236-1647,Religious,Christianity,X20,,,,33.5625648498535,-84.3714370727539
113708624,Pure In Heart Prophetic Ministry,2084 Rex Rd Ste 6,Lake City,GA,30260-3960,Religious,Christianity,X20,0,0,0,33.5993766784668,-84.3217391967773
061736771,J Ministry Inc,127 Maple Creek Dr,Newnan,GA,30263-7042,Community Capacity Bldg,Urban & Community Economic Development,S31,0,0,0,33.4437713623047,-84.7934417724609
113671072,St Smyrna Baptist Church,68 Heery Rd,Newnan,GA,30263-1320,Religious,Protestant,X21,,,,33.3788604736328,-84.8329010009766
061736389,New Deliverance Ministries Inc,90 Springwater Shrs,Newnan,GA,30265-3821,Religious,Christianity,X20,,,,33.4298095703125,-84.6953430175781
200719668,International Team Ministries,740 White Oak Dr,Newnan,GA,30265-2029,Religious,Protestant,X21,0,0,0,33.3834800720215,-84.7194671630859
200087558,Holy Trinity Baptist Church Incorporated,105 Springwater Shrs,Newnan,GA,30265-3819,Religious,Protestant,X21,,,,33.4297409057617,-84.6952362060547
134211671,Agape Christian Center Ministries,50 B East Washington St Ste B,Newman,GA,30263-0000,Religious,Protestant,X21,,,,33.3747978210449,-84.7948837280273
161679738,Life Journey Christian Church,312 Crosstown Dr,Peachtree Cty,GA,30269-2948,Religious,Protestant,X21,,,,33.377368927002,-84.5574188232422
030546849,Leaders Heart Inc,104 Ardenlee Dr,Peachtree Cty,GA,30269-4203,Religious,Christianity,X20,0,0,0,33.4352645874023,-84.5982055664062
010706946,Gospel Faith Mission International Forest Park Branch Inc,5707 Meadow Ln,Rex,GA,30273-1156,Religious,Christianity,X20,,,,33.5968017578125,-84.2734832763672
043722757,Church Of The Lord Amazing Grace Center Inc,7739 Antebellum Ln,Riverdale,GA,30274-4055,Religious,Protestant,X21,,,,33.5437240600586,-84.3959045410156
050544075,Purpose By Design Ministry Inc,8505 Peachtree Ln,Riverdale,GA,30274-4421,Religious,Protestant,X21,0,0,0,33.5228233337402,-84.3955535888672
201726630,Elm Foundation Inc,90 Highland Park Dr,Sharpsburg,GA,30277-3452,Religious,Single Organization Support,X11,2026005,168616,,33.420295715332,-84.6318740844727
201845975,Global Bible Study Network Incorporated,7478 Windgate Ct,Riverdale,GA,30274-3628,Religious,Religious Printing & Publishing,X83,0,0,0,33.5504493713379,-84.3863754272461
201618156,A New Voice Foundation Inc,829 Fairways Court,Stockbridge,GA,30281-7219,Public Social Benefit,Government & Public Administration,W20,4166,130,,33.5056343078613,-84.2203063964844
201212537,Life Baptist Church Of Henry County Inc,30 Country Roads Cir,Stockbridge,GA,30281-1340,Religious,Protestant,X21,,,,33.5835189819336,-84.2339859008789
141864435,Willie M Simpson Evangelistic Ministries Inc,821 Lorraine Ln,Stockbridge,GA,30281-7624,Human Services,Human Services,P20,26367,154170,154170,33.5216522216797,-84.2326965332031
141994427,White Dove,4461 Walt Stephens Rd,Stockbridge,GA,30281-4267,Religious,Protestant,X21,,,,33.5290718078613,-84.2468490600586
134286244,Kingdom Living Ministries,950 Eagles Landing Pkwy # 226,Stockbridge,GA,30281-7343,Religious,Protestant,X21,,,,33.5121269226074,-84.219970703125
200865759,Dalrc Inc,950 Eagles Landing Pkwy,Stockbridge,GA,30281-7343,Employment,Labor Unions,J40,556705,129330,129330,33.5121269226074,-84.219970703125
201712179,Vision Of Hope Community Church Inc,1317 Henrico Rd,Conley,GA,30288-1003,Religious,Protestant,X21,,,,33.6727104187012,-84.3372573852539
043712104,The Redeemed Christian Church Of God Grace Assembly,6045 N Henry Blvd Ste A,Stockbridge,GA,30281-3024,Religious,Protestant,X21,,,,33.5649642944336,-84.2614135742188
201470023,Southern Pine Advertising Network Inc,200 Greencastle Rd,Tyrone,GA,30290-2943,Community Capacity Bldg,Chambers of Commerce & Business Leagues,S41,56869,60000,60000,33.4501724243164,-84.5907135009766
010583056,Larsen & Larsen Ministries Inc,155 Swanson Valley Dr,Tyrone,GA,30290-1850,Religious,Christianity,X20,65297,78338,78338,33.4852867126465,-84.5755920410156
061578437,Neriah Baptist Church,4786 Dodson Rd,Union City,GA,30291-1208,Religious,Religion-Related NEC,X99,,,,33.5896682739258,-84.5441665649414
200538048,Wonders Of God Ministries International,3207 Shannon Lake Pt,Union City,GA,30291-5008,Religious,Protestant,X21,,,,33.5677452087402,-84.5119094848633
050612230,Dreams With Open Arms,5134 King Arthur Ln,Ellenwood,GA,30294-6544,Housing Shelter,Homeless Shelters,L41,0,0,0,33.6570625305176,-84.2175445556641
030383994,Ordinary People Inc,185 Lakeside Dr,Ellenwood,GA,30294-2528,Religious,Protestant,X21,0,0,0,33.6346397399902,-84.2537002563477
043824531,Stop The Bullying Inc,4260 Boxwood Trial,Ellenwood,GA,30294-0000,Human Services,Children & Youth Services,P30,0,0,0,33.653678894043,-84.2270965576172
010791076,Moving Foward Community Center Inc,1884 Valley Woods Dr,Riverdale,GA,30296-1863,Employment,Employment Preparation & Procurement,J20,0,0,0,33.5606880187988,-84.4518051147461
010889314,The Initiative Community Development Corporation,1581 Cheryl Leigh Dr,Riverdale,GA,30296-2538,Religious,Religion-Related NEC,X99,0,0,0,33.5781898498535,-84.4416351318359
201510373,Quality Daycare For Special Needs Inc,6839 Shangrila Way,Riverdale,GA,30296-2137,Human Services,Child Day Care,P33,0,0,0,33.5684967041016,-84.429931640625
061800919,Living Word Ministries Inc,1408 Quail Hunt Dr,Riverdale,GA,30296-2639,Religious,Christianity,X20,0,0,0,33.5712089538574,-84.4350051879883
134303076,Big Boots Special Friends Inc,677 Panola Rd,Ellenwood,GA,30294-3037,Human Services,Human Services NEC,P99,0,0,0,33.6407203674316,-84.2077407836914
020567152,Renaissance Affordable Housing Inc,230 John Wesley Dobbs Ave Ne,Atlanta,GA,30303-2429,Housing Shelter,Support NEC,L19,156243,140,140,33.7574615478516,-84.3800201416016
020567155,Strategic Resource Development Corporation,230 John Wesley Dobbs Ave Ne,Atlanta,GA,30303-2429,Housing Shelter,Single Organization Support,L11,1,485,485,33.7574615478516,-84.3800201416016
020640593,Rock Church Of Atlanta,4815 Courtney Dr,Forest Park,GA,30297-3819,Religious,Protestant,X21,,,,33.6232452392578,-84.3556289672852
020567158,Westside Affordable Housing Inc,230 John Wesley Dobbs Ave Ne,Atlanta,GA,30303-2429,Housing Shelter,Housing Development,L20,38748838,2726216,2017342,33.7574615478516,-84.3800201416016
030401387,Glory Temple,6714 Highway 85 Ste 5C,Riverdale,GA,30274-2300,Religious,Christianity,X20,,,,33.5715217590332,-84.4126052856445
030379598,First Church Community Development Corporation,105 Courtland St Ne,Atlanta,GA,30303-2422,Human Services,Human Services NEC,P99,0,0,0,33.7573280334473,-84.3841857910156
201181912,Paradise Community Development Corporation,4234 Hendrix Dr,Forest Park,GA,30297-1240,Human Services,Human Services,P20,0,0,0,33.6381492614746,-84.3719329833984
200178918,Grove Family Charitable Foundation Ltd,225 Peachtree St Ne 1100 S Tower,Atlanta,GA,30303-0000,Philanthropy,Private Grantmaking Foundations,T20,129041,1,,33.760139465332,-84.3875503540039
200289833,Armenian Church Of The Apostles Inc,250 Spring St Ste 6W119,Atlanta,GA,30303-1133,Religious,Christianity,X20,,,,33.7614517211914,-84.3890533447266
020678823,Voices For Georgias Children Inc,100 Edgewood Ave Ne Ste 1580,Atlanta,GA,30303-3029,Human Services,Alliances & Advocacy,P01,659092,996086,922231,33.754508972168,-84.3851699829102
134311179,The Correll Family Foundation Inc,191 Peachtree St Ste 4050,Atlanta,GA,30303-1786,Philanthropy,Private Grantmaking Foundations,T20,40631592,29918149,,33.7588691711426,-84.3875579833984
161639971,Georgia Watch,55 Marietta St Nw Ste 903,Atlanta,GA,30303-2835,Public Social Benefit,Consumer Protection,W90,161839,324862,317862,33.7555160522461,-84.39111328125
200478411,Atlanta Family And Crisis Pregnancy Center Inc,100 Edgewood Avenue Ne,Atlanta,GA,30303-3026,Human Services,Children & Youth Services,P30,51463,243793,243793,33.754508972168,-84.3851699829102
200858719,Markwalter Family Foundation Inc,555 Argonne Dr Nw,Atlanta,GA,30305-2840,Philanthropy,Private Grantmaking Foundations,T20,52028,216664,,33.8349266052246,-84.4048919677734
030427706,Hispanic American Center For Economic Development Inc,99 W Paces Ferry Rd Nw Ste 200,Atlanta,GA,30305-1364,Community Capacity Bldg,Small Business Development,S43,41204,87400,87400,33.8409309387207,-84.3834915161133
200482157,Jjcj Foundation Inc,2 W Wesley Rd Nw Apt 15,Atlanta,GA,30305-3500,Philanthropy,Private Independent Foundations,T22,1053273,297391,,33.82861328125,-84.3875503540039
200749384,Terwilliger Family Foundation Inc,3060 Peachtree Rd Nw Ste 830,Atlanta,GA,30305-2240,Philanthropy,Private Grantmaking Foundations,T20,10049,0,,33.8390274047852,-84.3802719116211
061763582,The Gary E Snyder Foundation Inc,3333 Piedmont Rd Ne Ste 2500,Atlanta,GA,30305-1780,Philanthropy,Private Grantmaking Foundations,T20,211456,96225,,33.8460845947266,-84.3725280761719
020539739,Faith Journey Missions,825 Highland Ln Ne Apt 1209,Atlanta,GA,30306-4338,Religious,Christianity,X20,0,0,0,33.7739944458008,-84.3603057861328
061785821,Georgia Alliance Of Therapeutic Servcies For Children & Familes In,690 Courtenay Dr Ne,Atlanta,GA,30306-3421,Community Capacity Bldg,Boards of Trade,S46,0,0,0,33.7895584106445,-84.3635711669922
134147698,International Conference Of Symphony And Opera Musicians Inc,953 Rosedale Rd Ne,Atlanta,GA,30306-4830,Community Capacity Bldg,Chambers of Commerce & Business Leagues,S41,653412,204214,204214,33.7807502746582,-84.3481369018555
061703633,Enchanted Closet Inc,1385 Oxford Road Ne Suite B,Atlanta,GA,30307-1035,Human Services,Children & Youth Services,P30,0,0,0,33.788761138916,-84.3265762329102
020651931,Georgia Partnership For Economic Development Inc,75 5Th St Nw Ste 1200,Atlanta,GA,30308-1020,Community Capacity Bldg,Chambers of Commerce & Business Leagues,S41,1,34,34,33.7768669128418,-84.3893966674805
043831203,The Universal House Of Prayer And Training School Inc,532 Rankin St Ne,Atlanta,GA,30308-2812,Religious,Christianity,X20,,,,33.7673034667969,-84.3695068359375
200265655,David M Hermann Foundation Inc,3325 Piedmont Road 2208,Atlanta,GA,30305-0000,Philanthropy,Private Grantmaking Foundations,T20,215097,58966,,33.8459548950195,-84.3724670410156
200469131,Atlanta Streetcar Inc,2874 Peachtree Street Suite 2600,Atlanta,GA,30303-0000,Public Social Benefit,Public Transportation Systems,W40,0,0,0,33.7621765136719,-84.387580871582
201105296,A E M Family Foundation,1230 Peachtree St Ne Ste 1500,Atlanta,GA,30309-3504,Philanthropy,Private Grantmaking Foundations,T20,9372737,5772194,,33.7878608703613,-84.3836364746094
200330679,Georgia Association Of Latino Elected Officials Inc,1100 Peachtree St Ne Ste 2800,Atlanta,GA,30309-4528,Public Social Benefit,Leadership Development,W70,11751,74718,74718,33.7845191955566,-84.3830108642578
201238224,Shepherd Center Foundation Inc,2020 Peachtree Rd Nw,Atlanta,GA,30309-1426,Philanthropy,Public Foundations,T30,3259065,779352,-1891,33.8096961975098,-84.3930282592773
200748501,Bev And Marc Lewyn Supporting Organization Inc,1440 Spring St Nw,Atlanta,GA,30309-2837,Philanthropy,Public Foundations,T30,227401,3843,3843,33.7947006225586,-84.3891067504883
010683207,Dewberry Foundation Inc,1545 Peachtree St Ne Ste 250,Atlanta,GA,30309-7030,Philanthropy,Named Trusts NEC,T90,111686,75000,,33.7971115112305,-84.3884963989258
020694023,Atlanta Society Of Muslim Men Inc,401 Hillside Dr Sw,Atlanta,GA,30310-4415,Human Services,Human Services,P20,0,0,0,33.7169990539551,-84.4008560180664
010959880,Warner Family And Friends Outreach Foundation,1059 Oglethorpe Ave Sw Apt 321,Atlanta,GA,30310-2661,Food,Food Programs,K30,0,0,0,33.7358322143555,-84.422477722168
201512111,Jehovah Jireh Edutainment Ministry Group Incorporated,970 Burns Dr Sw,Atlanta,GA,30310-4632,Religious,Protestant,X21,0,0,0,33.7119216918945,-84.4195327758789
010678290,Georgia Community Loan Fund,999 Peachtree St Ne 2300,Atlanta,GA,30309-4416,Human Services,Human Services,P20,0,0,0,33.7816314697266,-84.3839721679688
010786514,Christian Church Of The Living God Rehabilitation Center,1020 Smith St Sw,Atlanta,GA,30310-3624,Religious,Christianity,X20,,,,33.7270698547363,-84.4007720947266
113644837,Integrity House Inc,1495 Avon Ave Sw,Atlanta,GA,30311-2701,Human Services,Centers to Support the Independence of Specific Populations,P80,1,0,0,33.7225189208984,-84.4370346069336
141999105,Turkish American Chamber Of Commerce Of The Southeast United S,1349 West Peachtree St Nw Suite 101,Atlanta,GA,30309-2917,Community Capacity Bldg,Small Business Development,S43,25217,145806,145806,33.7914619445801,-84.3877334594727
161742407,Concerned Dads Inc,2900 Landrum Dr Sw Apt 71,Atlanta,GA,30311-4397,Human Services,Human Services,P20,0,0,0,33.7063217163086,-84.4842910766602
010580854,Cascade Community Services Inc,3144 Cascade Rd Sw,Atlanta,GA,30311-3616,Human Services,Centers to Support the Independence of Specific Populations,P80,0,0,0,33.7203216552734,-84.4914398193359
043787395,Cattle On A Thousand Hills Inc,920 Cascade Rd Sw,Atlanta,GA,30311-2648,Human Services,Human Services,P20,0,0,0,33.730152130127,-84.4404296875
043608033,Community Empowerment Development Corporation Inc,838 Cascade Rd Sw,Atlanta,GA,30311-2619,Human Services,Personal Social Services,P50,3066,5081,4879,33.7323951721191,-84.4382629394531
200984437,Georgia Stratigic Alliance For New Direction And Unified Policies,501 Pulliam St Sw Ste 100,Atlanta,GA,30312-2700,Employment,Alliances & Advocacy,J01,135381,867403,867403,33.7425079345703,-84.3926162719727
201641844,Diaper Free Baby Inc,711A Berne St Se,Atlanta,GA,30312-3503,Human Services,Family Services,P40,0,0,0,33.7366409301758,-84.3644790649414
201459636,Action Mission Ministry Inc,18 William Holmes Borders Jr Drive,Atlanta,GA,30312-0000,Food,Food Banks & Pantries,K31,0,0,0,33.7573471069336,-84.388542175293
010888847,Bethel Towers Inc,504 Fair St Sw,Atlanta,GA,30313-1206,Housing Shelter,Housing Development,L20,2961405,1833194,1833194,33.7487030029297,-84.4032745361328
141908435,Russell Management Resident Services Inc,504 Fair St Sw,Atlanta,GA,30313-1206,Human Services,Human Services,P20,0,0,0,33.7487030029297,-84.4032745361328
200008218,Hills Park Neighborhood Association,925B Peachtree Street 216,Atlanta,GA,30309-3918,Community Capacity Bldg,Community & Neighborhood Development,S20,0,0,0,33.780101776123,-84.3841018676758
010703701,Holy Union Christian Church,2038 Reynolds Dr Sw,Altlanta,GA,30315-6039,Religious,Christianity,X20,,,,33.6988868713379,-84.4010772705078
043695057,Last Chance Church Inc,300 Love St Sw,Atlanta,GA,30315-1048,Religious,Christianity,X20,,,,33.7342224121094,-84.3972854614258
010619288,Tapestry Community Homeowners Association Inc,911 Walker Ave Se,Atlanta,GA,30316-2581,Community Capacity Bldg,Community & Neighborhood Development,S20,0,0,0,33.729793548584,-84.3594970703125
061813702,Faith And Deliverance Ministries Inc,1639 Eastland Rd Se,Atlanta,GA,30316-3438,Religious,Protestant,X21,0,0,0,33.718620300293,-84.3316268920898
141869914,True Church Of God Outreach Ministry,1301 Simpson Rd Nw Apt 5,Atlanta,GA,30314-2075,Religious,Christianity,X20,,,,33.7635726928711,-84.4301834106445
061781380,Alpha & Omega Generations Inc,1957 Rollingwood Dr Se,Atlanta,GA,30316-4423,Human Services,Residential Care & Adult Day Programs,P70,0,0,0,33.6980438232422,-84.3122634887695
201099343,Victory Out Of Defeat Inc,1999 Pryor Rd Sw,Atlanta,GA,30315-6051,Religious,Protestant,X21,0,0,0,33.7006530761719,-84.3989791870117
200904477,World Gospel Community Center,280 Martha Ave Ne,Atlanta,GA,30317-1443,Religious,Protestant,X21,0,0,0,33.7598419189453,-84.3138275146484
010907877,Greater Bethel Atlanta Ame Church Inc,2455 Lakewood Ave Sw,Atlanta,GA,30315-6327,Religious,Christianity,X20,,,,33.6971702575684,-84.3991546630859
030479748,Trinity Vineyard Inc,2270 Defoor Hills Rd Nw,Atlanta,GA,30318-2200,Religious,Christianity,X20,,,,33.8160362243652,-84.434440612793
010759211,Way Christian Tabernacle,1342 Glenwood Ave Se,Atlanta,GA,30316-2048,Religious,Christianity,X20,,,,33.7401580810547,-84.3436050415039
010698118,Integrity Transformations Community Development Corporation,692 Lindsay St Nw,Atlanta,GA,30318-8419,Food,Food Programs,K30,10137,160486,160486,33.7734107971191,-84.4164276123047
141924075,Keyaron Fox Foundation Inc,1588 Tallulah St Nw,Atlanta,GA,30318-7642,Philanthropy,Private Operating Foundations,T23,7644,1,,33.7988052368164,-84.4113616943359
050585900,All Saints Church Inc,2352 Bolton Rd Nw,Atlanta,GA,30318-1232,Religious,Christianity,X20,,,,33.8198051452637,-84.4612274169922
200639835,Higher Dimensions Christian Ministries Inc,1333 Hosea L Williams Dr Ne,Atlanta,GA,30317-1701,Religious,Protestant,X21,,,,33.7534141540527,-84.3455276489258
020603491,Personal Growth Institute,2132 James Jackson Pkwy Nw,Atlanta,GA,30318-1015,Religious,Christianity,X20,,,,33.8144569396973,-84.4772109985352
010654014,Ministry Services Group Inc,1330 Old Woodbine Rd Ne,Atlanta,GA,30319-1040,Philanthropy,Public Foundations,T30,21892,125737,125737,33.887767791748,-84.3488922119141
200253270,Price Family Foundation Inc,4418 Club Dr Ne,Atlanta,GA,30319-1122,Philanthropy,Private Independent Foundations,T22,14355,115596,,33.8752136230469,-84.35498046875
061531744,Canstruction Inc,1168 Howell Mill Rd Nw Suite F,Atlanta,GA,30318-0516,Food,Fund Raising & Fund Distribution,K12,276032,568694,568694,33.785717010498,-84.4117279052734
030490766,Andonios Foundation Inc,1068 Shady Valley Pl Ne,Atlanta,GA,30324-2771,Philanthropy,Corporate Foundations,T21,202849,11497,,33.8351554870605,-84.3473510742188
043745718,Brian E Powell Foundation,3140 Ferncliff Commons Ne,Atlanta,GA,30324-2567,Philanthropy,Private Independent Foundations,T22,580,0,,33.8429412841797,-84.3560485839844
020600755,Sane Ministries International Inc,2470 Cheshire Bridge Rd Ne,Atlanta,GA,30324-3723,Religious,Protestant,X21,,,,33.8224182128906,-84.3516464233398
010614724,Reach For Excellence Inc,3790 Ashford Dunwoody Rd Ne,Brookhaven,GA,30319-5104,Religious,Religion-Related NEC,X99,181163,331507,331507,33.902645111084,-84.331184387207
020539011,Soul Care Ministries Inc,3535 Peachtree Rd Ne 520 246,Atlanta,GA,30326-0000,Human Services,American Red Cross,P21,0,0,0,33.8524856567383,-84.3604431152344
201052873,Jeffrey And Jennifer Allred Family Foundation Inc,609 Fairfield Rd Nw,Atlanta,GA,30327-3221,Philanthropy,Private Grantmaking Foundations,T20,58571,39282,,33.8619194030762,-84.4087753295898
200491864,Coremotion Foundation,1579 Monroe Dr Ste F 430,Atlanta,GA,30324-5039,Philanthropy,Private Independent Foundations,T22,293853,285501,,33.7993316650391,-84.3707656860352
201294722,Sullivan Family Foundation,5287 N Powers Ferry Rd,Atlanta,GA,30327-4666,Philanthropy,Public Foundations,T30,481938,3402,,33.8993873596191,-84.417350769043
201856226,Post Hope Foundation Inc,4401 Northside Pkwy Nw Ste 800,Atlanta,GA,30327-3093,Philanthropy,Public Foundations,T30,231128,610979,503774,33.8645095825195,-84.4502029418945
030384292,Ovation Foundation Inc,2100 Riveredge Pkwy Ste 1100,Atlanta,GA,30328-4671,Philanthropy,Private Grantmaking Foundations,T20,91993,28460,,33.9049263000488,-84.4397277832031
030379543,Voice Of The Sword Inc,6716 Wright Rd,Atlanta,GA,30328-2132,Religious,Protestant,X21,0,0,0,33.9388008117676,-84.3825607299805
134048148,New York Stock Exchange Fallen Heroes Fund,5660 New Northside Dr 3Rd Fl,Atlanta,GA,30328-5800,Human Services,Human Services,P20,2414417,4339,,33.9098739624023,-84.4306945800781
200167756,Georgia Cio Leadership Assocation,2 Concourse Pkwy Ste 100,Atlanta,GA,30328-5566,Community Capacity Bldg,Chambers of Commerce & Business Leagues,S41,332735,859647,859647,33.9175109863281,-84.355712890625
200483100,Wish Foundation Inc,3715 Northside Pkwy Northcreek 200,Atlanta,GA,30327-2882,Philanthropy,Private Independent Foundations,T22,5709795,349459,,33.8596992492676,-84.4342193603516
201534062,Women In Technology Inc,5885 Glenridge Drive,Atlanta,GA,30328-5512,Community Capacity Bldg,Chambers of Commerce & Business Leagues,S41,690162,788617,720573,33.916862487793,-84.3626098632812
010685203,Elvira M Tate Family Foundation Inc,6065 Roswell Rd Ne Ste 800,Atlanta,GA,30328-4018,Philanthropy,Private Grantmaking Foundations,T20,1,1,,33.9200172424316,-84.3789672851562
061785341,Evangeline Booth Residence Inc,1424 Northeast Expy Ne,Atlanta,GA,30329-2018,Housing Shelter,Low-Income & Subsidized Rental Housing,L21,3128856,467808,467808,33.833438873291,-84.3336334228516
030494708,Catherine Booth Friendship House Residence Inc,1424 Northeast Expy Ne,Atlanta,GA,30329-2018,Housing Shelter,Senior Citizens‰Ûª Housing & Retirement Communities,L22,7414935,666320,666320,33.833438873291,-84.3336334228516
201005900,Atlanta Kashruth Commission-Vaad Hakashrus Inc,1855 Lavista Rd Ne,Atlanta,GA,30329-3819,Religious,Judaism,X30,,,,33.8164024353027,-84.3255157470703
141857177,Restoration By Faith Ministries Inc,3837 Mays Ct Sw,Atlanta,GA,30331-2050,Religious,Christianity,X20,,,,33.7322311401367,-84.5125579833984
113694658,Joseph E Boone Memorial Foundation Inc,2165 Wallace Rd Sw,Atlanta,GA,30331-7758,Human Services,Blind & Visually Impaired Centers,P86,0,0,0,33.6967239379883,-84.5671081542969
201512172,Campbellton Road West Corridor Community Development Corporation,3581 Revere Rd Sw,Atlanta,GA,30331-2340,Community Capacity Bldg,Economic Development,S30,0,0,0,33.7069435119629,-84.5042190551758
200383691,Local 225 Building Association Inc,3500 Atlanta Industrial Dr Nw,Atlanta,GA,30331-1032,Community Capacity Bldg,Real Estate Associations,S47,739948,119208,-61702,33.7964477539062,-84.4957656860352
061690352,Congregation Or Hadash Inc,7460 Trowbridge Rd,Sandy Spgs,GA,30328-1052,Religious,Judaism,X30,,,,33.9599533081055,-84.3618469238281
200720994,Imani Foundation Inc,3201 Atlanta Industrial Pkwy Nw Bld,Atlanta,GA,30331-1045,Community Capacity Bldg,Nonprofit Management,S50,64299,907461,907461,33.7908630371094,-84.4967575073242
050608342,Living Waters Center Inc,3520 Sherbrooke Way Sw,Atlanta,GA,30331-5408,Human Services,Emergency Assistance,P60,0,0,0,33.6725082397461,-84.5042114257812
010913253,Childrens Alternative Resource Enrichment Inc,1212 Utoy Springs Rd Sw Apt 11,Atlanta,GA,30331-2122,Human Services,Family Services,P40,,,,33.7217063903809,-84.5072784423828
043630358,All Nations United Gospel,751 Fairburn Rd Sw Apt 5221,Atlanta,GA,30331-8559,Religious,Protestant,X21,,,,33.7346572875977,-84.5105514526367
141989286,Essence Of Hope Inc,616 Interchange Dr Sw,Atlanta,GA,30336-1604,Housing Shelter,Temporary Housing,L40,24789,363251,363251,33.7700691223145,-84.523567199707
200768702,Saint Peter Ministries Inc,2893 Karen Rd,College Park,GA,30337-4409,Religious,Christianity,X20,,,,33.6436958312988,-84.4842147827148
201855245,Leadership Ministries Foundation Inc,5901-C Peachtree Dunwoody Rd Ste 50,Atlanta,GA,30328-5372,Religious,Religion-Related NEC,X99,452592,111718,68329,33.9162101745605,-84.3511505126953
020627715,Juniper Tree Ministries,2863 Fairburn Pl Sw,Atlanta,GA,30331-6006,Religious,Protestant,X21,,,,33.6739196777344,-84.5179901123047
200393942,Anointed Church Of The Living God Incorporated,1889 Lyle Ave,College Park,GA,30337-1219,Religious,Protestant,X21,,,,33.6662139892578,-84.4505386352539
200761116,New-Hud Inc,1858 Independence Sq Ste A,Dunwoody,GA,30338-5169,Housing Shelter,Low-Income & Subsidized Rental Housing,L21,113193,195416,195416,33.9306755065918,-84.3127593994141
201790140,Marvin P And Sondra D Nodvin Foundation Inc,1040 Crown Pointe Pkwy Ste 400,Atlanta,GA,30338-4777,Philanthropy,Private Grantmaking Foundations,T20,1,1,,33.9306335449219,-84.3459930419922
201278525,Eureka Foundation Inc,3350 Riverwood Pkwy Se Ste 1600,Atlanta,GA,30339-3359,Philanthropy,Private Grantmaking Foundations,T20,644548,443013,,33.8783798217773,-84.4589233398438
043840429,The Arc Lighthouse Inc,1830 Waters Place Se,Atlanta,GA,30339-7407,Housing Shelter,Low-Income & Subsidized Rental Housing,L21,0,0,0,33.9078063964844,-84.4845123291016
010863576,Janice Barnett Ministries,3695 Cascade Rd,Atlanta,GA,30331-2173,Human Services,Human Services NEC,P99,666442,140000,140000,33.7237663269043,-84.5098114013672
201271986,Dunwoody Christian Academy Inc,5067 Chamblee Dunwoody Rd,Dunwoody,GA,30338-5609,Religious,Christianity,X20,,,,33.9371490478516,-84.3254470825195
200767356,The William Harrison Merrill Family Foundation Inc,4355 Cobb Parkway,Atlanta,GA,30339-4657,Philanthropy,Private Grantmaking Foundations,T20,1297,47094,,33.8721923828125,-84.4564514160156
112133344,Societe International De Telecommunications & Aeronautiques,3100 Cumberland Blvd Se Ste 200,Atlanta,GA,30339-5933,Public Social Benefit,Telecommunications,W50,423131186,532710614,532710614,33.8779258728027,-84.4645767211914
141916434,Louise Place House Inc,1830 Waters Place Se,Atlanta,GA,30339-7407,Human Services,Centers to Support the Independence of Specific Populations,P80,0,0,0,33.9078063964844,-84.4845123291016
200379980,Apostle World Mission Church Inc,3042 Oakcliff Rd Ste 211,Doraville,GA,30340-2643,Religious,Christianity,X20,,,,33.9112854003906,-84.2633056640625
030410200,Vietnamese Buddhist Association Of Central Georgia Inc,3064 Oakcliff Rd,Doraville,GA,30340-2639,Religious,Buddhism,X50,464785,57718,57718,33.911060333252,-84.2625961303711
020745729,Chariot Of Fire Outreach Church Inc,3772 Pleasandale Road,Atlanta,GA,30340-5676,Religious,Christianity,X20,0,0,0,33.8949432373047,-84.2377777099609
010725357,Second Level Inc,2841 Greystone Ln,Chamblee,GA,30341-5862,Religious,Protestant,X21,0,0,0,33.8711929321289,-84.2478866577148
061779877,Balama Development Alliance Inc,4990 Vallo Vista Ct,Atlanta,GA,30342-2324,Human Services,Human Services,P20,47350,174176,174176,33.8911209106445,-84.3728179931641
201610643,Us Pan Asian Chamber Of Commerce Southeast Region Chapter Inc,1827 Powers Ferry Road Bldg 12 Suit,Atlanta,GA,30339-5621,Community Capacity Bldg,Chambers of Commerce & Business Leagues,S41,0,0,0,33.9086303710938,-84.464973449707
030500993,Baby Peaches Inc,2451 Cumberland Pkwy Suite 3750,Atlanta,GA,30339-6136,Human Services,Single Parent Agencies,P42,0,0,0,33.8633422851562,-84.4770812988281
010733810,Georgia Real Estate Fraud Prevention And Awareness Coalition,3471 Chamblee Dunwoody Way,Atlanta,GA,30341-2445,Public Social Benefit,Consumer Protection,W90,0,0,0,33.8924407958984,-84.3018646240234
200162177,Research Chefs Foundation Inc,1100 Johnson Ferry Rd Ste 300,Atlanta,GA,30342-1733,Philanthropy,Support NEC,T19,76858,20015,20015,33.9072380065918,-84.3525848388672
134244290,Mckenney Family Foundation Inc,5026 Greenpine Dr Ne,Sandy Springs,GA,30342-2402,Philanthropy,Private Independent Foundations,T22,287381,122574,,33.892017364502,-84.359992980957
020621506,Professional Womens Information Network Inc,860 Johnson Ferry Rd Suite 140-116,Atlanta,GA,30342-1435,Community Capacity Bldg,Chambers of Commerce & Business Leagues,S41,0,0,0,33.9070243835449,-84.3587799072266
201720098,Better Living,2671 Westchester Dr,East Point,GA,30344-2057,Human Services,Human Services NEC,P99,0,0,0,33.6818656921387,-84.4680709838867
200448713,Unlimited Door Foundation,3012 Golden Dr,East Point,GA,30344-3930,Human Services,Human Services,P20,1,98230,98230,33.6733932495117,-84.4871673583984
113705815,Golgothas Ministries For The Homeless,2564 Riggs Dr,East Point,GA,30344-2263,Housing Shelter,Housing & Shelter NEC,L99,0,0,0,33.6854057312012,-84.4662857055664
020590137,Wilson Anthony Incorporated,2882 S Clark Dr,East Point,GA,30344-6869,Civil Rights,Intergroup & Race Relations,R30,0,0,0,33.6768798828125,-84.4561386108398
030469389,United Cerebral Palsy Of Georgia Foundation Inc,3300 Northeast Expressway Bldg 9,Atlanta,GA,30341-3932,Human Services,Urban League,P22,9345,4704,4704,33.873664855957,-84.2775039672852
050523733,Berts Big Adventure Inc,739 Windsor Pkwy,Atlanta,GA,30342-2803,Human Services,Children & Youth Services,P30,444933,744537,613725,33.8849792480469,-84.3628311157227
201295875,Tolleson Family Foundation Inc,1890 Castleway Ln Ne,Atlanta,GA,30345-4016,Philanthropy,Private Grantmaking Foundations,T20,2141775,494151,,33.8385963439941,-84.2788619995117
201130878,Atlanta Zarathushti Association Inc,2846 Greenbrook Way Ne,Atlanta,GA,30345-3604,Religious,Religion-Related NEC,X99,0,0,0,33.8471527099609,-84.2718963623047
201714750,C Robert Chambliss Foundation Inc,2679 Cravey Dr Ne,Atlanta,GA,30345-1456,Philanthropy,Public Foundations,T30,0,0,0,33.8637504577637,-84.2712707519531
200555747,Collaborative Law Institute Of Georgia Inc,4279 Roswell Rd Box 327,Atlanta,GA,30342-3769,Community Capacity Bldg,Chambers of Commerce & Business Leagues,S41,819,6107,6107,33.8715476989746,-84.3809967041016
020724029,Pathway Christian Ministries Inc,6285 Emerald Pointe Cir,Atlanta,GA,30349-4894,Human Services,Developmentally Disabled Centers,P82,172207,272125,272125,33.5842704772949,-84.4801559448242
020646402,Storms Of Life Foundation Inc,1 Ravinia Dr Ste 1500,Atlanta,GA,30346-2115,Human Services,Emergency Assistance,P60,541428,165575,165575,33.9220542907715,-84.3379287719727
010919294,Triumph In Life Inc,5467 Jerome Rd,Atlanta,GA,30349-3139,Human Services,Human Services,P20,9680,45074,45074,33.6075744628906,-84.4847259521484
043759806,Fda-Bridging The Gap Inc,5373 Riverdale Rd,Atlanta,GA,30349-5709,Food,Food Programs,K30,0,0,0,33.6088752746582,-84.4361572265625
043660356,National Coalition Of 100 Black Women Mecca Chapter Inc,326 Carlingford Ct Sw,Atlanta,GA,30349-1296,Human Services,Human Services,P20,21249,46332,12012,33.6625328063965,-84.5650405883789
113805930,Robert Wilson Iii,3975 Casa Verde Dr,College Park,GA,30349-1832,Human Services,Human Services,P20,0,0,0,33.6453475952148,-84.5310897827148
043660236,Trairatanaram Temple Inc,5530 Riverdale Rd,Atlanta,GA,30349-8006,Religious,Judaism,X30,,,,33.6038513183594,-84.433464050293
200249641,Lifeshape Inc,5200 Buffington Rd,Atlanta,GA,30349-2945,Religious,Fund Raising & Fund Distribution,X12,8626524,8236766,8236766,33.6142120361328,-84.5002670288086
043684341,Jefferson County Unification Organization Of Metro Atlanta Inc,4205 Melanie Ln,College Park,GA,30349-2846,Human Services,Human Services,P20,0,0,0,33.5973434448242,-84.5251159667969
061800004,The Big Dreams Foundation Inc,7935 Saddle Ridge Dr,Atlanta,GA,30350-4449,Human Services,Children & Youth Services,P30,0,0,0,33.971736907959,-84.3206024169922
113729434,Christian Word Outreach Center,1048 Flat Shoals Rd Apt 301,Atlanta,GA,30349-7336,Religious,Christianity,X20,,,,33.6043167114258,-84.4233627319336
200753272,Angelheart Charities,302 Perimeter Ctr N Apt 2446,Atlanta,GA,30346-3405,Housing Shelter,Homeless Shelters,L41,0,0,0,33.9289932250977,-84.3364181518555
020644630,Haven Health Charitable Foundation Inc,1235 Hightower Trl Ste 200,Atlanta,GA,30350-2975,Human Services,Human Services NEC,P99,513736,320424,,33.9869651794434,-84.3460540771484
030604035,Sandy Springs Womans Club Inc,8828 Long Beach Cir,Sandy Spgs,GA,30350-2208,Philanthropy,Philanthropy,T50,0,0,0,33.9957084655762,-84.3356018066406
200499527,David H Couchman And Melanie J Noble-Couchman Foundation Inc,8890 Huntcliff Trce,Atlanta,GA,30350-1726,Philanthropy,Private Independent Foundations,T22,1887342,2155189,,33.9964637756348,-84.3576126098633
112840350,Al Maad Al Islami Inc,2674 Woodwin Rd,Doraville,GA,30360-3192,Religious,Islam,X40,,,,33.9187927246094,-84.278205871582
020745078,American Case Management Association Georgia Chapter,1201 Peachtree St Ne,Atlanta,GA,30361-3503,Human Services,Fund Raising & Fund Distribution,P12,22448,9672,9672,33.7872123718262,-84.3833160400391
161622195,Caring For Others Inc,3537 Browns Mill Rd,Atlanta,GA,30354-2701,Human Services,Human Services,P20,3390588,5806805,5806805,33.6601791381836,-84.3853912353516
201335156,New Pathway Ministries Inc,7095 Chappell Cir,Atlanta,GA,30360-2403,Religious,Single Organization Support,X11,435,2220,2220,33.935546875,-84.2617263793945
113669496,Georgia Meditation Center Inc,4522 Tilly Mill Rd,Atlanta,GA,30360-2002,Religious,Buddhism,X50,3520807,304658,304658,33.9276962280273,-84.2835083007812
200268018,Iglesia De Dios Ministerial De Jesucristo International Inc,6765 Peachtree Industrial Blvd,Atlanta,GA,30360-2224,Religious,Christianity,X20,,,,33.9291458129883,-84.2682723999023
020779095,Dominion Mandate Ministries Inc,1397 Washington Rd,East Point,GA,30344-3550,Religious,Christianity,X20,194819,477245,477245,33.6758193969727,-84.4346237182617
043414483,Asian New Life Ministries Inc,3483 Sag Harbor Ct,Buford,GA,30519-8610,Religious,Protestant,X21,0,0,0,34.0894088745117,-83.9415740966797
200517090,Moore Foundation Trust,4470 Commerce Dr Ste B,Buford,GA,30518-7510,Philanthropy,Private Grantmaking Foundations,T20,175000,1,,34.1000137329102,-84.0144271850586
201552351,Ministry In Action,3495 Stackhouse Pl,Buford,GA,30519-4703,Religious,Protestant,X21,0,0,0,34.1059150695801,-83.9430236816406
010759859,Calvary Chapel Mcdonough,2980 Phillips Bend Xing,Buford,GA,30519-6768,Religious,Christianity,X20,,,,34.081729888916,-83.937126159668
201485430,Physicians For Humanity,2638 Hidden Falls Dr,Buford,GA,30519-4535,Human Services,Human Services,P20,0,0,0,34.0868606567383,-83.961296081543
201565775,Galeo Latino Community Development Fund Inc,1100 Peachtree St,Atlanta,GA,30359-0000,Community Capacity Bldg,Community & Neighborhood Development,S20,18500,152978,152978,33.7845191955566,-84.3830108642578
036073689,Enterline Foundation,2699 Buford Hwy,Buford,GA,30518-6051,Philanthropy,Private Independent Foundations,T22,618272,466081,,34.1279487609863,-83.9816055297852
202017121,Mckinney Geib Foundation Inc,3758 Kasey Ln,Buford,GA,30519-7857,Philanthropy,Private Independent Foundations,T22,3795421,1083396,,34.0901985168457,-83.9801177978516
204471095,American Leadership Institute Andseminary Inc,2192 Millgate Ln,Buford,GA,30519-7628,Religious,Professional Societies & Associations,X03,0,0,0,34.075366973877,-83.9716110229492
205157187,Tashi Choeling Inc,1506 Railroad Ave,Sugar Hill,GA,30518-3431,Religious,Buddhism,X50,,,,34.1076431274414,-84.0250778198242
205399046,Mike Fowler Ministries Inc,710 Power Ave,Buford,GA,30518-3259,Religious,Christianity,X20,0,0,0,34.117431640625,-83.9929962158203
202055555,Hughes Family Foundation Inc,5243 Legends Dr,Braselton,GA,30517-4017,Philanthropy,Private Grantmaking Foundations,T20,634833,182286,,34.0935287475586,-83.8468856811523
203861451,Boyne Foundation,6438 Old Shadburn Ferry Rd,Buford,GA,30518-1136,Philanthropy,Private Grantmaking Foundations,T20,2710027,1835102,,34.1564712524414,-84.0370864868164
203721561,Tree Of Life Mission Church,1579 Buford Dam Rd,Buford,GA,30518-2007,Religious,Christianity,X20,,,,34.1489181518555,-84.0467529296875
205109711,Georgia Housing Consultants Inc,3333 Myrtle St,Hapeville,GA,30354-1419,Housing Shelter,Housing Search Assistance,L30,0,0,0,33.6632118225098,-84.4125289916992
211360989,The Vineyards Association Inc,470 Tavern Cir,Atlanta,GA,30350-4455,Housing Shelter,Homeowners & Tenants Associations,L50,0,0,0,33.9682464599609,-84.3218841552734
223942310,Family Circle Communities Inc,685 Bittersweet Trl,Atlanta,GA,30350-4704,Housing Shelter,Housing Development,L20,0,0,0,33.9697418212891,-84.297233581543
202070261,Carter Brothers Charities Inc,100 Hartsfield Center Pkwy Ste 140,Atlanta,GA,30354-1390,Philanthropy,Private Grantmaking Foundations,T20,10536,102501,102501,33.6548957824707,-84.4276580810547
205539504,Tony Young Personal Wellnesscorporation,4090 Casa Verde Dr,Atlanta,GA,30349-1835,Community Capacity Bldg,Community & Neighborhood Development,S20,0,0,0,33.6431541442871,-84.5313720703125
205232050,Sandy Springs Hospitality Board Inc,7840 Roswell Rd Bldg 500,Sandy Spgs,GA,30350-4891,Community Capacity Bldg,Economic Development,S30,569420,1242759,1242759,33.9702949523926,-84.3597183227539
202015587,Vogel Family Foundation Inc,2410 Spalding Dr,Atlanta,GA,30350-3617,Philanthropy,Private Independent Foundations,T22,3428113,478248,,33.9830207824707,-84.3127059936523
237061801,The Learning Disabilities Association Of Georgia,2566 Shallowford Rd Ne 104 Pmb 353,Atlanta,GA,30345-1200,Human Services,Developmentally Disabled Centers,P82,10625,5960,5960,33.8621139526367,-84.2869262695312
202361975,Open Dekalb,2679 Mercedes Dr Ne,Atlanta,GA,30345-3974,Public Social Benefit,Government & Public Administration,W20,21745,0,0,33.8394775390625,-84.2794418334961
208124973,Place Of Joy Ministries Inc,5330 Old National Hwy Ste A,College Park,GA,30349-3353,Religious,Christianity,X20,0,0,0,33.6102867126465,-84.4713439941406
203592127,Encouragement Unlimited Inc,1907 Mercedes Ct Ne,Atlanta,GA,30345-3939,Human Services,Human Services NEC,P99,160585,4313,,33.8394241333008,-84.2853240966797
204700478,Gentry And Jessie Rousseaueducational Foundation,2907 Blossom Ln,East Point,GA,30344-5303,Philanthropy,Private Grantmaking Foundations,T20,36245,30882,,33.6689071655273,-84.4835739135742
203900429,Flight Buddies Foundation Inc,3645 Marketplace Blvd Ste 130,East Point,GA,30344-5748,Human Services,Human Services,P20,0,0,0,33.6583061218262,-84.5023345947266
204016303,Boys Speak Out Incorporated,3645 Marketplace Blvd Ste 130-321,East Point,GA,30344-5747,Human Services,Human Services,P20,0,0,0,33.6583061218262,-84.5023345947266
202064397,Vision Of Life Foundation,3645 Marketplace Blvd,East Point,GA,30344-5747,Human Services,Personal Social Services,P50,0,0,0,33.6583061218262,-84.5023345947266
205977172,The Allison And Pete Davis Family Foundation Inc,869 Haven Oaks Ct Ne,Atlanta,GA,30342-4348,Philanthropy,Private Grantmaking Foundations,T20,109864,4975,,33.8575706481934,-84.3588943481445
208198140,Drake Davis Foundation Inc,735 Brookwoods Trce,Atlanta,GA,30342-2473,Philanthropy,Private Independent Foundations,T22,0,0,0,33.8946151733398,-84.3563613891602
203650410,Richard And Susan Dugas Familyfoundation,8 Conifer Park Ln Ne,Atlanta,GA,30342-4302,Philanthropy,Private Grantmaking Foundations,T20,1842879,1053456,,33.8559379577637,-84.3638153076172
202421492,Friends Of Chastain Park Inc,4279 Roswell Rd Pmb 102-118,Atlanta,GA,30342-3769,Philanthropy,Private Grantmaking Foundations,T20,12803,16870,,33.8715476989746,-84.3809967041016
205558399,Murphy Candler Homeowners Association,3981 Bonnington Ct,Atlanta,GA,30341-1420,Community Capacity Bldg,Community & Neighborhood Development,S20,0,0,0,33.9104156494141,-84.3186340332031
203639571,Childrens Bread Ministries,1000 Montage Way Apt 3403,Atlanta,GA,30341-6082,Religious,Protestant,X21,,,,33.8822059631348,-84.2466278076172
202504107,American Kidney Services Inc,6360 Button Gwinnett Dr,Doraville,GA,30340-1521,Philanthropy,Single Organization Support,T11,60848,2206977,764725,33.9187545776367,-84.2411041259766
202087194,Groves Charitable Real Estate Corp,3836 Dekalb Technology Pkwy,Atlanta,GA,30340-3604,Community Capacity Bldg,Real Estate Associations,S47,83319,10396,10396,33.885196685791,-84.2683029174805
203030039,Metro Atlanta Iglesia De Dios Inc,3878 Chamblee Dunwoody Rd,Chamblee,GA,30341-1751,Religious,Christianity,X20,,,,33.9042129516602,-84.3101119995117
205351694,Atlanta Pu Xian Buddhistassociation Inc,3140 Shallowford Rd Ne,Atlanta,GA,30341-3631,Religious,Buddhism,X50,66642,68840,68840,33.8791847229004,-84.2871856689453
201885914,Kuolin Foundation Inc,2000 Clearview Ave Ste 110,Atlanta,GA,30340-2137,Philanthropy,Private Grantmaking Foundations,T20,73165,0,,33.9013290405273,-84.2740936279297
203514245,Itm Events Inc,3836 Dekalb Technology Pkwy,Atlanta,GA,30340-3604,Religious,Christianity,X20,13420,0,0,33.885196685791,-84.2683029174805
208171140,Haven Homes Inc,5456 Peachtree Industrial Blvd 178,Atlanta,GA,30341-2235,Human Services,Human Services NEC,P99,1,116300,116300,33.898193359375,-84.3021087646484
205847556,Eighteenth House Inc,1830 Waters Place Se,Atlanta,GA,30339-7407,Human Services,Group Homes,P73,0,0,0,33.9078063964844,-84.4845123291016
203363431,Livable Communites Coalition Inc,300 Galleria Parkway,Atlanta,GA,30339-3153,Community Capacity Bldg,Community Coalitions,S21,22124,383051,383051,33.8857879638672,-84.4628143310547
204512309,Church Of Saeng Myung Soo Inc,5953 Buford Hwy Ne Ste 204,Doraville,GA,30340-1375,Religious,Christianity,X20,,,,33.9132041931152,-84.2627487182617
205419031,Senior Citizens Program Inc,4059 Keswick Dr Se,Atlanta,GA,30339-4427,Housing Shelter,Senior Citizens‰Ûª Housing & Retirement Communities,L22,0,0,0,33.8534698486328,-84.4651489257812
203420947,Gpc Employee Relief Fund Inc,2999 Circle 75 Pky,Atlanta,GA,30339-3050,Philanthropy,Public Foundations,T30,477327,126605,126605,33.8961524963379,-84.4699478149414
205840700,Michael S Huff House Inc,1830 Waters Place Se,Atlanta,GA,30339-7407,Housing Shelter,Low-Income & Subsidized Rental Housing,L21,0,0,0,33.9078063964844,-84.4845123291016
203819746,Bluelinx Employee Assisatancecharitable Fund Inc,4300 Wildwood Pkwy,Atlanta,GA,30339-8440,Human Services,Human Services,P20,0,0,0,33.9146881103516,-84.4580230712891
202110682,Richard And Barbara Gaby Foundation,400 Galleria Pkwy Se Ste 1050,Atlanta,GA,30339-5934,Philanthropy,Private Independent Foundations,T22,78341947,13447602,,33.8861541748047,-84.4614334106445
208690051,Kingdom Advisors Inc,280 Interstate North Circle Se Ste,Atlanta,GA,30339-2450,Religious,Religious Media & Communications,X80,1378849,2654077,2627848,33.8969802856445,-84.4618606567383
203866094,Farh-West Affordable Housing Inc,3330 Cumberland Blvd Se Ste 900,Atlanta,GA,30339-5998,Housing Shelter,Housing Development,L20,8524695,2212337,2212337,33.875862121582,-84.4593200683594
203866280,Farh Newell Crest Affordable Housing Inc,3330 Cumberland Blvd Se Ste 900,Atlanta,GA,30339-5998,Housing Shelter,Housing Development,L20,0,0,0,33.875862121582,-84.4593200683594
203866388,Farh Deerfield Affordable Housing Inc,3330 Cumberland Blvd Se Ste 900,Atlanta,GA,30339-5998,Housing Shelter,Housing Development,L20,0,0,0,33.875862121582,-84.4593200683594
203865882,Farh-South Affordable Housing Inc,3330 Cumberland Blvd Se Ste 900,Atlanta,GA,30339-5998,Housing Shelter,Housing Development,L20,8145690,3239105,3239105,33.875862121582,-84.4593200683594
203866217,Farh-Brookstone Affordable Housinginc,3330 Cumberland Blvd Se Ste 900,Atlanta,GA,30339-5998,Housing Shelter,Housing Development,L20,0,0,0,33.875862121582,-84.4593200683594
203866453,Farh-Postbrook Affordable Housinginc,3330 Cumberland Blvd Se Ste 900,Atlanta,GA,30339-5998,Housing Shelter,Housing Development,L20,0,0,0,33.875862121582,-84.4593200683594
205703801,Freedom Center Inc,1827 Powers Ferry Road Se,Atlanta,GA,30339-5621,Religious,Protestant,X21,,,,33.9086303710938,-84.464973449707
204502181,Believe Foundation Inc,4355 Cobb Pkwy J543,Atlanta,GA,30339-4657,Philanthropy,Public Foundations,T30,0,0,0,33.8721923828125,-84.4564514160156
208188786,National Abstinence Educationfoundation Inc,2625 Cumberland Pkwy Se Ste 200,Atlanta,GA,30339-3911,Human Services,Human Services,P20,52220,191827,191827,33.8696594238281,-84.4753723144531
202885095,John A White Family Foundation Inc,400 Galleria Parkway,Atlanta,GA,30339-5980,Philanthropy,Private Independent Foundations,T22,4549,1,,33.8861541748047,-84.4614334106445
208188741,National Abstinence Educationassociation Inc,2625 Cumberland Parkway,Atlanta,GA,30339-3943,Community Capacity Bldg,Community & Neighborhood Development,S20,39464,134831,134831,33.8696594238281,-84.4753723144531
208063764,Miracle Makers Foundation Inc,1273 Manor Oaks Ct,Dunwoody,GA,30338-2756,Philanthropy,Private Grantmaking Foundations,T20,3954086,1202548,,33.9690246582031,-84.3367309570312
206139252,Hindman Fam Charitable Tr,5433 Redfield Rd,Dunwoody,GA,30338-3754,Philanthropy,Private Independent Foundations,T22,469267,44506,,33.9592132568359,-84.3430480957031
202563055,Foundation For Affordable Rental Housing Holdings Inc,3330 Cumberland Blvd Se Ste 900,Atlanta,GA,30339-5998,Housing Shelter,Housing Development,L20,60433964,11568904,11568904,33.875862121582,-84.4593200683594
202563022,Farh Greenbriar Affordable Housing Inc,3330 Cumberland Blvd Se Ste 900,Atlanta,GA,30339-5998,Housing Shelter,Housing Development,L20,0,0,0,33.875862121582,-84.4593200683594
202562976,Farh-Fox Lake Affordable Housing Inc,3330 Cumberland Blvd Se Ste 900,Atlanta,GA,30339-5998,Housing Shelter,Low-Income & Subsidized Rental Housing,L21,22183823,5837835,5837835,33.875862121582,-84.4593200683594
208426476,New Life Christian Bible Church Inc,264 Wilson Mill Rd Sw,Atlanta,GA,30331-4122,Religious,Christianity,X20,,,,33.755558013916,-84.5142974853516
223856492,Uplifting The Community Inc,130 Wynfield Way Sw,Atlanta,GA,30331-6837,Human Services,Human Services,P20,26975,0,0,33.7072410583496,-84.5370712280273
204888567,St Thomas More Society Inc,1117 Perimeter Ctr Ste W400,Atlanta,GA,30338-5444,Religious,Christianity,X20,0,0,0,33.9303245544434,-84.3493194580078
208060747,Jf&Cs Foundation Inc,4549 Chamblee Dunwoody Rd,Atlanta,GA,30338-6210,Human Services,Single Organization Support,P11,4536832,5393187,650203,33.9242248535156,-84.3148422241211
205132736,Holy Ghost Temple Church Of God Inchrist,3810 Kenner Dr Sw,Atlanta,GA,30331-3738,Religious,Protestant,X21,,,,33.7551727294922,-84.5059280395508
202157051,Wesley Woods Senior Living Inc,1817 Clifton Rd Ne,Atlanta,GA,30329-4021,Housing Shelter,Senior Citizens‰Ûª Housing & Retirement Communities,L22,412219,486702,486702,33.8028182983398,-84.3329162597656
223975031,Silent Partners,2900 Camp Creek Pkwy N 9,College Park,GA,30337-3000,Philanthropy,Public Foundations,T30,1,0,0,33.6519050598145,-84.4840316772461
205308782,People United For Change Inc,3642 Campbellton Rd Sw,Atlanta,GA,30331-5200,Human Services,Centers to Support the Independence of Specific Populations,P80,0,0,0,33.6899871826172,-84.5077438354492
203684269,Anderson Press And C R Gibson Associate Emergency Assistance Pl,3101 Clairmont Rd Ne Ste C,Brookhaven,GA,30329-1044,Human Services,Emergency Assistance,P60,87736,8995,8995,33.8485946655273,-84.3154754638672
237052934,Villa International Atlanta Inc,1749 Clifton Rd Ne,Atlanta,GA,30329-4019,Religious,Christianity,X20,2017909,590886,604683,33.8012046813965,-84.3306503295898
202846636,St Mark African Methodist Episcopal Church Of Atlanta Inc,3605 Campbellton Rd Sw,Atlanta,GA,30331-5219,Religious,Christianity,X20,,,,33.6900901794434,-84.5068740844727
203891681,Evangeline Booth Friendship House Residence,1424 Northeast Expy Ne,Atlanta,GA,30329-2018,Housing Shelter,Senior Citizens‰Ûª Housing & Retirement Communities,L22,7414935,666320,666320,33.833438873291,-84.3336334228516
208280567,Yad L Yad Charity Fund Inc,2897 N Druid Hills Rd Ne,Atlanta,GA,30329-3924,Philanthropy,Public Foundations,T30,62025,173648,173648,33.8162841796875,-84.3109130859375
204006001,Ussaki Foundation Inc,24 River Park Dr,Atlanta,GA,30328-1121,Religious,Islam,X40,0,0,0,33.9506950378418,-84.3869323730469
206386044,The Kolb Family Foundation,6 Concourse Pkwy Ste 600,Atlanta,GA,30328-5351,Philanthropy,Private Grantmaking Foundations,T20,422771,398789,,33.9174575805664,-84.3557205200195
204991061,Gsma Ltd,1000 Abernathy Road,Atlanta,GA,30328-5606,Community Capacity Bldg,Chambers of Commerce & Business Leagues,S41,189504650,164095769,164044670,33.9335327148438,-84.3549652099609
205862864,Cs Foundation Inc,5871 Glenridge Dr Ne Ste 375,Atlanta,GA,30328-5343,Philanthropy,Private Grantmaking Foundations,T20,648908,28623,,33.915210723877,-84.3622970581055
203635492,Wooshin Foundation Inc,6300 Riverside Dr,Sandy Spgs,GA,30328-3647,Philanthropy,Private Grantmaking Foundations,T20,680339,445213,,33.9272041320801,-84.4111785888672
201950849,Rally Foundation Inc,5775 Glenridge Drive Building B Sui,Sandy Springs,GA,30328-5380,Philanthropy,Philanthropy,T99,1172972,2421859,1994907,33.9124145507812,-84.3617782592773
205862925,Pearce Family Foundation Inc,750 Hammond Dr Bldg 1,Atlanta,GA,30328-5532,Philanthropy,Private Grantmaking Foundations,T20,647988,102753,,33.919017791748,-84.3622894287109
223267135,Christine Oreilly Childrens Foundation Inc,5964 Reddington Way,Atlanta,GA,30328-6224,Philanthropy,Fund Raising & Fund Distribution,T12,0,0,0,33.918384552002,-84.3844375610352
204677448,Bobby Hogg Foundation Inc,2000 Riveredge Pkwy Ste 640,Atlanta,GA,30328-4618,Philanthropy,Private Grantmaking Foundations,T20,7717,1,,33.9064521789551,-84.4391555786133
204873372,Jewish Home Foundation Inc,3150 Howell Mill Rd Nw,Atlanta,GA,30327-2108,Philanthropy,Public Foundations,T30,10574801,589274,589274,33.8405456542969,-84.4271850585938
208609718,Gordon Association Of Realtors Inc,5784 Lake Forrest Drive,Atlanta,GA,30328-6203,Community Capacity Bldg,Real Estate Associations,S47,20043,39133,39133,33.9131546020508,-84.3871307373047
205529710,Klaus Family Foundation,1330 Monte Carlo Dr Nw,Atlanta,GA,30327-3803,Philanthropy,Private Grantmaking Foundations,T20,10948052,1793555,,33.8734703063965,-84.4281234741211
208670440,Helping Hands Charitable Foundationinc,200 Sandy Springs Place,Atlanta,GA,30328-3854,Human Services,Centers to Support the Independence of Specific Populations,P80,34328,57000,57000,33.9216041564941,-84.3810424804688
205102924,Noyes Foundation Inc,6111 Peachtree Dunwoody Rd Ste E102,Atlanta,GA,30328-4577,Philanthropy,Private Independent Foundations,T22,208126,108422,,33.9209289550781,-84.3513107299805
203401306,Cox Employee Relief Fund Inc,6205 Peachtree Dunwoody Rd Ne,Atlanta,GA,30328-4524,Human Services,Emergency Assistance,P60,18043349,8342178,1544227,33.9244575500488,-84.3512878417969
206722483,The Adams Family Fund,2560 W Wesley Rd Nw,Atlanta,GA,30327-2034,Philanthropy,Private Independent Foundations,T22,330725,262852,,33.8424034118652,-84.4518432617188
206759456,Betty And Leon Goldstein Foundation,2888 Sequoyah Dr Nw,Atlanta,GA,30327-1806,Philanthropy,Private Independent Foundations,T22,651510,175335,,33.8346710205078,-84.4373092651367
206732631,The@Edith H And James E Bostic Jr Family Foundation,5455 New Wellington Close,Atlanta,GA,30327-4877,Philanthropy,Private Independent Foundations,T22,606728,269628,,33.9034194946289,-84.3996734619141
207201443,Boger-Owen Foundation,303 Townsend Pl Nw,Atlanta,GA,30327-3035,Philanthropy,Private Independent Foundations,T22,450155,212299,,33.8640480041504,-84.4511108398438
233064865,Nelson Family Foundation,9 Misty Ridge Mnr,Atlanta,GA,30327-4978,Philanthropy,Private Independent Foundations,T22,1371001,1257334,,33.8948211669922,-84.3904724121094
205508805,Noonan Foundation,3500 Riverly Rd Nw,Atlanta,GA,30327-2526,Philanthropy,Private Independent Foundations,T22,6319618,1749301,,33.8501777648926,-84.4536361694336
205613533,Orr Family Foundation Inc,3290 Northside Pkwy Nw Ste 400,Atlanta,GA,30327-2268,Philanthropy,Private Grantmaking Foundations,T20,410109,39017,,33.845329284668,-84.4266815185547
202455467,Carpinella Family Foundation Inc,4591 Stella Dr,Atlanta,GA,30327-3436,Philanthropy,Private Independent Foundations,T22,364736,212542,,33.8803939819336,-84.3941650390625
202025163,Celeste And Kurt Zuch Family Foundation Inc,1210 W Garmon Rd,Atlanta,GA,30327-4402,Philanthropy,Private Grantmaking Foundations,T20,570179,474843,,33.8806800842285,-84.4280014038086
206706016,Braithwaite Fam Foundation,4401 Northside Pkwy Nw Ste 750,Atlanta,GA,30327-5278,Philanthropy,Private Grantmaking Foundations,T20,23336,19,,33.8645095825195,-84.4502029418945
203045753,T Gordon Little Foundation Inc,3290 Northside Pkwy Nw Ste 950,Atlanta,GA,30327-2273,Philanthropy,Private Independent Foundations,T22,2080452,745878,,33.845329284668,-84.4266815185547
204821888,North American Electric Reliabilitycorporation,3353 Peachtree Rd Ne N Tower Ste 60,Atlanta,GA,30326-0000,Community Capacity Bldg,Chambers of Commerce & Business Leagues,S41,51177783,59023482,58702601,33.8480911254883,-84.3668975830078
203341363,Atlanta St Patricks Day Foundation Inc,1266 W Paces Ferry Rd Ste 615,Atlanta,GA,30327-2306,Philanthropy,Public Foundations,T30,534,148998,73085,33.849250793457,-84.4292449951172
208189985,Windham Brannon Foundation Inc,3630 Peachtree Rd Ne Ste 600,Atlanta,GA,30326-1550,Philanthropy,Private Grantmaking Foundations,T20,2772,7831,,33.8540153503418,-84.3582077026367
207369458,J Tucker Foundation,3399 Peachtree Rd Ne Ste 1200,Atlanta,GA,30326-2812,Philanthropy,Private Independent Foundations,T22,26220,30000,,33.8489723205566,-84.3644332885742
208083384,Nonami Foundation Inc,3445 Peachtree Rd Ne Ste 175,Atlanta,GA,30326-1234,Philanthropy,Private Independent Foundations,T22,6825394,1526065,,33.850772857666,-84.3616943359375
206978371,The Rondrick Williamson Foundation,415 Armour Dr Ne Apt 3103,Atlanta,GA,30324-3939,Philanthropy,Community Foundations,T31,383,2400,,33.812629699707,-84.3737869262695
203931240,Rfp Fund Inc,3475 Lenox Rd Ne Ste 970,Atlanta,GA,30326-3230,Philanthropy,Single Organization Support,T11,10029006,4120799,565916,33.8504638671875,-84.3618774414062
208322418,Twenty 20 Something,741 Morosgo Dr Unit B63,Atlanta,GA,30324-3510,Human Services,Human Services,P20,0,0,0,33.823112487793,-84.3637008666992
205199333,Jerry W Walker Colorectal Cancerfoundation,3600 Cantrell Rd Ne,Atlanta,GA,30319-1305,Philanthropy,Private Independent Foundations,T22,22047,6500,,33.8528633117676,-84.3526992797852
201865497,Mclain Family Foundation Inc,3560 Lenox Rd Ne Ste 2800,Atlanta,GA,30326-4276,Philanthropy,Private Grantmaking Foundations,T20,1300081,592571,,33.8523216247559,-84.3676223754883
203460301,Steed Society Inc,770 English Ave Nw,Atlanta,GA,30318-8400,Community Capacity Bldg,Community & Neighborhood Development,S20,0,0,0,33.7756881713867,-84.4134292602539
205788654,Holy Light Tabernacle Ofdeliverance And Praise,1783 Johnson Rd Nw Apt 3103,Atlanta,GA,30318-8905,Religious,Protestant,X21,,,,33.7853660583496,-84.4457931518555
202892874,Bethesda Christian Ministries Inc,2639 Morris St Nw,Atlanta,GA,30318-4542,Religious,Protestant,X21,0,0,0,33.7833251953125,-84.4750061035156
203750569,Johnnie B Moore Towers Ii Inc,2283 Baker Rd Nw,Atlanta,GA,30318-6220,Religious,Religion-Related NEC,X99,4621554,346893,346893,33.7700233459473,-84.4628372192383
