{
"type": "FeatureCollection",
"name": "atl_nonprofit",
"crs": { "type": "name", "properties": { "name": "urn:ogc:def:crs:OGC:1.3:CRS84" } },
"features": [
{ "type": "Feature", "properties": { "ein": "161617534", "name": "Clanin Family Foundation", "street": "14780 E Bluff Rd", "city": "Alpharetta", "state": "GA", "zip": "30004-6939", "category": "Philanthropy", "description": "Corporate Foundations", "ntee_code": "T21", "asset_amt": 25022, "income_amt": 3, "revenue_amt": null, "lat": 34.140769958496101, "long": -84.307800292968793 }, "geometry": { "type": "Point", "coordinates": [ -84.307800292968793, 34.140769958496101 ] } },
{ "type": "Feature", "properties": { "ein": "201498565", "name": "Cloud Walk Worldwide Inc", "street": "240 Ranchette Rd", "city": "Milton", "state": "GA", "zip": "30004-3754", "category": "Religious", "description": "Christianity", "ntee_code": "X20", "asset_amt": 136906, "income_amt": 399903, "revenue_amt": 365164, "lat": 34.101783752441399, "long": -84.367698669433594 }, "geometry": { "type": "Point", "coordinates": [ -84.367698669433594, 34.101783752441399 ] } },
{ "type": "Feature", "properties": { "ein": "200594280", "name": "Summit Equestrian Outreach Foundation", "street": "570 Sheringham Ln", "city": "Alpharetta", "state": "GA", "zip": "30005-2523", "category": "Philanthropy", "description": "Community Foundations", "ntee_code": "T31", "asset_amt": 459, "income_amt": 0, "revenue_amt": 0, "lat": 34.060047149658196, "long": -84.200981140136705 }, "geometry": { "type": "Point", "coordinates": [ -84.200981140136705, 34.060047149658196 ] } },
{ "type": "Feature", "properties": { "ein": "200783822", "name": "True Vine International Ministries Inc", "street": "1351 Windage Court Sw", "city": "Marietta", "state": "GA", "zip": "30008-0000", "category": "Religious", "description": "Protestant", "ntee_code": "X21", "asset_amt": null, "income_amt": null, "revenue_amt": null, "lat": 33.887733459472699, "long": -84.591156005859403 }, "geometry": { "type": "Point", "coordinates": [ -84.591156005859403, 33.887733459472699 ] } },
{ "type": "Feature", "properties": { "ein": "010922991", "name": "Crossroads Community Church", "street": "3445 King Arthur Dr Sw", "city": "Marietta", "state": "GA", "zip": "30008-7679", "category": "Religious", "description": "Protestant", "ntee_code": "X21", "asset_amt": null, "income_amt": null, "revenue_amt": null, "lat": 33.8702583312988, "long": -84.597587585449205 }, "geometry": { "type": "Point", "coordinates": [ -84.597587585449205, 33.8702583312988 ] } },
{ "type": "Feature", "properties": { "ein": "010663564", "name": "Abundant Life Community Church Inc", "street": "625 Sims Industrial Blvd Ste A", "city": "Alpharetta", "state": "GA", "zip": "30009-2095", "category": "Religious", "description": "Protestant", "ntee_code": "X21", "asset_amt": null, "income_amt": null, "revenue_amt": null, "lat": 34.060352325439503, "long": -84.306793212890597 }, "geometry": { "type": "Point", "coordinates": [ -84.306793212890597, 34.060352325439503 ] } },
{ "type": "Feature", "properties": { "ein": "010700751", "name": "Truth Fund I Inc", "street": "2500 Northwinds Pkwy Ste 275", "city": "Alpharetta", "state": "GA", "zip": "30009-2265", "category": "Philanthropy", "description": "Private Independent Foundations", "ntee_code": "T22", "asset_amt": 143094, "income_amt": 66643, "revenue_amt": null, "lat": 34.058917999267599, "long": -84.284683227539091 }, "geometry": { "type": "Point", "coordinates": [ -84.284683227539091, 34.058917999267599 ] } },
{ "type": "Feature", "properties": { "ein": "134268623", "name": "Exide Activities Committee", "street": "13000 Deerfield Parkway", "city": "Milton", "state": "GA", "zip": "30004-6119", "category": "Community Capacity Bldg", "description": "Community & Neighborhood Development", "ntee_code": "S20", "asset_amt": 0, "income_amt": 0, "revenue_amt": 0, "lat": 34.097522735595696, "long": -84.264640808105497 }, "geometry": { "type": "Point", "coordinates": [ -84.264640808105497, 34.097522735595696 ] } },
{ "type": "Feature", "properties": { "ein": "161764071", "name": "Womens Corner Inc", "street": "31 Wild Oat Ct", "city": "Grayson", "state": "GA", "zip": "30017-4178", "category": "Employment", "description": "Employment Preparation & Procurement", "ntee_code": "J20", "asset_amt": 0, "income_amt": 0, "revenue_amt": 0, "lat": 33.911685943603501, "long": -83.949745178222699 }, "geometry": { "type": "Point", "coordinates": [ -83.949745178222699, 33.911685943603501 ] } },
{ "type": "Feature", "properties": { "ein": "161660770", "name": "Big Faith Temple Holiness Church Inc", "street": "2785 Harbins Mill Dr", "city": "Dacula", "state": "GA", "zip": "30019-1992", "category": "Religious", "description": "Christianity", "ntee_code": "X20", "asset_amt": null, "income_amt": null, "revenue_amt": null, "lat": 33.954982757568395, "long": -83.865127563476591 }, "geometry": { "type": "Point", "coordinates": [ -83.865127563476591, 33.954982757568395 ] } },
{ "type": "Feature", "properties": { "ein": "201140796", "name": "Someone To Talk To Inc", "street": "35 Dacula Rd", "city": "Dacula", "state": "GA", "zip": "30019-2135", "category": "Human Services", "description": "Family Services", "ntee_code": "P40", "asset_amt": 1, "income_amt": 0, "revenue_amt": 0, "lat": 34.029891967773402, "long": -83.908966064453097 }, "geometry": { "type": "Point", "coordinates": [ -83.908966064453097, 34.029891967773402 ] } },
{ "type": "Feature", "properties": { "ein": "050554653", "name": "Jesus The Warrior King Ministries New & Restored Church Of Christ In", "street": "3550 Clarkston Industrial Blvd", "city": "Clarkston", "state": "GA", "zip": "30021-1333", "category": "Religious", "description": "Protestant", "ntee_code": "X21", "asset_amt": null, "income_amt": null, "revenue_amt": null, "lat": 33.8179740905762, "long": -84.244270324707003 }, "geometry": { "type": "Point", "coordinates": [ -84.244270324707003, 33.8179740905762 ] } },
{ "type": "Feature", "properties": { "ein": "043607300", "name": "Give God All The Glory Outreach Ministries", "street": "3221 Oakbrook Ln", "city": "Clarkston", "state": "GA", "zip": "30021-1004", "category": "Religious", "description": "Christianity", "ntee_code": "X20", "asset_amt": null, "income_amt": null, "revenue_amt": null, "lat": 33.8112602233887, "long": -84.256690979003906 }, "geometry": { "type": "Point", "coordinates": [ -84.256690979003906, 33.8112602233887 ] } },
{ "type": "Feature", "properties": { "ein": "200454348", "name": "Ryan Boslet Scholarship Fund", "street": "945 Tresillian Ct", "city": "Alpharetta", "state": "GA", "zip": "30022-8039", "category": "Philanthropy", "description": "Named Trusts NEC", "ntee_code": "T90", "asset_amt": 3471, "income_amt": 1004, "revenue_amt": null, "lat": 34.030246734619105, "long": -84.241203308105497 }, "geometry": { "type": "Point", "coordinates": [ -84.241203308105497, 34.030246734619105 ] } },
{ "type": "Feature", "properties": { "ein": "050595285", "name": "Tov Vision Community Church Inc", "street": "101 Raynold Stone Court", "city": "Suwanee", "state": "GA", "zip": "30021-0000", "category": "Religious", "description": "Christianity", "ntee_code": "X20", "asset_amt": null, "income_amt": null, "revenue_amt": null, "lat": 34.021675109863303, "long": -84.037117004394503 }, "geometry": { "type": "Point", "coordinates": [ -84.037117004394503, 34.021675109863303 ] } },
{ "type": "Feature", "properties": { "ein": "050561266", "name": "K D Moore Community Development Center Inc", "street": "4007 Church St", "city": "Clarkston", "state": "GA", "zip": "30021-1714", "category": "Human Services", "description": "Human Services NEC", "ntee_code": "P99", "asset_amt": 0, "income_amt": 0, "revenue_amt": 0, "lat": 33.811763763427699, "long": -84.237709045410199 }, "geometry": { "type": "Point", "coordinates": [ -84.237709045410199, 33.811763763427699 ] } },
{ "type": "Feature", "properties": { "ein": "200982606", "name": "Antinori Family Foundation", "street": "1020 Chesson Ct", "city": "Alpharetta", "state": "GA", "zip": "30022-7174", "category": "Philanthropy", "description": "Private Grantmaking Foundations", "ntee_code": "T20", "asset_amt": 3404, "income_amt": 3500, "revenue_amt": null, "lat": 34.015060424804695, "long": -84.248870849609403 }, "geometry": { "type": "Point", "coordinates": [ -84.248870849609403, 34.015060424804695 ] } },
{ "type": "Feature", "properties": { "ein": "201771550", "name": "J V Outreach Inc", "street": "5045 Morton Ferry Cir", "city": "Alpharetta", "state": "GA", "zip": "30022-6622", "category": "Human Services", "description": "Human Services", "ntee_code": "P20", "asset_amt": 11733, "income_amt": 15071, "revenue_amt": 15071, "lat": 34.0411376953125, "long": -84.212127685546903 }, "geometry": { "type": "Point", "coordinates": [ -84.212127685546903, 34.0411376953125 ] } },
{ "type": "Feature", "properties": { "ein": "200134216", "name": "Hurlbert Family Foundation", "street": "240 Berry Glen Ct", "city": "Alpharetta", "state": "GA", "zip": "30022-1675", "category": "Philanthropy", "description": "Private Independent Foundations", "ntee_code": "T22", "asset_amt": 1792417, "income_amt": 79122, "revenue_amt": null, "lat": 33.997020721435497, "long": -84.255012512207003 }, "geometry": { "type": "Point", "coordinates": [ -84.255012512207003, 33.997020721435497 ] } },
{ "type": "Feature", "properties": { "ein": "113832708", "name": "Tomorrow Foundation Inc", "street": "4055 Old Southwick Pass", "city": "Johns Creek", "state": "GA", "zip": "30022-7161", "category": "Philanthropy", "description": "Private Grantmaking Foundations", "ntee_code": "T20", "asset_amt": 1, "income_amt": 1, "revenue_amt": null, "lat": 34.011955261230504, "long": -84.246513366699205 }, "geometry": { "type": "Point", "coordinates": [ -84.246513366699205, 34.011955261230504 ] } },
{ "type": "Feature", "properties": { "ein": "161768259", "name": "New Life Intl Prophetic Outreach Ministries Of The World Inc", "street": "4042 Ridge Grove Way", "city": "Suwanee", "state": "GA", "zip": "30024-4527", "category": "Religious", "description": "Christianity", "ntee_code": "X20", "asset_amt": null, "income_amt": null, "revenue_amt": null, "lat": 34.027877807617195, "long": -84.098152160644503 }, "geometry": { "type": "Point", "coordinates": [ -84.098152160644503, 34.027877807617195 ] } },
{ "type": "Feature", "properties": { "ein": "201334432", "name": "Global Christian Network", "street": "2609 Brynfield Cv", "city": "Suwanee", "state": "GA", "zip": "30024-7280", "category": "Religious", "description": "Religious Television", "ntee_code": "X82", "asset_amt": 14793, "income_amt": 350734, "revenue_amt": 350734, "lat": 34.0214653015137, "long": -84.041473388671903 }, "geometry": { "type": "Point", "coordinates": [ -84.041473388671903, 34.0214653015137 ] } },
{ "type": "Feature", "properties": { "ein": "141944668", "name": "Romanian Media Ministries Inc", "street": "3459 Lawrenceville-Suwanee Rd", "city": "Suwanee", "state": "GA", "zip": "30024-6427", "category": "Religious", "description": "Religious Media & Communications", "ntee_code": "X80", "asset_amt": 6095, "income_amt": 18134, "revenue_amt": 18134, "lat": 34.043807983398402, "long": -84.055023193359403 }, "geometry": { "type": "Point", "coordinates": [ -84.055023193359403, 34.043807983398402 ] } },
{ "type": "Feature", "properties": { "ein": "113739604", "name": "Gwinnett Islamic Circle Inc", "street": "50 Old Peachtree Rd Ne Ste 211", "city": "Suwanee", "state": "GA", "zip": "30024-2964", "category": "Religious", "description": "Islam", "ntee_code": "X40", "asset_amt": 1280032, "income_amt": 359690, "revenue_amt": 359690, "lat": 34.032470703125, "long": -84.043037414550795 }, "geometry": { "type": "Point", "coordinates": [ -84.043037414550795, 34.032470703125 ] } },
{ "type": "Feature", "properties": { "ein": "201472853", "name": "Fusion Church Inc", "street": "122 Forkner Dr", "city": "Decatur", "state": "GA", "zip": "30030-1609", "category": "Religious", "description": "Christianity", "ntee_code": "X20", "asset_amt": null, "income_amt": null, "revenue_amt": null, "lat": 33.786174774169901, "long": -84.289237976074205 }, "geometry": { "type": "Point", "coordinates": [ -84.289237976074205, 33.786174774169901 ] } },
{ "type": "Feature", "properties": { "ein": "200431301", "name": "Glory Ministries Selah Inc", "street": "2380 Summerland Dr", "city": "Decatur", "state": "GA", "zip": "30032-6339", "category": "Religious", "description": "Christianity", "ntee_code": "X20", "asset_amt": null, "income_amt": null, "revenue_amt": null, "lat": 33.719047546386697, "long": -84.291183471679702 }, "geometry": { "type": "Point", "coordinates": [ -84.291183471679702, 33.719047546386697 ] } },
{ "type": "Feature", "properties": { "ein": "113692696", "name": "Collard Greens For The Soul Inc", "street": "325 Eastwyck Cir", "city": "Decatur", "state": "GA", "zip": "30032-6654", "category": "Human Services", "description": "Human Services", "ntee_code": "P20", "asset_amt": 54, "income_amt": 0, "revenue_amt": 0, "lat": 33.716892242431605, "long": -84.265579223632798 }, "geometry": { "type": "Point", "coordinates": [ -84.265579223632798, 33.716892242431605 ] } },
{ "type": "Feature", "properties": { "ein": "020701444", "name": "Spring Valley Civic Association Inc", "street": "3626 Springside Dr", "city": "Decatur", "state": "GA", "zip": "30032-0000", "category": "Community Capacity Bldg", "description": "Community & Neighborhood Development", "ntee_code": "S20", "asset_amt": 0, "income_amt": 0, "revenue_amt": 0, "lat": 33.719657897949197, "long": -84.243080139160199 }, "geometry": { "type": "Point", "coordinates": [ -84.243080139160199, 33.719657897949197 ] } },
{ "type": "Feature", "properties": { "ein": "134332999", "name": "Juxtaposed Center For Transformation Inc", "street": "2360 Green Forrest Dr", "city": "Decatur", "state": "GA", "zip": "30032-7162", "category": "Housing Shelter", "description": "Housing & Shelter NEC", "ntee_code": "L99", "asset_amt": 0, "income_amt": 0, "revenue_amt": 0, "lat": 33.7216186523438, "long": -84.261672973632798 }, "geometry": { "type": "Point", "coordinates": [ -84.261672973632798, 33.7216186523438 ] } },
{ "type": "Feature", "properties": { "ein": "050535618", "name": "Glory Christian Ministries International Inc", "street": "3255 Lawrencevillesuwanee Rd Suite", "city": "Suwanee", "state": "GA", "zip": "30024-6540", "category": "Religious", "description": "Protestant", "ntee_code": "X21", "asset_amt": null, "income_amt": null, "revenue_amt": null, "lat": 34.036937713622997, "long": -84.052902221679702 }, "geometry": { "type": "Point", "coordinates": [ -84.052902221679702, 34.036937713622997 ] } },
{ "type": "Feature", "properties": { "ein": "200596646", "name": "Soul Visions Educational Foundation Inc", "street": "1324 Crescentwood Ln", "city": "Decatur", "state": "GA", "zip": "30032-2449", "category": "Philanthropy", "description": "Private Independent Foundations", "ntee_code": "T22", "asset_amt": 214, "income_amt": 55, "revenue_amt": null, "lat": 33.759056091308601, "long": -84.253044128417997 }, "geometry": { "type": "Point", "coordinates": [ -84.253044128417997, 33.759056091308601 ] } },
{ "type": "Feature", "properties": { "ein": "201684957", "name": "Northwest Youth Power Elc Site 3 Inc", "street": "3471 Glenwood Rd", "city": "Decatur", "state": "GA", "zip": "30032-4407", "category": "Human Services", "description": "Child Day Care", "ntee_code": "P33", "asset_amt": 249385, "income_amt": 532278, "revenue_amt": 532278, "lat": 33.738376617431605, "long": -84.275520324707003 }, "geometry": { "type": "Point", "coordinates": [ -84.275520324707003, 33.738376617431605 ] } },
{ "type": "Feature", "properties": { "ein": "010796052", "name": "Grace Kingdom Church", "street": "2398 Tyler Way", "city": "Decatur", "state": "GA", "zip": "30032-6328", "category": "Religious", "description": "Protestant", "ntee_code": "X21", "asset_amt": 0, "income_amt": 0, "revenue_amt": 0, "lat": 33.723258972168004, "long": -84.291259765625 }, "geometry": { "type": "Point", "coordinates": [ -84.291259765625, 33.723258972168004 ] } },
{ "type": "Feature", "properties": { "ein": "200681593", "name": "Ufcw Local 1996 Building Corp", "street": "3302 Mcginnis Ferry Rd Ste 201", "city": "Suwanee", "state": "GA", "zip": "30024-7148", "category": "Community Capacity Bldg", "description": "Real Estate Associations", "ntee_code": "S47", "asset_amt": 4005597, "income_amt": 372830, "revenue_amt": -36425, "lat": 34.031692504882805, "long": -84.066787719726591 }, "geometry": { "type": "Point", "coordinates": [ -84.066787719726591, 34.031692504882805 ] } },
{ "type": "Feature", "properties": { "ein": "043765741", "name": "Worship Center International Church Inc", "street": "1078 Druid Lk", "city": "Decatur", "state": "GA", "zip": "30033-4200", "category": "Religious", "description": "Christianity", "ntee_code": "X20", "asset_amt": null, "income_amt": null, "revenue_amt": null, "lat": 33.811538696289098, "long": -84.283798217773409 }, "geometry": { "type": "Point", "coordinates": [ -84.283798217773409, 33.811538696289098 ] } },
{ "type": "Feature", "properties": { "ein": "020799028", "name": "Yes Lord Incorporated", "street": "2394 Whites Mill Ln", "city": "Decatur", "state": "GA", "zip": "30032-6331", "category": "Religious", "description": "Protestant", "ntee_code": "X21", "asset_amt": null, "income_amt": null, "revenue_amt": null, "lat": 33.717731475830099, "long": -84.291587829589801 }, "geometry": { "type": "Point", "coordinates": [ -84.291587829589801, 33.717731475830099 ] } },
{ "type": "Feature", "properties": { "ein": "061814812", "name": "Georgia Tech Business Network", "street": "1493 Leafmore Pl", "city": "Decatur", "state": "GA", "zip": "30033-2050", "category": "Community Capacity Bldg", "description": "Chambers of Commerce & Business Leagues", "ntee_code": "S41", "asset_amt": 0, "income_amt": 0, "revenue_amt": 0, "lat": 33.824703216552699, "long": -84.290092468261705 }, "geometry": { "type": "Point", "coordinates": [ -84.290092468261705, 33.824703216552699 ] } },
{ "type": "Feature", "properties": { "ein": "030481093", "name": "Dekalb Initiative For Children And Families", "street": "4380 Memorial Drive", "city": "Decatur", "state": "GA", "zip": "30032-1239", "category": "Human Services", "description": "Family Services", "ntee_code": "P40", "asset_amt": 9874, "income_amt": 43970, "revenue_amt": 43970, "lat": 33.775810241699197, "long": -84.246185302734403 }, "geometry": { "type": "Point", "coordinates": [ -84.246185302734403, 33.775810241699197 ] } },
{ "type": "Feature", "properties": { "ein": "200184493", "name": "Renaissance Ministries Inc", "street": "4222 Abilene Ct", "city": "Decatur", "state": "GA", "zip": "30034-6025", "category": "Human Services", "description": "Child Day Care", "ntee_code": "P33", "asset_amt": 0, "income_amt": 0, "revenue_amt": 0, "lat": 33.668239593505895, "long": -84.217811584472699 }, "geometry": { "type": "Point", "coordinates": [ -84.217811584472699, 33.668239593505895 ] } },
{ "type": "Feature", "properties": { "ein": "141996510", "name": "Howey Hudson Lowe Foundation Inc", "street": "3307 Renoir Ct", "city": "Decatur", "state": "GA", "zip": "30034-5181", "category": "Human Services", "description": "Human Services", "ntee_code": "P20", "asset_amt": 5577, "income_amt": 25763, "revenue_amt": 25763, "lat": 33.686233520507805, "long": -84.229423522949205 }, "geometry": { "type": "Point", "coordinates": [ -84.229423522949205, 33.686233520507805 ] } },
{ "type": "Feature", "properties": { "ein": "010740608", "name": "Smart Place Adult And Children Services Inc", "street": "1916 Glenfair Rd", "city": "Decatur", "state": "GA", "zip": "30035-1849", "category": "Human Services", "description": "Residential Care & Adult Day Programs", "ntee_code": "P70", "asset_amt": 754072, "income_amt": 1080593, "revenue_amt": 1080593, "lat": 33.733642578125, "long": -84.230415344238295 }, "geometry": { "type": "Point", "coordinates": [ -84.230415344238295, 33.733642578125 ] } },
{ "type": "Feature", "properties": { "ein": "020703136", "name": "Good Shepherd Foundation Inc", "street": "3401 Rainbow Dr", "city": "Decatur", "state": "GA", "zip": "30034-1808", "category": "Housing Shelter", "description": "Homeless Shelters", "ntee_code": "L41", "asset_amt": null, "income_amt": null, "revenue_amt": null, "lat": 33.711750030517599, "long": -84.252380371093793 }, "geometry": { "type": "Point", "coordinates": [ -84.252380371093793, 33.711750030517599 ] } },
{ "type": "Feature", "properties": { "ein": "141898376", "name": "Unique Community Development Outreach Ministries Inc", "street": "1260 Evangeline Dr", "city": "Decatur", "state": "GA", "zip": "30035-1008", "category": "Human Services", "description": "Human Services", "ntee_code": "P20", "asset_amt": 0, "income_amt": 0, "revenue_amt": 0, "lat": 33.757797241210902, "long": -84.227790832519503 }, "geometry": { "type": "Point", "coordinates": [ -84.227790832519503, 33.757797241210902 ] } },
{ "type": "Feature", "properties": { "ein": "161684216", "name": "Namaska Ministries", "street": "4415 Covington Hwy Unit 1300", "city": "Decatur", "state": "GA", "zip": "30035-1220", "category": "Religious", "description": "Protestant", "ntee_code": "X21", "asset_amt": null, "income_amt": null, "revenue_amt": null, "lat": 33.748081207275398, "long": -84.223983764648409 }, "geometry": { "type": "Point", "coordinates": [ -84.223983764648409, 33.748081207275398 ] } },
{ "type": "Feature", "properties": { "ein": "200783614", "name": "Seajoy Inc", "street": "5586 Wildwood Trl", "city": "Lithonia", "state": "GA", "zip": "30038-4863", "category": "Human Services", "description": "Child Day Care", "ntee_code": "P33", "asset_amt": 15000, "income_amt": 197204, "revenue_amt": 197204, "lat": 33.678035736083999, "long": -84.162025451660199 }, "geometry": { "type": "Point", "coordinates": [ -84.162025451660199, 33.678035736083999 ] } },
{ "type": "Feature", "properties": { "ein": "200399846", "name": "Life Changing Eye Opening Ministries Inc", "street": "4123 Brooks Mill Dr", "city": "Lithonia", "state": "GA", "zip": "30038-4144", "category": "Religious", "description": "Christianity", "ntee_code": "X20", "asset_amt": null, "income_amt": null, "revenue_amt": null, "lat": 33.658447265625, "long": -84.151870727539091 }, "geometry": { "type": "Point", "coordinates": [ -84.151870727539091, 33.658447265625 ] } },
{ "type": "Feature", "properties": { "ein": "200826207", "name": "Celestial Church Of Christ Christs Gospel Parish Inc", "street": "4415 Covington Hwy Unit 1400", "city": "Decatur", "state": "GA", "zip": "30035-1221", "category": "Religious", "description": "Christianity", "ntee_code": "X20", "asset_amt": null, "income_amt": null, "revenue_amt": null, "lat": 33.748081207275398, "long": -84.223983764648409 }, "geometry": { "type": "Point", "coordinates": [ -84.223983764648409, 33.748081207275398 ] } },
{ "type": "Feature", "properties": { "ein": "201788145", "name": "New Birth Church Holdings Inc", "street": "6400 Woodrow Rd", "city": "Lithonia", "state": "GA", "zip": "30038-2437", "category": "Religious", "description": "Support NEC", "ntee_code": "X19", "asset_amt": null, "income_amt": null, "revenue_amt": null, "lat": 33.6945610046387, "long": -84.128265380859403 }, "geometry": { "type": "Point", "coordinates": [ -84.128265380859403, 33.6945610046387 ] } },
{ "type": "Feature", "properties": { "ein": "010917172", "name": "Caring Touch Ministries Inc", "street": "3850 E Saddle Ridge Dr", "city": "Lithonia", "state": "GA", "zip": "30038-3971", "category": "Food", "description": "Food Programs", "ntee_code": "K30", "asset_amt": 0, "income_amt": 0, "revenue_amt": 0, "lat": 33.666007995605504, "long": -84.166564941406207 }, "geometry": { "type": "Point", "coordinates": [ -84.166564941406207, 33.666007995605504 ] } },
{ "type": "Feature", "properties": { "ein": "200604839", "name": "Victorias Friends Inc", "street": "345 Peachtree Industrial Blvd Ste 1", "city": "Suwanee", "state": "GA", "zip": "30024-8819", "category": "Religious", "description": "Religion-Related NEC", "ntee_code": "X99", "asset_amt": 47789, "income_amt": 133076, "revenue_amt": 133076, "lat": 34.065769195556605, "long": -84.072029113769503 }, "geometry": { "type": "Point", "coordinates": [ -84.072029113769503, 34.065769195556605 ] } },
{ "type": "Feature", "properties": { "ein": "030424341", "name": "Campus Ministries United Inc", "street": "6440 Rock Springs Rd", "city": "Lithonia", "state": "GA", "zip": "30038-1828", "category": "Religious", "description": "Interfaith Coalitions", "ntee_code": "X90", "asset_amt": 0, "income_amt": 0, "revenue_amt": 0, "lat": 33.686576843261697, "long": -84.140434265136705 }, "geometry": { "type": "Point", "coordinates": [ -84.140434265136705, 33.686576843261697 ] } },
{ "type": "Feature", "properties": { "ein": "201539010", "name": "Unique Personality Counseling Inc", "street": "6640 Housworth Ln", "city": "Lithonia", "state": "GA", "zip": "30038-4641", "category": "Human Services", "description": "Family Services", "ntee_code": "P40", "asset_amt": 0, "income_amt": 0, "revenue_amt": 0, "lat": 33.648948669433601, "long": -84.119956970214801 }, "geometry": { "type": "Point", "coordinates": [ -84.119956970214801, 33.648948669433601 ] } },
{ "type": "Feature", "properties": { "ein": "030509073", "name": "Bridge The Gap Ministries Inc", "street": "2860 Lenora Springs Dr", "city": "Snellville", "state": "GA", "zip": "30039-5228", "category": "Religious", "description": "Religion-Related NEC", "ntee_code": "X99", "asset_amt": 16662, "income_amt": 61735, "revenue_amt": 61735, "lat": 33.809505462646499, "long": -84.002662658691406 }, "geometry": { "type": "Point", "coordinates": [ -84.002662658691406, 33.809505462646499 ] } },
{ "type": "Feature", "properties": { "ein": "200173825", "name": "Board For Critical Care Transport Paramedic Certification", "street": "4835 Riveredge Cv", "city": "Snellville", "state": "GA", "zip": "30039-6960", "category": "Community Capacity Bldg", "description": "Chambers of Commerce & Business Leagues", "ntee_code": "S41", "asset_amt": 452280, "income_amt": 460171, "revenue_amt": 460171, "lat": 33.7752494812012, "long": -84.0592041015625 }, "geometry": { "type": "Point", "coordinates": [ -84.0592041015625, 33.7752494812012 ] } },
{ "type": "Feature", "properties": { "ein": "200500324", "name": "Ousley Community Church", "street": "3261 Panola Rd", "city": "Lithonia", "state": "GA", "zip": "30038-2322", "category": "Human Services", "description": "Human Services", "ntee_code": "P20", "asset_amt": null, "income_amt": null, "revenue_amt": null, "lat": 33.691082000732401, "long": -84.175132751464801 }, "geometry": { "type": "Point", "coordinates": [ -84.175132751464801, 33.691082000732401 ] } },
{ "type": "Feature", "properties": { "ein": "201515638", "name": "New Birth Church Association Inc", "street": "6400 Woodrow Rd", "city": "Lithonia", "state": "GA", "zip": "30038-2437", "category": "Religious", "description": "Interfaith Coalitions", "ntee_code": "X90", "asset_amt": null, "income_amt": null, "revenue_amt": null, "lat": 33.6945610046387, "long": -84.128265380859403 }, "geometry": { "type": "Point", "coordinates": [ -84.128265380859403, 33.6945610046387 ] } },
{ "type": "Feature", "properties": { "ein": "141862519", "name": "Edu-Tech Enterprises Inc", "street": "4343 Apollo Ct", "city": "Snellville", "state": "GA", "zip": "30039-5910", "category": "Employment", "description": "Job Training", "ntee_code": "J22", "asset_amt": 0, "income_amt": 0, "revenue_amt": 0, "lat": 33.815452575683601, "long": -84.065757751464801 }, "geometry": { "type": "Point", "coordinates": [ -84.065757751464801, 33.815452575683601 ] } },
{ "type": "Feature", "properties": { "ein": "141843698", "name": "Trinity Worship Center International Inc", "street": "3461 Gleneagles Ct", "city": "Snellville", "state": "GA", "zip": "30039-5690", "category": "Religious", "description": "Protestant", "ntee_code": "X21", "asset_amt": null, "income_amt": null, "revenue_amt": null, "lat": 33.788345336914098, "long": -84.019546508789091 }, "geometry": { "type": "Point", "coordinates": [ -84.019546508789091, 33.788345336914098 ] } },
{ "type": "Feature", "properties": { "ein": "113734972", "name": "Armour Of Life", "street": "3196 Village Glen Trl", "city": "Snellville", "state": "GA", "zip": "30039-4663", "category": "Human Services", "description": "Human Services", "ntee_code": "P20", "asset_amt": 0, "income_amt": 0, "revenue_amt": 0, "lat": 33.818992614746101, "long": -84.033042907714801 }, "geometry": { "type": "Point", "coordinates": [ -84.033042907714801, 33.818992614746101 ] } },
{ "type": "Feature", "properties": { "ein": "200973697", "name": "Tu Lien Buddhist Temple Inc", "street": "3465 Lenora Church Rd", "city": "Snellville", "state": "GA", "zip": "30039-4807", "category": "Religious", "description": "Buddhism", "ntee_code": "X50", "asset_amt": 160234, "income_amt": 95057, "revenue_amt": 95057, "lat": 33.819984436035199, "long": -84.012222290039091 }, "geometry": { "type": "Point", "coordinates": [ -84.012222290039091, 33.819984436035199 ] } },
{ "type": "Feature", "properties": { "ein": "010709861", "name": "First Gospel Of Nation Mission Center Inc", "street": "1320 Bailing Rd", "city": "Lawrenceville", "state": "GA", "zip": "30043-6220", "category": "Religious", "description": "Christianity", "ntee_code": "X20", "asset_amt": 18869, "income_amt": 12504, "revenue_amt": 12504, "lat": 33.974681854247997, "long": -84.037361145019503 }, "geometry": { "type": "Point", "coordinates": [ -84.037361145019503, 33.974681854247997 ] } },
{ "type": "Feature", "properties": { "ein": "200141005", "name": "Hattie & Floyde Chatmon Scholarship Fund Inc", "street": "1291 Shyre Crest Way", "city": "Lawrenceville", "state": "GA", "zip": "30043-4439", "category": "Philanthropy", "description": "Private Grantmaking Foundations", "ntee_code": "T20", "asset_amt": 54009, "income_amt": 6340, "revenue_amt": null, "lat": 33.994125366210902, "long": -83.998466491699205 }, "geometry": { "type": "Point", "coordinates": [ -83.998466491699205, 33.994125366210902 ] } },
{ "type": "Feature", "properties": { "ein": "161771996", "name": "International Community Outreach Church", "street": "1450 Royale Castle Dr", "city": "Lawrenceville", "state": "GA", "zip": "30043-6927", "category": "Religious", "description": "Christianity", "ntee_code": "X20", "asset_amt": null, "income_amt": null, "revenue_amt": null, "lat": 34.026123046875, "long": -83.941055297851591 }, "geometry": { "type": "Point", "coordinates": [ -83.941055297851591, 34.026123046875 ] } },
{ "type": "Feature", "properties": { "ein": "113660126", "name": "Crazy Missionaries Inc", "street": "1884 Wilson Wynd Way", "city": "Lawrenceville", "state": "GA", "zip": "30043-6059", "category": "Religious", "description": "Protestant", "ntee_code": "X21", "asset_amt": 0, "income_amt": 0, "revenue_amt": 0, "lat": 34.011425018310497, "long": -84.002235412597699 }, "geometry": { "type": "Point", "coordinates": [ -84.002235412597699, 34.011425018310497 ] } },
{ "type": "Feature", "properties": { "ein": "061484296", "name": "L & J Ho Private Family Foundation", "street": "1150 Home Place Dr", "city": "Lawrenceville", "state": "GA", "zip": "30043-8651", "category": "Philanthropy", "description": "Private Operating Foundations", "ntee_code": "T23", "asset_amt": 11373, "income_amt": 172, "revenue_amt": null, "lat": 33.978786468505895, "long": -84.046859741210909 }, "geometry": { "type": "Point", "coordinates": [ -84.046859741210909, 33.978786468505895 ] } },
{ "type": "Feature", "properties": { "ein": "161619948", "name": "Sigma Phi Psi Sorority Inc", "street": "1695 Millhaven Cove Ct", "city": "Lawrenceville", "state": "GA", "zip": "30043-2799", "category": "Public Social Benefit", "description": "Military & Veterans‰Ûª Organizations", "ntee_code": "W30", "asset_amt": null, "income_amt": null, "revenue_amt": null, "lat": 34.033176422119105, "long": -83.961975097656207 }, "geometry": { "type": "Point", "coordinates": [ -83.961975097656207, 34.033176422119105 ] } },
{ "type": "Feature", "properties": { "ein": "200226458", "name": "C3 Center Inc", "street": "1065 Walther Blvd", "city": "Lawrenceville", "state": "GA", "zip": "30043-8417", "category": "Human Services", "description": "Personal Social Services", "ntee_code": "P50", "asset_amt": 0, "income_amt": 0, "revenue_amt": 0, "lat": 33.973026275634801, "long": -84.016944885253906 }, "geometry": { "type": "Point", "coordinates": [ -84.016944885253906, 33.973026275634801 ] } },
{ "type": "Feature", "properties": { "ein": "201457153", "name": "Alpha Outreach Ministries", "street": "1654 Hampton Hollow Trl", "city": "Lawrenceville", "state": "GA", "zip": "30043-5176", "category": "Human Services", "description": "Human Services", "ntee_code": "P20", "asset_amt": 0, "income_amt": 0, "revenue_amt": 0, "lat": 33.978923797607401, "long": -84.060020446777301 }, "geometry": { "type": "Point", "coordinates": [ -84.060020446777301, 33.978923797607401 ] } },
{ "type": "Feature", "properties": { "ein": "043646814", "name": "Atlanta Telugu Christhava Samavesam", "street": "1500 Leisure Lake Dr", "city": "Lawrenceville", "state": "GA", "zip": "30044-6247", "category": "Religious", "description": "Christianity", "ntee_code": "X20", "asset_amt": null, "income_amt": null, "revenue_amt": null, "lat": 33.900470733642599, "long": -84.006889343261705 }, "geometry": { "type": "Point", "coordinates": [ -84.006889343261705, 33.900470733642599 ] } },
{ "type": "Feature", "properties": { "ein": "043670750", "name": "Wishes 4 Me Foundation Inc", "street": "1971 Sumter Ct", "city": "Lawrenceville", "state": "GA", "zip": "30044-5977", "category": "Human Services", "description": "Emergency Assistance", "ntee_code": "P60", "asset_amt": 526897, "income_amt": 282495, "revenue_amt": 282495, "lat": 33.908348083496101, "long": -84.032386779785199 }, "geometry": { "type": "Point", "coordinates": [ -84.032386779785199, 33.908348083496101 ] } },
{ "type": "Feature", "properties": { "ein": "030557918", "name": "Community Entrepreneurship Institute Inc", "street": "1181 Rocky Rd", "city": "Lawrenceville", "state": "GA", "zip": "30044-6211", "category": "Community Capacity Bldg", "description": "Economic Development", "ntee_code": "S30", "asset_amt": 0, "income_amt": 0, "revenue_amt": 0, "lat": 33.899417877197301, "long": -84.014167785644503 }, "geometry": { "type": "Point", "coordinates": [ -84.014167785644503, 33.899417877197301 ] } },
{ "type": "Feature", "properties": { "ein": "020560001", "name": "Trumpet Of The Lord", "street": "935 Foxfire Dr", "city": "Lawrenceville", "state": "GA", "zip": "30044-5522", "category": "Religious", "description": "Christianity", "ntee_code": "X20", "asset_amt": 0, "income_amt": 0, "revenue_amt": 0, "lat": 33.884700775146499, "long": -84.065544128417997 }, "geometry": { "type": "Point", "coordinates": [ -84.065544128417997, 33.884700775146499 ] } },
{ "type": "Feature", "properties": { "ein": "161663757", "name": "Gatekeepers International Inc", "street": "1625 Collins Hill Rd", "city": "Lawrenceville", "state": "GA", "zip": "30043-3616", "category": "Religious", "description": "Christianity", "ntee_code": "X20", "asset_amt": null, "income_amt": null, "revenue_amt": null, "lat": 33.997962951660199, "long": -84.012855529785199 }, "geometry": { "type": "Point", "coordinates": [ -84.012855529785199, 33.997962951660199 ] } },
{ "type": "Feature", "properties": { "ein": "161711921", "name": "Benevolence Outreach Services Inc", "street": "656 Simon Ive Dr", "city": "Lawrenceville", "state": "GA", "zip": "30045-8564", "category": "Religious", "description": "Protestant", "ntee_code": "X21", "asset_amt": 0, "income_amt": 0, "revenue_amt": 0, "lat": 33.947792053222699, "long": -83.9476318359375 }, "geometry": { "type": "Point", "coordinates": [ -83.9476318359375, 33.947792053222699 ] } },
{ "type": "Feature", "properties": { "ein": "113826144", "name": "Restoring Souls Ministry Inc", "street": "1425 Snow Hill Dr", "city": "Lawrenceville", "state": "GA", "zip": "30045-3458", "category": "Religious", "description": "Protestant", "ntee_code": "X21", "asset_amt": 0, "income_amt": 0, "revenue_amt": 0, "lat": 33.9153022766113, "long": -83.929367065429702 }, "geometry": { "type": "Point", "coordinates": [ -83.929367065429702, 33.9153022766113 ] } },
{ "type": "Feature", "properties": { "ein": "200764408", "name": "Hope Evangelical Church Inc", "street": "455 Arnold Rd", "city": "Lawrenceville", "state": "GA", "zip": "30044-5349", "category": "Religious", "description": "Protestant", "ntee_code": "X21", "asset_amt": null, "income_amt": null, "revenue_amt": null, "lat": 33.908168792724602, "long": -84.051620483398409 }, "geometry": { "type": "Point", "coordinates": [ -84.051620483398409, 33.908168792724602 ] } },
{ "type": "Feature", "properties": { "ein": "030441623", "name": "Daisyland Christian Center", "street": "976 Autumn Blaze Ln", "city": "Lawrenceville", "state": "GA", "zip": "30045-7244", "category": "Religious", "description": "Protestant", "ntee_code": "X21", "asset_amt": null, "income_amt": null, "revenue_amt": null, "lat": 33.941192626953104, "long": -83.941055297851591 }, "geometry": { "type": "Point", "coordinates": [ -83.941055297851591, 33.941192626953104 ] } },
{ "type": "Feature", "properties": { "ein": "200793797", "name": "Christ Temple International House Of Rescue", "street": "760 Chapel Hill Dr", "city": "Lawrenceville", "state": "GA", "zip": "30045-2370", "category": "Religious", "description": "Christianity", "ntee_code": "X20", "asset_amt": null, "income_amt": null, "revenue_amt": null, "lat": 33.953029632568395, "long": -83.927467346191406 }, "geometry": { "type": "Point", "coordinates": [ -83.927467346191406, 33.953029632568395 ] } },
{ "type": "Feature", "properties": { "ein": "201253234", "name": "Freedom Christian Ministry", "street": "420 Grayson Hwy Ste 200\/300", "city": "Lawmnceville", "state": "GA", "zip": "30045-6343", "category": "Religious", "description": "Christianity", "ntee_code": "X20", "asset_amt": null, "income_amt": null, "revenue_amt": null, "lat": 33.923915863037102, "long": -83.973709106445298 }, "geometry": { "type": "Point", "coordinates": [ -83.973709106445298, 33.923915863037102 ] } },
{ "type": "Feature", "properties": { "ein": "141881932", "name": "Iglesia Roca De Salvacion Inc", "street": "256 Kingsport Dr", "city": "Lawrenceville", "state": "GA", "zip": "30046-7605", "category": "Religious", "description": "Christianity", "ntee_code": "X20", "asset_amt": null, "income_amt": null, "revenue_amt": null, "lat": 33.947586059570305, "long": -84.023780822753906 }, "geometry": { "type": "Point", "coordinates": [ -84.023780822753906, 33.947586059570305 ] } },
{ "type": "Feature", "properties": { "ein": "043836323", "name": "Disabled American Veterans", "street": "750 South Perry Street", "city": "Lawrenceville", "state": "GA", "zip": "30046-3233", "category": "Public Social Benefit", "description": "Military & Veterans‰Ûª Organizations", "ntee_code": "W30", "asset_amt": 6019, "income_amt": 35964, "revenue_amt": 35964, "lat": 33.949935913085902, "long": -83.988327026367202 }, "geometry": { "type": "Point", "coordinates": [ -83.988327026367202, 33.949935913085902 ] } },
{ "type": "Feature", "properties": { "ein": "020573450", "name": "Gwinnett Fire Employee Benevolent Fund", "street": "408 Hurricane Shoals Rd Ne", "city": "Lawrenceville", "state": "GA", "zip": "30046-4406", "category": "Human Services", "description": "Emergency Assistance", "ntee_code": "P60", "asset_amt": 0, "income_amt": 0, "revenue_amt": 0, "lat": 33.976104736328104, "long": -83.977249145507798 }, "geometry": { "type": "Point", "coordinates": [ -83.977249145507798, 33.976104736328104 ] } },
{ "type": "Feature", "properties": { "ein": "201852941", "name": "New Day Family Services Inc", "street": "1172 Timber Glen Ct Sw", "city": "Lilburn", "state": "GA", "zip": "30047-3224", "category": "Human Services", "description": "Emergency Assistance", "ntee_code": "P60", "asset_amt": 0, "income_amt": 0, "revenue_amt": 0, "lat": 33.858917236328104, "long": -84.090827941894503 }, "geometry": { "type": "Point", "coordinates": [ -84.090827941894503, 33.858917236328104 ] } },
{ "type": "Feature", "properties": { "ein": "030383125", "name": "Elim Romanian Pentecoastal Church", "street": "142 Scenic Hwy", "city": "Lawrenceville", "state": "GA", "zip": "30046-5700", "category": "Religious", "description": "Christianity", "ntee_code": "X20", "asset_amt": null, "income_amt": null, "revenue_amt": null, "lat": 33.950569152831996, "long": -83.982376098632798 }, "geometry": { "type": "Point", "coordinates": [ -83.982376098632798, 33.950569152831996 ] } },
{ "type": "Feature", "properties": { "ein": "020794828", "name": "Unidos En Cristo Inc", "street": "4800 Lawrenceville Hwy Suite 2\/3A", "city": "Lilburn", "state": "GA", "zip": "30047-3845", "category": "Religious", "description": "Protestant", "ntee_code": "X21", "asset_amt": null, "income_amt": null, "revenue_amt": null, "lat": 33.895240783691399, "long": -84.140167236328097 }, "geometry": { "type": "Point", "coordinates": [ -84.140167236328097, 33.895240783691399 ] } },
{ "type": "Feature", "properties": { "ein": "201791988", "name": "Jireh Worship & Arts", "street": "509 Shadow Valley Ct", "city": "Lithonia", "state": "GA", "zip": "30058-3269", "category": "Human Services", "description": "Personal Social Services", "ntee_code": "P50", "asset_amt": 0, "income_amt": 0, "revenue_amt": 0, "lat": 33.768943786621101, "long": -84.136184692382798 }, "geometry": { "type": "Point", "coordinates": [ -84.136184692382798, 33.768943786621101 ] } },
{ "type": "Feature", "properties": { "ein": "010596594", "name": "Druid Hills Of Lithonia Church Of God In Christ Inc", "street": "6954 Braswell St", "city": "Lithonia", "state": "GA", "zip": "30058-4406", "category": "Religious", "description": "Protestant", "ntee_code": "X21", "asset_amt": null, "income_amt": null, "revenue_amt": null, "lat": 33.719104766845696, "long": -84.103836059570298 }, "geometry": { "type": "Point", "coordinates": [ -84.103836059570298, 33.719104766845696 ] } },
{ "type": "Feature", "properties": { "ein": "010749058", "name": "Lithonia Housing Authority Development Corporation", "street": "6878 Max Cleland Blvd", "city": "Lithonia", "state": "GA", "zip": "30058-4467", "category": "Housing Shelter", "description": "Housing Development", "ntee_code": "L20", "asset_amt": null, "income_amt": null, "revenue_amt": null, "lat": 33.713367462158196, "long": -84.107200622558594 }, "geometry": { "type": "Point", "coordinates": [ -84.107200622558594, 33.713367462158196 ] } },
{ "type": "Feature", "properties": { "ein": "043750610", "name": "Step Up In Georgia Inc", "street": "7448 Conyers St", "city": "Lithonia", "state": "GA", "zip": "30058-4325", "category": "Human Services", "description": "Senior Centers", "ntee_code": "P81", "asset_amt": 1175, "income_amt": 137729, "revenue_amt": 137729, "lat": 33.7094917297363, "long": -84.102851867675795 }, "geometry": { "type": "Point", "coordinates": [ -84.102851867675795, 33.7094917297363 ] } },
{ "type": "Feature", "properties": { "ein": "061719642", "name": "Celines Place Inc", "street": "1768 Young Rd", "city": "Lithonia", "state": "GA", "zip": "30058-5657", "category": "Human Services", "description": "Group Homes", "ntee_code": "P73", "asset_amt": 0, "income_amt": 177467, "revenue_amt": 177467, "lat": 33.741046905517599, "long": -84.155067443847699 }, "geometry": { "type": "Point", "coordinates": [ -84.155067443847699, 33.741046905517599 ] } },
{ "type": "Feature", "properties": { "ein": "030409412", "name": "Vision Of Hope Worship & Deliverance Temple Inc", "street": "770 Stonebridge Cres", "city": "Lithonia", "state": "GA", "zip": "30058-8266", "category": "Religious", "description": "Protestant", "ntee_code": "X21", "asset_amt": null, "income_amt": null, "revenue_amt": null, "lat": 33.774177551269496, "long": -84.085533142089801 }, "geometry": { "type": "Point", "coordinates": [ -84.085533142089801, 33.774177551269496 ] } },
{ "type": "Feature", "properties": { "ein": "113567459", "name": "Abundant Life Outreach Ministry Inc", "street": "1170 Vermillion Cir Sw", "city": "Marietta", "state": "GA", "zip": "30060-6171", "category": "Religious", "description": "Protestant", "ntee_code": "X21", "asset_amt": null, "income_amt": null, "revenue_amt": null, "lat": 33.869884490966804, "long": -84.587951660156207 }, "geometry": { "type": "Point", "coordinates": [ -84.587951660156207, 33.869884490966804 ] } },
{ "type": "Feature", "properties": { "ein": "030574174", "name": "Word Of Victory Ministries", "street": "6382 Phillips Ct", "city": "Lithonia", "state": "GA", "zip": "30058-8922", "category": "Religious", "description": "Protestant", "ntee_code": "X21", "asset_amt": null, "income_amt": null, "revenue_amt": null, "lat": 33.733982086181605, "long": -84.129508972167997 }, "geometry": { "type": "Point", "coordinates": [ -84.129508972167997, 33.733982086181605 ] } },
{ "type": "Feature", "properties": { "ein": "113774021", "name": "Bridge Pointe Church Inc", "street": "285 Victory Dr Se", "city": "Marietta", "state": "GA", "zip": "30060-2303", "category": "Religious", "description": "Protestant", "ntee_code": "X21", "asset_amt": null, "income_amt": null, "revenue_amt": null, "lat": 33.9454956054688, "long": -84.531425476074205 }, "geometry": { "type": "Point", "coordinates": [ -84.531425476074205, 33.9454956054688 ] } },
{ "type": "Feature", "properties": { "ein": "010763326", "name": "Christ Ministry Of The Living Word", "street": "330 Pat Mell Rd Sw Apt E2", "city": "Marietta", "state": "GA", "zip": "30060-4787", "category": "Religious", "description": "Christianity", "ntee_code": "X20", "asset_amt": null, "income_amt": null, "revenue_amt": null, "lat": 33.902259826660199, "long": -84.563034057617202 }, "geometry": { "type": "Point", "coordinates": [ -84.563034057617202, 33.902259826660199 ] } },
{ "type": "Feature", "properties": { "ein": "200379556", "name": "Athens Institute Of Ministry Inc", "street": "2256 Rushmore Dr", "city": "Marietta", "state": "GA", "zip": "30062-6540", "category": "Religious", "description": "Christianity", "ntee_code": "X20", "asset_amt": 1059, "income_amt": 19567, "revenue_amt": 19567, "lat": 34.003974914550803, "long": -84.398246765136705 }, "geometry": { "type": "Point", "coordinates": [ -84.398246765136705, 34.003974914550803 ] } },
{ "type": "Feature", "properties": { "ein": "201572767", "name": "Georgia Wireless Association Inc", "street": "3800 Ardsley Ct", "city": "Marietta", "state": "GA", "zip": "30062-5811", "category": "Community Capacity Bldg", "description": "Chambers of Commerce & Business Leagues", "ntee_code": "S41", "asset_amt": 24710, "income_amt": 301634, "revenue_amt": 301634, "lat": 33.994964599609396, "long": -84.440582275390597 }, "geometry": { "type": "Point", "coordinates": [ -84.440582275390597, 33.994964599609396 ] } },
{ "type": "Feature", "properties": { "ein": "113842754", "name": "Atlanta Chinese Christian Church Northwest Inc", "street": "1837 Bill Murdock Rd", "city": "Marietta", "state": "GA", "zip": "30062-5345", "category": "Religious", "description": "Protestant", "ntee_code": "X21", "asset_amt": 867982, "income_amt": 668804, "revenue_amt": 668804, "lat": 33.995082855224602, "long": -84.443664550781207 }, "geometry": { "type": "Point", "coordinates": [ -84.443664550781207, 33.995082855224602 ] } },
{ "type": "Feature", "properties": { "ein": "030532316", "name": "Marietta Daily Journal Community Foundation", "street": "580 Fairground St", "city": "Marietta", "state": "GA", "zip": "30060-0000", "category": "Philanthropy", "description": "Private Independent Foundations", "ntee_code": "T22", "asset_amt": 419432, "income_amt": 18721, "revenue_amt": null, "lat": 33.965202331543004, "long": -84.536842346191406 }, "geometry": { "type": "Point", "coordinates": [ -84.536842346191406, 33.965202331543004 ] } },
{ "type": "Feature", "properties": { "ein": "200455122", "name": "Brasuell Simmons Foundation Inc", "street": "1840 Pemberton Pl", "city": "Marietta", "state": "GA", "zip": "30062-8126", "category": "Philanthropy", "description": "Private Independent Foundations", "ntee_code": "T22", "asset_amt": 34448, "income_amt": 114256, "revenue_amt": null, "lat": 33.996170043945305, "long": -84.415016174316406 }, "geometry": { "type": "Point", "coordinates": [ -84.415016174316406, 33.996170043945305 ] } },
{ "type": "Feature", "properties": { "ein": "141841438", "name": "Phoenix Rising Center For Women Inc", "street": "2799 Brookcliff Lndg", "city": "Marietta", "state": "GA", "zip": "30062-4860", "category": "Human Services", "description": "Group Homes", "ntee_code": "P73", "asset_amt": 753047, "income_amt": 128453, "revenue_amt": 128453, "lat": 33.987636566162102, "long": -84.470260620117202 }, "geometry": { "type": "Point", "coordinates": [ -84.470260620117202, 33.987636566162102 ] } },
{ "type": "Feature", "properties": { "ein": "030417768", "name": "New Mercies Christian Church", "street": "4000 Five Forks Trickum Road", "city": "Lilburn", "state": "GA", "zip": "30047-2485", "category": "Religious", "description": "Christianity", "ntee_code": "X20", "asset_amt": null, "income_amt": null, "revenue_amt": null, "lat": 33.869453430175803, "long": -84.091011047363295 }, "geometry": { "type": "Point", "coordinates": [ -84.091011047363295, 33.869453430175803 ] } },
{ "type": "Feature", "properties": { "ein": "010899328", "name": "House Without Walls International Christian Center", "street": "260 Manning Rd Sw Nbr 64", "city": "Marietta", "state": "GA", "zip": "30064-0000", "category": "Religious", "description": "Christianity", "ntee_code": "X20", "asset_amt": null, "income_amt": null, "revenue_amt": null, "lat": 33.946693420410199, "long": -84.575645446777301 }, "geometry": { "type": "Point", "coordinates": [ -84.575645446777301, 33.946693420410199 ] } },
{ "type": "Feature", "properties": { "ein": "020705977", "name": "Blessed-2-Serve Inc", "street": "799 Polk St Nw", "city": "Marietta", "state": "GA", "zip": "30064-2029", "category": "Human Services", "description": "Human Services", "ntee_code": "P20", "asset_amt": 0, "income_amt": 0, "revenue_amt": 0, "lat": 33.955760955810497, "long": -84.574913024902301 }, "geometry": { "type": "Point", "coordinates": [ -84.574913024902301, 33.955760955810497 ] } },
{ "type": "Feature", "properties": { "ein": "201231981", "name": "Holy Rollerz Christian Car Club", "street": "2381 Johnston Ct Sw", "city": "Marietta", "state": "GA", "zip": "30064-2638", "category": "Religious", "description": "Protestant", "ntee_code": "X21", "asset_amt": 0, "income_amt": 0, "revenue_amt": 0, "lat": 33.951141357421896, "long": -84.619956970214801 }, "geometry": { "type": "Point", "coordinates": [ -84.619956970214801, 33.951141357421896 ] } },
{ "type": "Feature", "properties": { "ein": "200377692", "name": "Atlanta Gallery Association Inc", "street": "320 Terrell Dr Sw", "city": "Marietta", "state": "GA", "zip": "30064-2923", "category": "Community Capacity Bldg", "description": "Chambers of Commerce & Business Leagues", "ntee_code": "S41", "asset_amt": 0, "income_amt": 0, "revenue_amt": 0, "lat": 33.944183349609396, "long": -84.595870971679702 }, "geometry": { "type": "Point", "coordinates": [ -84.595870971679702, 33.944183349609396 ] } },
{ "type": "Feature", "properties": { "ein": "050566060", "name": "Second Chance Ministry P H O D", "street": "956 Hodges Ct", "city": "Marietta", "state": "GA", "zip": "30064-6422", "category": "Religious", "description": "Protestant", "ntee_code": "X21", "asset_amt": 0, "income_amt": 0, "revenue_amt": 0, "lat": 33.927642822265604, "long": -84.639083862304702 }, "geometry": { "type": "Point", "coordinates": [ -84.639083862304702, 33.927642822265604 ] } },
{ "type": "Feature", "properties": { "ein": "010898956", "name": "Core Ministries International", "street": "2495 Smith Ave Sw", "city": "Marietta", "state": "GA", "zip": "30064-4218", "category": "Religious", "description": "Protestant", "ntee_code": "X21", "asset_amt": 0, "income_amt": 0, "revenue_amt": 0, "lat": 33.893009185791001, "long": -84.628448486328097 }, "geometry": { "type": "Point", "coordinates": [ -84.628448486328097, 33.893009185791001 ] } },
{ "type": "Feature", "properties": { "ein": "010814709", "name": "Gods Evangelistic Ministries International Inc", "street": "1615 Cobb Pkwy N Apt 7303", "city": "Marietta", "state": "GA", "zip": "30062-9211", "category": "Religious", "description": "Christianity", "ntee_code": "X20", "asset_amt": null, "income_amt": null, "revenue_amt": null, "lat": 33.9912109375, "long": -84.578514099121094 }, "geometry": { "type": "Point", "coordinates": [ -84.578514099121094, 33.9912109375 ] } },
{ "type": "Feature", "properties": { "ein": "010911681", "name": "Issele-Uku Association Of Atlanta Inc", "street": "1069 Lakefield Walk", "city": "Marietta", "state": "GA", "zip": "30064-5758", "category": "Human Services", "description": "Human Services", "ntee_code": "P20", "asset_amt": 0, "income_amt": 0, "revenue_amt": 0, "lat": 33.930244445800803, "long": -84.6300048828125 }, "geometry": { "type": "Point", "coordinates": [ -84.6300048828125, 33.930244445800803 ] } },
{ "type": "Feature", "properties": { "ein": "200878440", "name": "Hoenes Foundation Inc", "street": "167 Lake Somerset Dr Nw", "city": "Marietta", "state": "GA", "zip": "30064-1719", "category": "Philanthropy", "description": "Private Independent Foundations", "ntee_code": "T22", "asset_amt": 7381, "income_amt": 1000, "revenue_amt": null, "lat": 33.957592010497997, "long": -84.647270202636705 }, "geometry": { "type": "Point", "coordinates": [ -84.647270202636705, 33.957592010497997 ] } },
{ "type": "Feature", "properties": { "ein": "020721666", "name": "Lighting The Way Ministries Inc", "street": "4401 Marsh Rd", "city": "Marietta", "state": "GA", "zip": "30066-1830", "category": "Religious", "description": "Alliances & Advocacy", "ntee_code": "X01", "asset_amt": 0, "income_amt": 0, "revenue_amt": 0, "lat": 34.0580863952637, "long": -84.510543823242202 }, "geometry": { "type": "Point", "coordinates": [ -84.510543823242202, 34.0580863952637 ] } },
{ "type": "Feature", "properties": { "ein": "200557250", "name": "Light Of Christ Anglican Church Inc", "street": "1275 Kennestone Cir Ste 500", "city": "Marietta", "state": "GA", "zip": "30066-6038", "category": "Religious", "description": "Christianity", "ntee_code": "X20", "asset_amt": null, "income_amt": null, "revenue_amt": null, "lat": 33.980117797851598, "long": -84.549797058105497 }, "geometry": { "type": "Point", "coordinates": [ -84.549797058105497, 33.980117797851598 ] } },
{ "type": "Feature", "properties": { "ein": "113767801", "name": "Heritage Hospice Foundation", "street": "3315 Hilltop Dr", "city": "Marietta", "state": "GA", "zip": "30066-3787", "category": "Human Services", "description": "Emergency Assistance", "ntee_code": "P60", "asset_amt": 0, "income_amt": 0, "revenue_amt": 0, "lat": 34.0307807922363, "long": -84.529327392578097 }, "geometry": { "type": "Point", "coordinates": [ -84.529327392578097, 34.0307807922363 ] } },
{ "type": "Feature", "properties": { "ein": "010730818", "name": "Ciudad De Angeles Inc", "street": "5240 Roswell Rd", "city": "Marietta", "state": "GA", "zip": "30062-6523", "category": "Human Services", "description": "Residential Care & Adult Day Programs", "ntee_code": "P70", "asset_amt": 554915, "income_amt": 664440, "revenue_amt": 664440, "lat": 34.001693725585902, "long": -84.398422241210909 }, "geometry": { "type": "Point", "coordinates": [ -84.398422241210909, 34.001693725585902 ] } },
{ "type": "Feature", "properties": { "ein": "020560194", "name": "Turner Hill Community Development Corporation", "street": "C\/O Sundra Vann 492 N Marietta Pkwy", "city": "Marietta", "state": "GA", "zip": "30060-0000", "category": "Community Capacity Bldg", "description": "Community & Neighborhood Development", "ntee_code": "S20", "asset_amt": 69412, "income_amt": 160345, "revenue_amt": 160345, "lat": 33.958782196044901, "long": -84.537025451660199 }, "geometry": { "type": "Point", "coordinates": [ -84.537025451660199, 33.958782196044901 ] } },
{ "type": "Feature", "properties": { "ein": "043500963", "name": "Bacnet Manufacturers Association Inc", "street": "2900 Delk Rd Se Ste 700 Pmb 321", "city": "Marietta", "state": "GA", "zip": "30067-5350", "category": "Community Capacity Bldg", "description": "Chambers of Commerce & Business Leagues", "ntee_code": "S41", "asset_amt": 1724804, "income_amt": 1438739, "revenue_amt": 1438739, "lat": 33.923870086669901, "long": -84.467498779296903 }, "geometry": { "type": "Point", "coordinates": [ -84.467498779296903, 33.923870086669901 ] } },
{ "type": "Feature", "properties": { "ein": "200042283", "name": "Franklin E & Lettie B Nixon Christian Foundation Inc", "street": "810 Dorado Cir Se", "city": "Marietta", "state": "GA", "zip": "30067-4731", "category": "Philanthropy", "description": "Private Grantmaking Foundations", "ntee_code": "T20", "asset_amt": 2751, "income_amt": 1, "revenue_amt": null, "lat": 33.931789398193395, "long": -84.428237915039091 }, "geometry": { "type": "Point", "coordinates": [ -84.428237915039091, 33.931789398193395 ] } },
{ "type": "Feature", "properties": { "ein": "061709921", "name": "Lumos Foundation Inc", "street": "4250 Paper Mill Rd Se", "city": "Marietta", "state": "GA", "zip": "30067-4725", "category": "Philanthropy", "description": "Private Independent Foundations", "ntee_code": "T22", "asset_amt": 2252999, "income_amt": 1577914, "revenue_amt": null, "lat": 33.946678161621101, "long": -84.430076599121094 }, "geometry": { "type": "Point", "coordinates": [ -84.430076599121094, 33.946678161621101 ] } },
{ "type": "Feature", "properties": { "ein": "020592761", "name": "Indonesian Community Church", "street": "3623 Robinson Walk Dr", "city": "Marietta", "state": "GA", "zip": "30068-2455", "category": "Religious", "description": "Christianity", "ntee_code": "X20", "asset_amt": null, "income_amt": null, "revenue_amt": null, "lat": 33.974849700927699, "long": -84.446357727050795 }, "geometry": { "type": "Point", "coordinates": [ -84.446357727050795, 33.974849700927699 ] } },
{ "type": "Feature", "properties": { "ein": "200148170", "name": "Green Meeting Industry Council Inc", "street": "2900 Delk Rd Se Ste 700 Pmb 321", "city": "Marietta", "state": "GA", "zip": "30067-5350", "category": "Community Capacity Bldg", "description": "Chambers of Commerce & Business Leagues", "ntee_code": "S41", "asset_amt": 91598, "income_amt": 403417, "revenue_amt": 403417, "lat": 33.923870086669901, "long": -84.467498779296903 }, "geometry": { "type": "Point", "coordinates": [ -84.467498779296903, 33.923870086669901 ] } },
{ "type": "Feature", "properties": { "ein": "134320991", "name": "Christian Rites Of Passage Inc", "street": "3100 Gant Quarters Way", "city": "Marietta", "state": "GA", "zip": "30068-3742", "category": "Religious", "description": "Christianity", "ntee_code": "X20", "asset_amt": 0, "income_amt": 0, "revenue_amt": 0, "lat": 33.949111938476598, "long": -84.462867736816406 }, "geometry": { "type": "Point", "coordinates": [ -84.462867736816406, 33.949111938476598 ] } },
{ "type": "Feature", "properties": { "ein": "201726792", "name": "Iglesia Cristiana Pentecostal Del Mmm", "street": "6400 Atlantic Blvd Ste 140", "city": "Norcross", "state": "GA", "zip": "30071-1214", "category": "Religious", "description": "Christianity", "ntee_code": "X20", "asset_amt": null, "income_amt": null, "revenue_amt": null, "lat": 33.939056396484396, "long": -84.237106323242202 }, "geometry": { "type": "Point", "coordinates": [ -84.237106323242202, 33.939056396484396 ] } },
{ "type": "Feature", "properties": { "ein": "043706794", "name": "You Can Make The Difference Limited", "street": "6180 Atlantic Blvd", "city": "Norcross", "state": "GA", "zip": "30071-1309", "category": "Public Social Benefit", "description": "Public & Societal Benefit NEC", "ntee_code": "W99", "asset_amt": 0, "income_amt": 0, "revenue_amt": 0, "lat": 33.942295074462898, "long": -84.230812072753906 }, "geometry": { "type": "Point", "coordinates": [ -84.230812072753906, 33.942295074462898 ] } },
{ "type": "Feature", "properties": { "ein": "200943038", "name": "Drake House Inc", "street": "10500 Clara Drive", "city": "Roswell", "state": "GA", "zip": "30075-7690", "category": "Housing Shelter", "description": "Homeless Shelters", "ntee_code": "L41", "asset_amt": 2314030, "income_amt": 1365509, "revenue_amt": 1346709, "lat": 34.035652160644496, "long": -84.345611572265597 }, "geometry": { "type": "Point", "coordinates": [ -84.345611572265597, 34.035652160644496 ] } },
{ "type": "Feature", "properties": { "ein": "061788019", "name": "Roswell Community Masjid Inc", "street": "345 Market Pl", "city": "Roswell", "state": "GA", "zip": "30075-3993", "category": "Religious", "description": "Islam", "ntee_code": "X40", "asset_amt": null, "income_amt": null, "revenue_amt": null, "lat": 34.030078887939503, "long": -84.340431213378906 }, "geometry": { "type": "Point", "coordinates": [ -84.340431213378906, 34.030078887939503 ] } },
{ "type": "Feature", "properties": { "ein": "200302842", "name": "New Orleans Baptist Ministries Inc", "street": "535 Colonial Park Dr Ste A100", "city": "Roswell", "state": "GA", "zip": "30075-3779", "category": "Religious", "description": "Support NEC", "ntee_code": "X19", "asset_amt": null, "income_amt": null, "revenue_amt": null, "lat": 34.032741546630895, "long": -84.345382690429702 }, "geometry": { "type": "Point", "coordinates": [ -84.345382690429702, 34.032741546630895 ] } },
{ "type": "Feature", "properties": { "ein": "200329110", "name": "Mongolia Ministries Inc", "street": "3605 Sandy Plains Rd Ste 244-222", "city": "Marietta", "state": "GA", "zip": "30066-3068", "category": "Religious", "description": "Protestant", "ntee_code": "X21", "asset_amt": 6520, "income_amt": 16790, "revenue_amt": 16790, "lat": 34.036857604980504, "long": -84.462348937988295 }, "geometry": { "type": "Point", "coordinates": [ -84.462348937988295, 34.036857604980504 ] } },
{ "type": "Feature", "properties": { "ein": "030423620", "name": "Victory World Christian School Inc", "street": "5905 Brook Hollow Pkwy", "city": "Norcross", "state": "GA", "zip": "30071-3533", "category": "Philanthropy", "description": "Community Foundations", "ntee_code": "T31", "asset_amt": 513711, "income_amt": 815774, "revenue_amt": 815774, "lat": 33.918815612793004, "long": -84.204910278320298 }, "geometry": { "type": "Point", "coordinates": [ -84.204910278320298, 33.918815612793004 ] } },
{ "type": "Feature", "properties": { "ein": "010878619", "name": "Believe Ministries Inc", "street": "110 Roswell Farms Cir", "city": "Roswell", "state": "GA", "zip": "30075-4351", "category": "Religious", "description": "Christianity", "ntee_code": "X20", "asset_amt": 45032, "income_amt": 61473, "revenue_amt": 61473, "lat": 34.018489837646499, "long": -84.369781494140597 }, "geometry": { "type": "Point", "coordinates": [ -84.369781494140597, 34.018489837646499 ] } },
{ "type": "Feature", "properties": { "ein": "200040238", "name": "Billie S Been Foundation Inc", "street": "300 Colonial Center Parkway", "city": "Roswell", "state": "GA", "zip": "30076-4899", "category": "Philanthropy", "description": "Private Independent Foundations", "ntee_code": "T22", "asset_amt": 228075, "income_amt": 4230, "revenue_amt": null, "lat": 34.043933868408196, "long": -84.326347351074205 }, "geometry": { "type": "Point", "coordinates": [ -84.326347351074205, 34.043933868408196 ] } },
{ "type": "Feature", "properties": { "ein": "161761224", "name": "Voter Ga", "street": "220 Tallow Box Dr", "city": "Roswell", "state": "GA", "zip": "30076-3425", "category": "Civil Rights", "description": "Voter Education & Registration", "ntee_code": "R40", "asset_amt": 0, "income_amt": 0, "revenue_amt": 0, "lat": 34.0032348632812, "long": -84.287528991699205 }, "geometry": { "type": "Point", "coordinates": [ -84.287528991699205, 34.0032348632812 ] } },
{ "type": "Feature", "properties": { "ein": "201381671", "name": "Grace Summit Inc", "street": "2304 Macy Dr", "city": "Roswell", "state": "GA", "zip": "30076-6342", "category": "Religious", "description": "Christianity", "ntee_code": "X20", "asset_amt": 88703, "income_amt": 189804, "revenue_amt": 189804, "lat": 34.0489501953125, "long": -84.360122680664091 }, "geometry": { "type": "Point", "coordinates": [ -84.360122680664091, 34.0489501953125 ] } },
{ "type": "Feature", "properties": { "ein": "020537582", "name": "Day Of Change International Ministries", "street": "2482 Pierce Cir", "city": "Snellville", "state": "GA", "zip": "30078-5766", "category": "Human Services", "description": "Child Day Care", "ntee_code": "P33", "asset_amt": 0, "income_amt": 0, "revenue_amt": 0, "lat": 33.846244812011697, "long": -84.029960632324205 }, "geometry": { "type": "Point", "coordinates": [ -84.029960632324205, 33.846244812011697 ] } },
{ "type": "Feature", "properties": { "ein": "200338959", "name": "Cup Of Joy Inc", "street": "1775 Woodstock Rd Ste 150", "city": "Roswell", "state": "GA", "zip": "30075-8222", "category": "Religious", "description": "Christianity", "ntee_code": "X20", "asset_amt": 36019, "income_amt": 180956, "revenue_amt": 180956, "lat": 34.060573577880895, "long": -84.413230895996094 }, "geometry": { "type": "Point", "coordinates": [ -84.413230895996094, 34.060573577880895 ] } },
{ "type": "Feature", "properties": { "ein": "061838604", "name": "Well Of Water Ministries", "street": "7008 Roundtable Ct Se", "city": "Smyrna", "state": "GA", "zip": "30080-5735", "category": "Human Services", "description": "Personal Social Services", "ntee_code": "P50", "asset_amt": 0, "income_amt": 0, "revenue_amt": 0, "lat": 33.861446380615199, "long": -84.511665344238295 }, "geometry": { "type": "Point", "coordinates": [ -84.511665344238295, 33.861446380615199 ] } },
{ "type": "Feature", "properties": { "ein": "061618190", "name": "Georgia Production Partnership Inc", "street": "1704 Rose Mill Way Se", "city": "Smyrna", "state": "GA", "zip": "30080-1607", "category": "Community Capacity Bldg", "description": "Chambers of Commerce & Business Leagues", "ntee_code": "S41", "asset_amt": 51853, "income_amt": 64118, "revenue_amt": 58960, "lat": 33.872894287109396, "long": -84.503883361816406 }, "geometry": { "type": "Point", "coordinates": [ -84.503883361816406, 33.872894287109396 ] } },
{ "type": "Feature", "properties": { "ein": "201127103", "name": "Greater Refuge Tabernacle Ministries International", "street": "4611 Greer Circle", "city": "Stone Mountain", "state": "GA", "zip": "30083-1024", "category": "Religious", "description": "Christianity", "ntee_code": "X20", "asset_amt": 71087, "income_amt": 75783, "revenue_amt": 75783, "lat": 33.832054138183601, "long": -84.200614929199205 }, "geometry": { "type": "Point", "coordinates": [ -84.200614929199205, 33.832054138183601 ] } },
{ "type": "Feature", "properties": { "ein": "050530551", "name": "Christ Covenant Church Inc", "street": "4275 Sheppard Xing Way", "city": "Stone Mtn", "state": "GA", "zip": "30083-4598", "category": "Religious", "description": "Christianity", "ntee_code": "X20", "asset_amt": null, "income_amt": null, "revenue_amt": null, "lat": 33.783878326416001, "long": -84.210998535156207 }, "geometry": { "type": "Point", "coordinates": [ -84.210998535156207, 33.783878326416001 ] } },
{ "type": "Feature", "properties": { "ein": "200172496", "name": "Gods Inner Faith Temple & Sanctuary Ltd", "street": "861 Holcomb Bridge Rd Ste 109", "city": "Roswell", "state": "GA", "zip": "30076-1900", "category": "Religious", "description": "Christianity", "ntee_code": "X20", "asset_amt": null, "income_amt": null, "revenue_amt": null, "lat": 34.029075622558601, "long": -84.336517333984403 }, "geometry": { "type": "Point", "coordinates": [ -84.336517333984403, 34.029075622558601 ] } },
{ "type": "Feature", "properties": { "ein": "200304712", "name": "Brookwood Tip-Off Club Inc", "street": "1255 Dogwood Rd", "city": "Snellville", "state": "GA", "zip": "30078-2249", "category": "Human Services", "description": "Centers to Support the Independence of Specific Populations", "ntee_code": "P80", "asset_amt": 12949, "income_amt": 95484, "revenue_amt": 82331, "lat": 33.884109497070305, "long": -84.038024902343793 }, "geometry": { "type": "Point", "coordinates": [ -84.038024902343793, 33.884109497070305 ] } },
{ "type": "Feature", "properties": { "ein": "020180534", "name": "New Saints Tree Of Life Deliverance Church International Inc", "street": "4512 Allgood Springs Dr", "city": "Stone Mtn", "state": "GA", "zip": "30083-4812", "category": "Religious", "description": "Protestant", "ntee_code": "X21", "asset_amt": null, "income_amt": null, "revenue_amt": null, "lat": 33.778110504150398, "long": -84.209693908691406 }, "geometry": { "type": "Point", "coordinates": [ -84.209693908691406, 33.778110504150398 ] } },
{ "type": "Feature", "properties": { "ein": "201544873", "name": "New Vision Ministries", "street": "476 Halwick Way", "city": "Stone Mtn", "state": "GA", "zip": "30083-4377", "category": "Religious", "description": "Christianity", "ntee_code": "X20", "asset_amt": null, "income_amt": null, "revenue_amt": null, "lat": 33.7898979187012, "long": -84.198410034179702 }, "geometry": { "type": "Point", "coordinates": [ -84.198410034179702, 33.7898979187012 ] } },
{ "type": "Feature", "properties": { "ein": "010867165", "name": "Omore Taya Inc", "street": "4297 Tucker North Ct", "city": "Tucker", "state": "GA", "zip": "30084-3632", "category": "Philanthropy", "description": "Private Grantmaking Foundations", "ntee_code": "T20", "asset_amt": 55498, "income_amt": 97986, "revenue_amt": null, "lat": 33.865570068359396, "long": -84.210853576660199 }, "geometry": { "type": "Point", "coordinates": [ -84.210853576660199, 33.865570068359396 ] } },
{ "type": "Feature", "properties": { "ein": "061673042", "name": "Abba House Human Development And Resources Center Of Georgia", "street": "730 Rowland Rd", "city": "Stone Mtn", "state": "GA", "zip": "30083-4837", "category": "Human Services", "description": "Residential Care & Adult Day Programs", "ntee_code": "P70", "asset_amt": 116237, "income_amt": 444620, "revenue_amt": 444620, "lat": 33.776271820068395, "long": -84.205955505371094 }, "geometry": { "type": "Point", "coordinates": [ -84.205955505371094, 33.776271820068395 ] } },
{ "type": "Feature", "properties": { "ein": "030504593", "name": "Enlightenment Buddhist Association Inc", "street": "690 Belgrave Ln", "city": "Tucker", "state": "GA", "zip": "30084-2076", "category": "Religious", "description": "Buddhism", "ntee_code": "X50", "asset_amt": null, "income_amt": null, "revenue_amt": null, "lat": 33.883113861083999, "long": -84.175704956054702 }, "geometry": { "type": "Point", "coordinates": [ -84.175704956054702, 33.883113861083999 ] } },
{ "type": "Feature", "properties": { "ein": "134203311", "name": "Congregation Beth Adonai", "street": "4129 Bancroft Cir", "city": "Tucker", "state": "GA", "zip": "30084-4411", "category": "Religious", "description": "Judaism", "ntee_code": "X30", "asset_amt": null, "income_amt": null, "revenue_amt": null, "lat": 33.852577209472699, "long": -84.219406127929702 }, "geometry": { "type": "Point", "coordinates": [ -84.219406127929702, 33.852577209472699 ] } },
{ "type": "Feature", "properties": { "ein": "134211895", "name": "Light Of Hope Outreach Inc", "street": "778 Rays Rd Ste 103", "city": "Stone Mtn", "state": "GA", "zip": "30083-3107", "category": "Religious", "description": "Christianity", "ntee_code": "X20", "asset_amt": 0, "income_amt": 0, "revenue_amt": 0, "lat": 33.801303863525398, "long": -84.220390319824205 }, "geometry": { "type": "Point", "coordinates": [ -84.220390319824205, 33.801303863525398 ] } },
{ "type": "Feature", "properties": { "ein": "134281826", "name": "Magnolia Gardens Pch Inc", "street": "778 Rays Rd Ste 108", "city": "Stone Mtn", "state": "GA", "zip": "30083-3107", "category": "Human Services", "description": "Human Services NEC", "ntee_code": "P99", "asset_amt": 0, "income_amt": 695908, "revenue_amt": 695908, "lat": 33.801303863525398, "long": -84.220390319824205 }, "geometry": { "type": "Point", "coordinates": [ -84.220390319824205, 33.801303863525398 ] } },
{ "type": "Feature", "properties": { "ein": "020688518", "name": "Childrens Hope International Inc", "street": "3394 Canadian Way", "city": "Tucker", "state": "GA", "zip": "30084-8101", "category": "Human Services", "description": "Children & Youth Services", "ntee_code": "P30", "asset_amt": 0, "income_amt": 0, "revenue_amt": 0, "lat": 33.823829650878899, "long": -84.249656677246094 }, "geometry": { "type": "Point", "coordinates": [ -84.249656677246094, 33.823829650878899 ] } },
{ "type": "Feature", "properties": { "ein": "010719322", "name": "Christian Mission Of Atlanta", "street": "5561 Memorial Dr Ste L", "city": "Stone Mtn", "state": "GA", "zip": "30083-3237", "category": "Religious", "description": "Protestant", "ntee_code": "X21", "asset_amt": null, "income_amt": null, "revenue_amt": null, "lat": 33.800628662109396, "long": -84.211860656738295 }, "geometry": { "type": "Point", "coordinates": [ -84.211860656738295, 33.800628662109396 ] } },
{ "type": "Feature", "properties": { "ein": "133888854", "name": "Vedanta West Communications Inc", "street": "2331 Brockett Rd", "city": "Tucker", "state": "GA", "zip": "30084-4412", "category": "Religious", "description": "Interfaith Coalitions", "ntee_code": "X90", "asset_amt": 0, "income_amt": 0, "revenue_amt": 0, "lat": 33.853340148925803, "long": -84.223083496093793 }, "geometry": { "type": "Point", "coordinates": [ -84.223083496093793, 33.853340148925803 ] } },
{ "type": "Feature", "properties": { "ein": "200354682", "name": "505 Inc", "street": "5622 Shadow View Dr", "city": "Stone Mtn", "state": "GA", "zip": "30087-2952", "category": "Religious", "description": "Christianity", "ntee_code": "X20", "asset_amt": 2911, "income_amt": 5700, "revenue_amt": 5700, "lat": 33.845455169677699, "long": -84.142677307128906 }, "geometry": { "type": "Point", "coordinates": [ -84.142677307128906, 33.845455169677699 ] } },
{ "type": "Feature", "properties": { "ein": "043770274", "name": "Precious Living Inc", "street": "448 Registry Blf", "city": "Stone Mtn", "state": "GA", "zip": "30087-6602", "category": "Human Services", "description": "Residential Care & Adult Day Programs", "ntee_code": "P70", "asset_amt": 1, "income_amt": 153091, "revenue_amt": 153091, "lat": 33.787925720214801, "long": -84.104011535644503 }, "geometry": { "type": "Point", "coordinates": [ -84.104011535644503, 33.787925720214801 ] } },
{ "type": "Feature", "properties": { "ein": "020740920", "name": "Atlanta Holland Club Inc", "street": "5119 Chastleton Dr", "city": "Stone Mtn", "state": "GA", "zip": "30087-1443", "category": "Human Services", "description": "Ethnic & Immigrant Centers", "ntee_code": "P84", "asset_amt": 0, "income_amt": 0, "revenue_amt": 0, "lat": 33.839637756347699, "long": -84.177932739257798 }, "geometry": { "type": "Point", "coordinates": [ -84.177932739257798, 33.839637756347699 ] } },
{ "type": "Feature", "properties": { "ein": "043264425", "name": "Christian Initiatives And Technical Education Inc", "street": "778 Deer Lake Trl", "city": "Stone Mtn", "state": "GA", "zip": "30087-5463", "category": "Community Capacity Bldg", "description": "Community & Neighborhood Development", "ntee_code": "S20", "asset_amt": 0, "income_amt": 0, "revenue_amt": 0, "lat": 33.799152374267599, "long": -84.1112060546875 }, "geometry": { "type": "Point", "coordinates": [ -84.1112060546875, 33.799152374267599 ] } },
{ "type": "Feature", "properties": { "ein": "030543692", "name": "Cruse Of Oil Ministries", "street": "698 Wynbrooke Pkwy", "city": "Stone Mtn", "state": "GA", "zip": "30087-4799", "category": "Religious", "description": "Christianity", "ntee_code": "X20", "asset_amt": null, "income_amt": null, "revenue_amt": null, "lat": 33.792655944824197, "long": -84.109375 }, "geometry": { "type": "Point", "coordinates": [ -84.109375, 33.792655944824197 ] } },
{ "type": "Feature", "properties": { "ein": "043610471", "name": "Truth Evangelistic Ministries Inc", "street": "544 Julius Dr", "city": "Stone Mtn", "state": "GA", "zip": "30087-5903", "category": "Religious", "description": "Christianity", "ntee_code": "X20", "asset_amt": null, "income_amt": null, "revenue_amt": null, "lat": 33.791183471679695, "long": -84.155784606933594 }, "geometry": { "type": "Point", "coordinates": [ -84.155784606933594, 33.791183471679695 ] } },
{ "type": "Feature", "properties": { "ein": "043613843", "name": "All Gods Little Children", "street": "5833 Oakleaf Way", "city": "Stone Mtn", "state": "GA", "zip": "30087-5132", "category": "Human Services", "description": "Emergency Assistance", "ntee_code": "P60", "asset_amt": 0, "income_amt": 0, "revenue_amt": 0, "lat": 33.781791687011697, "long": -84.150779724121094 }, "geometry": { "type": "Point", "coordinates": [ -84.150779724121094, 33.781791687011697 ] } },
{ "type": "Feature", "properties": { "ein": "020790900", "name": "Ministers United By Christ", "street": "5143 Oak Leaf Ter", "city": "Stone Mtn", "state": "GA", "zip": "30087-3253", "category": "Religious", "description": "Christianity", "ntee_code": "X20", "asset_amt": 1, "income_amt": 15345, "revenue_amt": 15345, "lat": 33.831859588622997, "long": -84.111976623535199 }, "geometry": { "type": "Point", "coordinates": [ -84.111976623535199, 33.831859588622997 ] } },
{ "type": "Feature", "properties": { "ein": "161618814", "name": "Reaching The Lost Agape Ministries Inc", "street": "4927 Woodhurst Way", "city": "Stone Mtn", "state": "GA", "zip": "30088-3525", "category": "Religious", "description": "Christianity", "ntee_code": "X20", "asset_amt": null, "income_amt": null, "revenue_amt": null, "lat": 33.749095916747997, "long": -84.188888549804702 }, "geometry": { "type": "Point", "coordinates": [ -84.188888549804702, 33.749095916747997 ] } },
{ "type": "Feature", "properties": { "ein": "200066467", "name": "Faith Works Ministries Inc", "street": "5314 Oshea Ln", "city": "Stone Mtn", "state": "GA", "zip": "30088-1417", "category": "Religious", "description": "Christianity", "ntee_code": "X20", "asset_amt": null, "income_amt": null, "revenue_amt": null, "lat": 33.785915374755895, "long": -84.172775268554702 }, "geometry": { "type": "Point", "coordinates": [ -84.172775268554702, 33.785915374755895 ] } },
{ "type": "Feature", "properties": { "ein": "010582284", "name": "Community Connections Inc", "street": "2300 W Park Place Blvd Ste 114", "city": "Stone Mtn", "state": "GA", "zip": "30087-3561", "category": "Human Services", "description": "Foster Care", "ntee_code": "P32", "asset_amt": 837378, "income_amt": 2248919, "revenue_amt": 2248919, "lat": 33.814323425293004, "long": -84.113487243652301 }, "geometry": { "type": "Point", "coordinates": [ -84.113487243652301, 33.814323425293004 ] } },
{ "type": "Feature", "properties": { "ein": "030492697", "name": "Bible Based Community Church Inc", "street": "5693 Pennybrook Ct", "city": "Stone Mtn", "state": "GA", "zip": "30087-5753", "category": "Religious", "description": "Christianity", "ntee_code": "X20", "asset_amt": null, "income_amt": null, "revenue_amt": null, "lat": 33.792892456054695, "long": -84.157264709472699 }, "geometry": { "type": "Point", "coordinates": [ -84.157264709472699, 33.792892456054695 ] } },
{ "type": "Feature", "properties": { "ein": "061721841", "name": "War Ministries Inc", "street": "1463 Stoneleigh Way", "city": "Stone Mtn", "state": "GA", "zip": "30088-3429", "category": "Human Services", "description": "Human Services", "ntee_code": "P20", "asset_amt": 0, "income_amt": 0, "revenue_amt": 0, "lat": 33.747714996337898, "long": -84.16259765625 }, "geometry": { "type": "Point", "coordinates": [ -84.16259765625, 33.747714996337898 ] } },
{ "type": "Feature", "properties": { "ein": "030563105", "name": "Deliverance Crew Ministries Inc", "street": "5332 Kelleys Creek Dr", "city": "Stone Mtn", "state": "GA", "zip": "30088-3827", "category": "Religious", "description": "Protestant", "ntee_code": "X21", "asset_amt": 0, "income_amt": 0, "revenue_amt": 0, "lat": 33.746158599853501, "long": -84.171524047851591 }, "geometry": { "type": "Point", "coordinates": [ -84.171524047851591, 33.746158599853501 ] } },
{ "type": "Feature", "properties": { "ein": "201155764", "name": "Mingledorffs Charitable Tr", "street": "6675 Jones Mill Ct", "city": "Norcross", "state": "GA", "zip": "30092-3622", "category": "Philanthropy", "description": "Public Foundations", "ntee_code": "T30", "asset_amt": 0, "income_amt": 0, "revenue_amt": 0, "lat": 33.943389892578104, "long": -84.252723693847699 }, "geometry": { "type": "Point", "coordinates": [ -84.252723693847699, 33.943389892578104 ] } },
{ "type": "Feature", "properties": { "ein": "134204733", "name": "Industrial Asset Management Council Inc", "street": "6625 The Corners Pkwy Ste 200", "city": "Norcross", "state": "GA", "zip": "30092-3334", "category": "Community Capacity Bldg", "description": "Chambers of Commerce & Business Leagues", "ntee_code": "S41", "asset_amt": 3618204, "income_amt": 2663831, "revenue_amt": 2663831, "lat": 33.958797454833999, "long": -84.236671447753906 }, "geometry": { "type": "Point", "coordinates": [ -84.236671447753906, 33.958797454833999 ] } },
{ "type": "Feature", "properties": { "ein": "133200719", "name": "Ravi Zacharias International Ministries", "street": "4725 Peachtree Corners Cir Ste 250", "city": "Norcross", "state": "GA", "zip": "30092-2586", "category": "Religious", "description": "Christianity", "ntee_code": "X20", "asset_amt": 9191971, "income_amt": 29407538, "revenue_amt": 22113274, "lat": 33.979091644287102, "long": -84.224182128906207 }, "geometry": { "type": "Point", "coordinates": [ -84.224182128906207, 33.979091644287102 ] } },
{ "type": "Feature", "properties": { "ein": "134339476", "name": "A New Way Ministries Inc", "street": "1093 Redwood Dr", "city": "Norcross", "state": "GA", "zip": "30093-3739", "category": "Religious", "description": "Christianity", "ntee_code": "X20", "asset_amt": 1226, "income_amt": 43656, "revenue_amt": 43656, "lat": 33.895439147949197, "long": -84.190704345703097 }, "geometry": { "type": "Point", "coordinates": [ -84.190704345703097, 33.895439147949197 ] } },
{ "type": "Feature", "properties": { "ein": "020749880", "name": "County Line Baptist Church", "street": "5258 Rockbridge Dr", "city": "Stone Mtn", "state": "GA", "zip": "30087-4221", "category": "Religious", "description": "Christianity", "ntee_code": "X20", "asset_amt": null, "income_amt": null, "revenue_amt": null, "lat": 33.7950248718262, "long": -84.092636108398409 }, "geometry": { "type": "Point", "coordinates": [ -84.092636108398409, 33.7950248718262 ] } },
{ "type": "Feature", "properties": { "ein": "010844492", "name": "Christ Evangelistic Ministry", "street": "5567 Memorial Dr Ste G", "city": "St Mountain", "state": "GA", "zip": "30083-3238", "category": "Religious", "description": "Protestant", "ntee_code": "X21", "asset_amt": null, "income_amt": null, "revenue_amt": null, "lat": 33.800647735595696, "long": -84.211555480957003 }, "geometry": { "type": "Point", "coordinates": [ -84.211555480957003, 33.800647735595696 ] } },
{ "type": "Feature", "properties": { "ein": "200824458", "name": "Tabernacle Of David Christian Center Inc", "street": "4281 Steve Reynolds Blvd Ste D", "city": "Norcross", "state": "GA", "zip": "30093-3502", "category": "Religious", "description": "Protestant", "ntee_code": "X21", "asset_amt": 293376, "income_amt": 141030, "revenue_amt": 141030, "lat": 33.927375793456996, "long": -84.147636413574205 }, "geometry": { "type": "Point", "coordinates": [ -84.147636413574205, 33.927375793456996 ] } },
{ "type": "Feature", "properties": { "ein": "200991479", "name": "Zion International Church", "street": "4855 River Green Pkwy Ste 200", "city": "Duluth", "state": "GA", "zip": "30096-8337", "category": "Religious", "description": "Protestant", "ntee_code": "X21", "asset_amt": null, "income_amt": null, "revenue_amt": null, "lat": 34.014015197753899, "long": -84.168190002441406 }, "geometry": { "type": "Point", "coordinates": [ -84.168190002441406, 34.014015197753899 ] } },
{ "type": "Feature", "properties": { "ein": "201588918", "name": "Life Church Of Jesus Inc", "street": "3751 Venture Dr Ste 270", "city": "Duluth", "state": "GA", "zip": "30096-5003", "category": "Religious", "description": "Christianity", "ntee_code": "X20", "asset_amt": null, "income_amt": null, "revenue_amt": null, "lat": 33.953861236572301, "long": -84.132461547851591 }, "geometry": { "type": "Point", "coordinates": [ -84.132461547851591, 33.953861236572301 ] } },
{ "type": "Feature", "properties": { "ein": "020741063", "name": "Broadway Terrace Corporation", "street": "2405 Satellite Blvd Ste 100", "city": "Duluth", "state": "GA", "zip": "30096-9084", "category": "Housing Shelter", "description": "Senior Citizens‰Ûª Housing & Retirement Communities", "ntee_code": "L22", "asset_amt": 1354901, "income_amt": 393642, "revenue_amt": 393642, "lat": 33.975399017333999, "long": -84.093742370605497 }, "geometry": { "type": "Point", "coordinates": [ -84.093742370605497, 33.975399017333999 ] } },
{ "type": "Feature", "properties": { "ein": "113664629", "name": "Georgia Chapter Of Acoem", "street": "3871 Murdock Ct", "city": "Duluth", "state": "GA", "zip": "30096-4308", "category": "Community Capacity Bldg", "description": "Business & Industry", "ntee_code": "S40", "asset_amt": 0, "income_amt": 0, "revenue_amt": 0, "lat": 33.962669372558601, "long": -84.148513793945298 }, "geometry": { "type": "Point", "coordinates": [ -84.148513793945298, 33.962669372558601 ] } },
{ "type": "Feature", "properties": { "ein": "010593102", "name": "Hosannas Horse Granger", "street": "3757 Centennial Trl", "city": "Duluth", "state": "GA", "zip": "30096-6217", "category": "Human Services", "description": "Centers to Support the Independence of Specific Populations", "ntee_code": "P80", "asset_amt": 1, "income_amt": 1, "revenue_amt": null, "lat": 33.958255767822301, "long": -84.174270629882798 }, "geometry": { "type": "Point", "coordinates": [ -84.174270629882798, 33.958255767822301 ] } },
{ "type": "Feature", "properties": { "ein": "020796936", "name": "Blankets Of Love Outreach Inc", "street": "1902 Dilcrest Dr", "city": "Duluth", "state": "GA", "zip": "30096-8975", "category": "Philanthropy", "description": "Public Foundations", "ntee_code": "T30", "asset_amt": 0, "income_amt": 0, "revenue_amt": 0, "lat": 33.955875396728501, "long": -84.117301940917997 }, "geometry": { "type": "Point", "coordinates": [ -84.117301940917997, 33.955875396728501 ] } },
{ "type": "Feature", "properties": { "ein": "113667032", "name": "Theology Cafe Inc", "street": "3495 Tulip Tree Ln", "city": "Duluth", "state": "GA", "zip": "30096-5332", "category": "Religious", "description": "Christianity", "ntee_code": "X20", "asset_amt": 0, "income_amt": 0, "revenue_amt": 0, "lat": 34.011325836181605, "long": -84.169143676757798 }, "geometry": { "type": "Point", "coordinates": [ -84.169143676757798, 34.011325836181605 ] } },
{ "type": "Feature", "properties": { "ein": "200146362", "name": "Ncr Charity Corporation", "street": "3095 Satellite Blvd Bldg 800", "city": "Duluth", "state": "GA", "zip": "30096-5814", "category": "Philanthropy", "description": "Corporate Foundations", "ntee_code": "T21", "asset_amt": 63356, "income_amt": 100540, "revenue_amt": 100540, "lat": 33.962337493896499, "long": -84.114288330078097 }, "geometry": { "type": "Point", "coordinates": [ -84.114288330078097, 33.962337493896499 ] } },
{ "type": "Feature", "properties": { "ein": "030387765", "name": "Latter Rain Ministries Inc", "street": "2386 Bransley Pl", "city": "Duluth", "state": "GA", "zip": "30097-4336", "category": "Religious", "description": "Christianity", "ntee_code": "X20", "asset_amt": null, "income_amt": null, "revenue_amt": null, "lat": 34.005088806152301, "long": -84.115127563476591 }, "geometry": { "type": "Point", "coordinates": [ -84.115127563476591, 34.005088806152301 ] } },
{ "type": "Feature", "properties": { "ein": "161463549", "name": "Baroda Medical College Foundation Inc", "street": "2783 Thurleston Ln", "city": "Duluth", "state": "GA", "zip": "30097-4999", "category": "Philanthropy", "description": "Private Grantmaking Foundations", "ntee_code": "T20", "asset_amt": 113803, "income_amt": 78363, "revenue_amt": 4317, "lat": 33.988529205322301, "long": -84.115692138671903 }, "geometry": { "type": "Point", "coordinates": [ -84.115692138671903, 33.988529205322301 ] } },
{ "type": "Feature", "properties": { "ein": "030400974", "name": "Swiss-American Chamber Of Commerce Inc", "street": "11460 Johns Creek Pkwy", "city": "Duluth", "state": "GA", "zip": "30097-1556", "category": "Community Capacity Bldg", "description": "Chambers of Commerce & Business Leagues", "ntee_code": "S41", "asset_amt": 0, "income_amt": 0, "revenue_amt": 0, "lat": 34.055686950683601, "long": -84.171516418457003 }, "geometry": { "type": "Point", "coordinates": [ -84.171516418457003, 34.055686950683601 ] } },
{ "type": "Feature", "properties": { "ein": "030429253", "name": "Society For The Preservation Of Physician Assistant History Inc", "street": "12000 Findley Rd Ste 160", "city": "Johns Creek", "state": "GA", "zip": "30097-1409", "category": "Philanthropy", "description": "Public Foundations", "ntee_code": "T30", "asset_amt": 39075, "income_amt": 267910, "revenue_amt": 267910, "lat": 34.061710357666001, "long": -84.172195434570298 }, "geometry": { "type": "Point", "coordinates": [ -84.172195434570298, 34.061710357666001 ] } },
{ "type": "Feature", "properties": { "ein": "200193694", "name": "Christ Mission International Inc", "street": "3575 Acworth Due West Rd Nw", "city": "Acworth", "state": "GA", "zip": "30101-3811", "category": "Human Services", "description": "Human Services", "ntee_code": "P20", "asset_amt": null, "income_amt": null, "revenue_amt": null, "lat": 34.040157318115199, "long": -84.674774169921903 }, "geometry": { "type": "Point", "coordinates": [ -84.674774169921903, 34.040157318115199 ] } },
{ "type": "Feature", "properties": { "ein": "030508504", "name": "Destiny Seekers International Inc", "street": "3682 Autumn View Dr Nw", "city": "Acworth", "state": "GA", "zip": "30101-7672", "category": "Religious", "description": "Protestant", "ntee_code": "X21", "asset_amt": 0, "income_amt": 0, "revenue_amt": 0, "lat": 34.047611236572301, "long": -84.735702514648409 }, "geometry": { "type": "Point", "coordinates": [ -84.735702514648409, 34.047611236572301 ] } },
{ "type": "Feature", "properties": { "ein": "201286304", "name": "1St & 8Th Support Group", "street": "1401 Downington Vw Nw", "city": "Acworth", "state": "GA", "zip": "30101-8409", "category": "Human Services", "description": "Gift Distribution", "ntee_code": "P58", "asset_amt": 0, "income_amt": 0, "revenue_amt": 0, "lat": 33.990207672119105, "long": -84.7213134765625 }, "geometry": { "type": "Point", "coordinates": [ -84.7213134765625, 33.990207672119105 ] } },
{ "type": "Feature", "properties": { "ein": "201656044", "name": "Good News Atlanta Church Inc", "street": "2550 Pleasant Hill Rd Ste 421", "city": "Duluth", "state": "GA", "zip": "30096-9265", "category": "Religious", "description": "Protestant", "ntee_code": "X21", "asset_amt": null, "income_amt": null, "revenue_amt": null, "lat": 33.968673706054695, "long": -84.144844055175795 }, "geometry": { "type": "Point", "coordinates": [ -84.144844055175795, 33.968673706054695 ] } },
{ "type": "Feature", "properties": { "ein": "200789590", "name": "Safe Harbor Community Church", "street": "5801 Brookstone Cir Nw", "city": "Acworth", "state": "GA", "zip": "30101-4502", "category": "Religious", "description": "Protestant", "ntee_code": "X21", "asset_amt": null, "income_amt": null, "revenue_amt": null, "lat": 33.998821258544901, "long": -84.720085144042997 }, "geometry": { "type": "Point", "coordinates": [ -84.720085144042997, 33.998821258544901 ] } },
{ "type": "Feature", "properties": { "ein": "141969628", "name": "Word To The World Mission Inc", "street": "1207 Creek Forest Ln", "city": "Austell", "state": "GA", "zip": "30106-1486", "category": "Religious", "description": "Christianity", "ntee_code": "X20", "asset_amt": 0, "income_amt": 0, "revenue_amt": 0, "lat": 33.862754821777301, "long": -84.589553833007798 }, "geometry": { "type": "Point", "coordinates": [ -84.589553833007798, 33.862754821777301 ] } },
{ "type": "Feature", "properties": { "ein": "010602272", "name": "African Ministers Charter Inc", "street": "4033 Rhinehart Ct", "city": "Austell", "state": "GA", "zip": "30106-1877", "category": "Religious", "description": "Protestant", "ntee_code": "X21", "asset_amt": null, "income_amt": null, "revenue_amt": null, "lat": 33.8518676757812, "long": -84.614112854003906 }, "geometry": { "type": "Point", "coordinates": [ -84.614112854003906, 33.8518676757812 ] } },
{ "type": "Feature", "properties": { "ein": "141848349", "name": "Radha Madhav Society", "street": "2769 Duluth Hwy", "city": "Duluth", "state": "GA", "zip": "30096-4019", "category": "Religious", "description": "Hinduism", "ntee_code": "X70", "asset_amt": null, "income_amt": null, "revenue_amt": null, "lat": 33.984970092773402, "long": -84.128196716308594 }, "geometry": { "type": "Point", "coordinates": [ -84.128196716308594, 33.984970092773402 ] } },
{ "type": "Feature", "properties": { "ein": "201840769", "name": "Christ Centered Church Incorporated", "street": "7712 Parkside Dr", "city": "Lithia Spgs", "state": "GA", "zip": "30122-6869", "category": "Religious", "description": "Protestant", "ntee_code": "X21", "asset_amt": null, "income_amt": null, "revenue_amt": null, "lat": 33.764484405517599, "long": -84.614707946777301 }, "geometry": { "type": "Point", "coordinates": [ -84.614707946777301, 33.764484405517599 ] } },
{ "type": "Feature", "properties": { "ein": "020728707", "name": "Reachout America Npo Inc", "street": "301 Fontaine Rd Sw", "city": "Mableton", "state": "GA", "zip": "30126-1778", "category": "Human Services", "description": "Personal Social Services", "ntee_code": "P50", "asset_amt": 8168, "income_amt": 32927, "revenue_amt": 32927, "lat": 33.829029083252003, "long": -84.560211181640597 }, "geometry": { "type": "Point", "coordinates": [ -84.560211181640597, 33.829029083252003 ] } },
{ "type": "Feature", "properties": { "ein": "010494042", "name": "Maple Farms Foundation", "street": "4750 Austell Rd", "city": "Austell", "state": "GA", "zip": "30106-2004", "category": "Philanthropy", "description": "Private Grantmaking Foundations", "ntee_code": "T20", "asset_amt": 1574323, "income_amt": 72770, "revenue_amt": null, "lat": 33.838184356689503, "long": -84.611404418945298 }, "geometry": { "type": "Point", "coordinates": [ -84.611404418945298, 33.838184356689503 ] } },
{ "type": "Feature", "properties": { "ein": "061685045", "name": "H U S H Inc", "street": "2726 Beaver Creek Xing", "city": "Powder Spgs", "state": "GA", "zip": "30127-1556", "category": "Philanthropy", "description": "Public Foundations", "ntee_code": "T30", "asset_amt": 0, "income_amt": 0, "revenue_amt": 0, "lat": 33.885475158691399, "long": -84.645240783691406 }, "geometry": { "type": "Point", "coordinates": [ -84.645240783691406, 33.885475158691399 ] } },
{ "type": "Feature", "properties": { "ein": "010766887", "name": "His Hands Extended Inc", "street": "5105 Sophy Dr", "city": "Powder Spgs", "state": "GA", "zip": "30127-5540", "category": "Human Services", "description": "Family Services", "ntee_code": "P40", "asset_amt": 9480, "income_amt": 3848, "revenue_amt": 3848, "lat": 33.901268005371101, "long": -84.702186584472699 }, "geometry": { "type": "Point", "coordinates": [ -84.702186584472699, 33.901268005371101 ] } },
{ "type": "Feature", "properties": { "ein": "161687884", "name": "Vision Center Inc", "street": "5004 Evelyn Way", "city": "Powder Spgs", "state": "GA", "zip": "30127-2055", "category": "Religious", "description": "Protestant", "ntee_code": "X21", "asset_amt": null, "income_amt": null, "revenue_amt": null, "lat": 33.872013092041001, "long": -84.671218872070298 }, "geometry": { "type": "Point", "coordinates": [ -84.671218872070298, 33.872013092041001 ] } },
{ "type": "Feature", "properties": { "ein": "010719532", "name": "Full Counsel Apostolic Ministries", "street": "1311 Veterans Memorial Hwy Sw", "city": "Mableton", "state": "GA", "zip": "30126-3111", "category": "Religious", "description": "Christianity", "ntee_code": "X20", "asset_amt": null, "income_amt": null, "revenue_amt": null, "lat": 33.815891265869105, "long": -84.592697143554702 }, "geometry": { "type": "Point", "coordinates": [ -84.592697143554702, 33.815891265869105 ] } },
{ "type": "Feature", "properties": { "ein": "050578873", "name": "Victory Convenant Ministries Inc", "street": "5148 Martin Farms Ln", "city": "Powder Spgs", "state": "GA", "zip": "30127-8430", "category": "Religious", "description": "Protestant", "ntee_code": "X21", "asset_amt": 0, "income_amt": 0, "revenue_amt": 0, "lat": 33.8301811218262, "long": -84.692443847656207 }, "geometry": { "type": "Point", "coordinates": [ -84.692443847656207, 33.8301811218262 ] } },
{ "type": "Feature", "properties": { "ein": "200365740", "name": "Crossties Ministries Inc", "street": "5254 Miranda Way", "city": "Powder Spgs", "state": "GA", "zip": "30127-8414", "category": "Human Services", "description": "Human Services", "ntee_code": "P20", "asset_amt": 0, "income_amt": 0, "revenue_amt": 0, "lat": 33.8256225585938, "long": -84.691581726074205 }, "geometry": { "type": "Point", "coordinates": [ -84.691581726074205, 33.8256225585938 ] } },
{ "type": "Feature", "properties": { "ein": "201467842", "name": "Atlanta Training Opportunities And Ultimate Careers For Homeless", "street": "3948 Flint Hill Rd", "city": "Powder Spgs", "state": "GA", "zip": "30127-2809", "category": "Housing Shelter", "description": "Homeless Shelters", "ntee_code": "L41", "asset_amt": 0, "income_amt": 0, "revenue_amt": 0, "lat": 33.857303619384801, "long": -84.646156311035199 }, "geometry": { "type": "Point", "coordinates": [ -84.646156311035199, 33.857303619384801 ] } },
{ "type": "Feature", "properties": { "ein": "030546537", "name": "Nekot Humanitarian Services", "street": "5344 Yoshino Ter", "city": "Powder Spgs", "state": "GA", "zip": "30127-6007", "category": "Human Services", "description": "Human Services", "ntee_code": "P20", "asset_amt": 0, "income_amt": 0, "revenue_amt": 0, "lat": 33.883167266845696, "long": -84.711006164550795 }, "geometry": { "type": "Point", "coordinates": [ -84.711006164550795, 33.883167266845696 ] } },
{ "type": "Feature", "properties": { "ein": "134211296", "name": "Living Water Church Incorporated", "street": "4688 Moon Rd", "city": "Powder Spgs", "state": "GA", "zip": "30127-3701", "category": "Religious", "description": "Christianity", "ntee_code": "X20", "asset_amt": null, "income_amt": null, "revenue_amt": null, "lat": 33.888328552246101, "long": -84.690185546875 }, "geometry": { "type": "Point", "coordinates": [ -84.690185546875, 33.888328552246101 ] } },