{
"type": "FeatureCollection",
"name": "atl_nonprofit",
"crs": { "type": "name", "properties": { "name": "urn:ogc:def:crs:OGC:1.3:CRS84" } },
"features": [
{ "type": "Feature", "properties": { "ein": "020567152", "name": "Renaissance Affordable Housing Inc", "street": "230 John Wesley Dobbs Ave Ne", "city": "Atlanta", "state": "GA", "zip": "30303-2429", "category": "Housing Shelter", "description": "Support NEC", "ntee_code": "L19", "asset_amt": 156243, "income_amt": 140, "revenue_amt": 140 }, "geometry": { "type": "Point", "coordinates": [ -84.380020141601591, 33.757461547851598 ] } },
{ "type": "Feature", "properties": { "ein": "020567155", "name": "Strategic Resource Development Corporation", "street": "230 John Wesley Dobbs Ave Ne", "city": "Atlanta", "state": "GA", "zip": "30303-2429", "category": "Housing Shelter", "description": "Single Organization Support", "ntee_code": "L11", "asset_amt": 1, "income_amt": 485, "revenue_amt": 485 }, "geometry": { "type": "Point", "coordinates": [ -84.380020141601591, 33.757461547851598 ] } },
{ "type": "Feature", "properties": { "ein": "020567158", "name": "Westside Affordable Housing Inc", "street": "230 John Wesley Dobbs Ave Ne", "city": "Atlanta", "state": "GA", "zip": "30303-2429", "category": "Housing Shelter", "description": "Housing Development", "ntee_code": "L20", "asset_amt": 38748838, "income_amt": 2726216, "revenue_amt": 2017342 }, "geometry": { "type": "Point", "coordinates": [ -84.380020141601591, 33.757461547851598 ] } },
{ "type": "Feature", "properties": { "ein": "030379598", "name": "First Church Community Development Corporation", "street": "105 Courtland St Ne", "city": "Atlanta", "state": "GA", "zip": "30303-2422", "category": "Human Services", "description": "Human Services NEC", "ntee_code": "P99", "asset_amt": 0, "income_amt": 0, "revenue_amt": 0 }, "geometry": { "type": "Point", "coordinates": [ -84.384185791015597, 33.757328033447301 ] } },
{ "type": "Feature", "properties": { "ein": "200178918", "name": "Grove Family Charitable Foundation Ltd", "street": "225 Peachtree St Ne 1100 S Tower", "city": "Atlanta", "state": "GA", "zip": "30303-0000", "category": "Philanthropy", "description": "Private Grantmaking Foundations", "ntee_code": "T20", "asset_amt": 129041, "income_amt": 1, "revenue_amt": null }, "geometry": { "type": "Point", "coordinates": [ -84.387550354003906, 33.760139465331996 ] } },
{ "type": "Feature", "properties": { "ein": "200289833", "name": "Armenian Church Of The Apostles Inc", "street": "250 Spring St Ste 6W119", "city": "Atlanta", "state": "GA", "zip": "30303-1133", "category": "Religious", "description": "Christianity", "ntee_code": "X20", "asset_amt": null, "income_amt": null, "revenue_amt": null }, "geometry": { "type": "Point", "coordinates": [ -84.389053344726591, 33.761451721191399 ] } },
{ "type": "Feature", "properties": { "ein": "020678823", "name": "Voices For Georgias Children Inc", "street": "100 Edgewood Ave Ne Ste 1580", "city": "Atlanta", "state": "GA", "zip": "30303-3029", "category": "Human Services", "description": "Alliances & Advocacy", "ntee_code": "P01", "asset_amt": 659092, "income_amt": 996086, "revenue_amt": 922231 }, "geometry": { "type": "Point", "coordinates": [ -84.385169982910199, 33.754508972168004 ] } },
{ "type": "Feature", "properties": { "ein": "134311179", "name": "The Correll Family Foundation Inc", "street": "191 Peachtree St Ste 4050", "city": "Atlanta", "state": "GA", "zip": "30303-1786", "category": "Philanthropy", "description": "Private Grantmaking Foundations", "ntee_code": "T20", "asset_amt": 40631592, "income_amt": 29918149, "revenue_amt": null }, "geometry": { "type": "Point", "coordinates": [ -84.387557983398409, 33.758869171142599 ] } },
{ "type": "Feature", "properties": { "ein": "161639971", "name": "Georgia Watch", "street": "55 Marietta St Nw Ste 903", "city": "Atlanta", "state": "GA", "zip": "30303-2835", "category": "Public Social Benefit", "description": "Consumer Protection", "ntee_code": "W90", "asset_amt": 161839, "income_amt": 324862, "revenue_amt": 317862 }, "geometry": { "type": "Point", "coordinates": [ -84.39111328125, 33.755516052246101 ] } },
{ "type": "Feature", "properties": { "ein": "200478411", "name": "Atlanta Family And Crisis Pregnancy Center Inc", "street": "100 Edgewood Avenue Ne", "city": "Atlanta", "state": "GA", "zip": "30303-3026", "category": "Human Services", "description": "Children & Youth Services", "ntee_code": "P30", "asset_amt": 51463, "income_amt": 243793, "revenue_amt": 243793 }, "geometry": { "type": "Point", "coordinates": [ -84.385169982910199, 33.754508972168004 ] } },
{ "type": "Feature", "properties": { "ein": "200858719", "name": "Markwalter Family Foundation Inc", "street": "555 Argonne Dr Nw", "city": "Atlanta", "state": "GA", "zip": "30305-2840", "category": "Philanthropy", "description": "Private Grantmaking Foundations", "ntee_code": "T20", "asset_amt": 52028, "income_amt": 216664, "revenue_amt": null }, "geometry": { "type": "Point", "coordinates": [ -84.404891967773409, 33.834926605224602 ] } },
{ "type": "Feature", "properties": { "ein": "030427706", "name": "Hispanic American Center For Economic Development Inc", "street": "99 W Paces Ferry Rd Nw Ste 200", "city": "Atlanta", "state": "GA", "zip": "30305-1364", "category": "Community Capacity Bldg", "description": "Small Business Development", "ntee_code": "S43", "asset_amt": 41204, "income_amt": 87400, "revenue_amt": 87400 }, "geometry": { "type": "Point", "coordinates": [ -84.383491516113295, 33.840930938720696 ] } },
{ "type": "Feature", "properties": { "ein": "200482157", "name": "Jjcj Foundation Inc", "street": "2 W Wesley Rd Nw Apt 15", "city": "Atlanta", "state": "GA", "zip": "30305-3500", "category": "Philanthropy", "description": "Private Independent Foundations", "ntee_code": "T22", "asset_amt": 1053273, "income_amt": 297391, "revenue_amt": null }, "geometry": { "type": "Point", "coordinates": [ -84.387550354003906, 33.82861328125 ] } },
{ "type": "Feature", "properties": { "ein": "200749384", "name": "Terwilliger Family Foundation Inc", "street": "3060 Peachtree Rd Nw Ste 830", "city": "Atlanta", "state": "GA", "zip": "30305-2240", "category": "Philanthropy", "description": "Private Grantmaking Foundations", "ntee_code": "T20", "asset_amt": 10049, "income_amt": 0, "revenue_amt": null }, "geometry": { "type": "Point", "coordinates": [ -84.380271911621094, 33.839027404785199 ] } },
{ "type": "Feature", "properties": { "ein": "061763582", "name": "The Gary E Snyder Foundation Inc", "street": "3333 Piedmont Rd Ne Ste 2500", "city": "Atlanta", "state": "GA", "zip": "30305-1780", "category": "Philanthropy", "description": "Private Grantmaking Foundations", "ntee_code": "T20", "asset_amt": 211456, "income_amt": 96225, "revenue_amt": null }, "geometry": { "type": "Point", "coordinates": [ -84.372528076171903, 33.846084594726598 ] } },
{ "type": "Feature", "properties": { "ein": "020539739", "name": "Faith Journey Missions", "street": "825 Highland Ln Ne Apt 1209", "city": "Atlanta", "state": "GA", "zip": "30306-4338", "category": "Religious", "description": "Christianity", "ntee_code": "X20", "asset_amt": 0, "income_amt": 0, "revenue_amt": 0 }, "geometry": { "type": "Point", "coordinates": [ -84.360305786132798, 33.773994445800803 ] } },
{ "type": "Feature", "properties": { "ein": "061785821", "name": "Georgia Alliance Of Therapeutic Servcies For Children & Familes In", "street": "690 Courtenay Dr Ne", "city": "Atlanta", "state": "GA", "zip": "30306-3421", "category": "Community Capacity Bldg", "description": "Boards of Trade", "ntee_code": "S46", "asset_amt": 0, "income_amt": 0, "revenue_amt": 0 }, "geometry": { "type": "Point", "coordinates": [ -84.363571166992202, 33.789558410644496 ] } },
{ "type": "Feature", "properties": { "ein": "134147698", "name": "International Conference Of Symphony And Opera Musicians Inc", "street": "953 Rosedale Rd Ne", "city": "Atlanta", "state": "GA", "zip": "30306-4830", "category": "Community Capacity Bldg", "description": "Chambers of Commerce & Business Leagues", "ntee_code": "S41", "asset_amt": 653412, "income_amt": 204214, "revenue_amt": 204214 }, "geometry": { "type": "Point", "coordinates": [ -84.348136901855497, 33.780750274658196 ] } },
{ "type": "Feature", "properties": { "ein": "020651931", "name": "Georgia Partnership For Economic Development Inc", "street": "75 5Th St Nw Ste 1200", "city": "Atlanta", "state": "GA", "zip": "30308-1020", "category": "Community Capacity Bldg", "description": "Chambers of Commerce & Business Leagues", "ntee_code": "S41", "asset_amt": 1, "income_amt": 34, "revenue_amt": 34 }, "geometry": { "type": "Point", "coordinates": [ -84.389396667480497, 33.776866912841804 ] } },
{ "type": "Feature", "properties": { "ein": "043831203", "name": "The Universal House Of Prayer And Training School Inc", "street": "532 Rankin St Ne", "city": "Atlanta", "state": "GA", "zip": "30308-2812", "category": "Religious", "description": "Christianity", "ntee_code": "X20", "asset_amt": null, "income_amt": null, "revenue_amt": null }, "geometry": { "type": "Point", "coordinates": [ -84.3695068359375, 33.767303466796896 ] } },
{ "type": "Feature", "properties": { "ein": "200265655", "name": "David M Hermann Foundation Inc", "street": "3325 Piedmont Road 2208", "city": "Atlanta", "state": "GA", "zip": "30305-0000", "category": "Philanthropy", "description": "Private Grantmaking Foundations", "ntee_code": "T20", "asset_amt": 215097, "income_amt": 58966, "revenue_amt": null }, "geometry": { "type": "Point", "coordinates": [ -84.372467041015597, 33.845954895019496 ] } },
{ "type": "Feature", "properties": { "ein": "200469131", "name": "Atlanta Streetcar Inc", "street": "2874 Peachtree Street Suite 2600", "city": "Atlanta", "state": "GA", "zip": "30303-0000", "category": "Public Social Benefit", "description": "Public Transportation Systems", "ntee_code": "W40", "asset_amt": 0, "income_amt": 0, "revenue_amt": 0 }, "geometry": { "type": "Point", "coordinates": [ -84.387580871582003, 33.762176513671896 ] } },
{ "type": "Feature", "properties": { "ein": "201105296", "name": "A E M Family Foundation", "street": "1230 Peachtree St Ne Ste 1500", "city": "Atlanta", "state": "GA", "zip": "30309-3504", "category": "Philanthropy", "description": "Private Grantmaking Foundations", "ntee_code": "T20", "asset_amt": 9372737, "income_amt": 5772194, "revenue_amt": null }, "geometry": { "type": "Point", "coordinates": [ -84.383636474609403, 33.7878608703613 ] } },
{ "type": "Feature", "properties": { "ein": "200330679", "name": "Georgia Association Of Latino Elected Officials Inc", "street": "1100 Peachtree St Ne Ste 2800", "city": "Atlanta", "state": "GA", "zip": "30309-4528", "category": "Public Social Benefit", "description": "Leadership Development", "ntee_code": "W70", "asset_amt": 11751, "income_amt": 74718, "revenue_amt": 74718 }, "geometry": { "type": "Point", "coordinates": [ -84.383010864257798, 33.784519195556605 ] } },
{ "type": "Feature", "properties": { "ein": "201238224", "name": "Shepherd Center Foundation Inc", "street": "2020 Peachtree Rd Nw", "city": "Atlanta", "state": "GA", "zip": "30309-1426", "category": "Philanthropy", "description": "Public Foundations", "ntee_code": "T30", "asset_amt": 3259065, "income_amt": 779352, "revenue_amt": -1891 }, "geometry": { "type": "Point", "coordinates": [ -84.393028259277301, 33.809696197509801 ] } },
{ "type": "Feature", "properties": { "ein": "200748501", "name": "Bev And Marc Lewyn Supporting Organization Inc", "street": "1440 Spring St Nw", "city": "Atlanta", "state": "GA", "zip": "30309-2837", "category": "Philanthropy", "description": "Public Foundations", "ntee_code": "T30", "asset_amt": 227401, "income_amt": 3843, "revenue_amt": 3843 }, "geometry": { "type": "Point", "coordinates": [ -84.389106750488295, 33.794700622558601 ] } },
{ "type": "Feature", "properties": { "ein": "010683207", "name": "Dewberry Foundation Inc", "street": "1545 Peachtree St Ne Ste 250", "city": "Atlanta", "state": "GA", "zip": "30309-7030", "category": "Philanthropy", "description": "Named Trusts NEC", "ntee_code": "T90", "asset_amt": 111686, "income_amt": 75000, "revenue_amt": null }, "geometry": { "type": "Point", "coordinates": [ -84.388496398925795, 33.797111511230504 ] } },
{ "type": "Feature", "properties": { "ein": "020694023", "name": "Atlanta Society Of Muslim Men Inc", "street": "401 Hillside Dr Sw", "city": "Atlanta", "state": "GA", "zip": "30310-4415", "category": "Human Services", "description": "Human Services", "ntee_code": "P20", "asset_amt": 0, "income_amt": 0, "revenue_amt": 0 }, "geometry": { "type": "Point", "coordinates": [ -84.400856018066406, 33.716999053955099 ] } },
{ "type": "Feature", "properties": { "ein": "010959880", "name": "Warner Family And Friends Outreach Foundation", "street": "1059 Oglethorpe Ave Sw Apt 321", "city": "Atlanta", "state": "GA", "zip": "30310-2661", "category": "Food", "description": "Food Programs", "ntee_code": "K30", "asset_amt": 0, "income_amt": 0, "revenue_amt": 0 }, "geometry": { "type": "Point", "coordinates": [ -84.422477722167997, 33.735832214355504 ] } },
{ "type": "Feature", "properties": { "ein": "201512111", "name": "Jehovah Jireh Edutainment Ministry Group Incorporated", "street": "970 Burns Dr Sw", "city": "Atlanta", "state": "GA", "zip": "30310-4632", "category": "Religious", "description": "Protestant", "ntee_code": "X21", "asset_amt": 0, "income_amt": 0, "revenue_amt": 0 }, "geometry": { "type": "Point", "coordinates": [ -84.419532775878906, 33.711921691894496 ] } },
{ "type": "Feature", "properties": { "ein": "010678290", "name": "Georgia Community Loan Fund", "street": "999 Peachtree St Ne 2300", "city": "Atlanta", "state": "GA", "zip": "30309-4416", "category": "Human Services", "description": "Human Services", "ntee_code": "P20", "asset_amt": 0, "income_amt": 0, "revenue_amt": 0 }, "geometry": { "type": "Point", "coordinates": [ -84.383972167968793, 33.781631469726598 ] } },
{ "type": "Feature", "properties": { "ein": "010786514", "name": "Christian Church Of The Living God Rehabilitation Center", "street": "1020 Smith St Sw", "city": "Atlanta", "state": "GA", "zip": "30310-3624", "category": "Religious", "description": "Christianity", "ntee_code": "X20", "asset_amt": null, "income_amt": null, "revenue_amt": null }, "geometry": { "type": "Point", "coordinates": [ -84.400772094726591, 33.7270698547363 ] } },
{ "type": "Feature", "properties": { "ein": "113644837", "name": "Integrity House Inc", "street": "1495 Avon Ave Sw", "city": "Atlanta", "state": "GA", "zip": "30311-2701", "category": "Human Services", "description": "Centers to Support the Independence of Specific Populations", "ntee_code": "P80", "asset_amt": 1, "income_amt": 0, "revenue_amt": 0 }, "geometry": { "type": "Point", "coordinates": [ -84.437034606933594, 33.722518920898402 ] } },
{ "type": "Feature", "properties": { "ein": "141999105", "name": "Turkish American Chamber Of Commerce Of The Southeast United S", "street": "1349 West Peachtree St Nw Suite 101", "city": "Atlanta", "state": "GA", "zip": "30309-2917", "category": "Community Capacity Bldg", "description": "Small Business Development", "ntee_code": "S43", "asset_amt": 25217, "income_amt": 145806, "revenue_amt": 145806 }, "geometry": { "type": "Point", "coordinates": [ -84.387733459472699, 33.791461944580099 ] } },
{ "type": "Feature", "properties": { "ein": "161742407", "name": "Concerned Dads Inc", "street": "2900 Landrum Dr Sw Apt 71", "city": "Atlanta", "state": "GA", "zip": "30311-4397", "category": "Human Services", "description": "Human Services", "ntee_code": "P20", "asset_amt": 0, "income_amt": 0, "revenue_amt": 0 }, "geometry": { "type": "Point", "coordinates": [ -84.484291076660199, 33.706321716308601 ] } },
{ "type": "Feature", "properties": { "ein": "010580854", "name": "Cascade Community Services Inc", "street": "3144 Cascade Rd Sw", "city": "Atlanta", "state": "GA", "zip": "30311-3616", "category": "Human Services", "description": "Centers to Support the Independence of Specific Populations", "ntee_code": "P80", "asset_amt": 0, "income_amt": 0, "revenue_amt": 0 }, "geometry": { "type": "Point", "coordinates": [ -84.491439819335909, 33.720321655273402 ] } },
{ "type": "Feature", "properties": { "ein": "043787395", "name": "Cattle On A Thousand Hills Inc", "street": "920 Cascade Rd Sw", "city": "Atlanta", "state": "GA", "zip": "30311-2648", "category": "Human Services", "description": "Human Services", "ntee_code": "P20", "asset_amt": 0, "income_amt": 0, "revenue_amt": 0 }, "geometry": { "type": "Point", "coordinates": [ -84.4404296875, 33.730152130127003 ] } },
{ "type": "Feature", "properties": { "ein": "043608033", "name": "Community Empowerment Development Corporation Inc", "street": "838 Cascade Rd Sw", "city": "Atlanta", "state": "GA", "zip": "30311-2619", "category": "Human Services", "description": "Personal Social Services", "ntee_code": "P50", "asset_amt": 3066, "income_amt": 5081, "revenue_amt": 4879 }, "geometry": { "type": "Point", "coordinates": [ -84.438262939453097, 33.732395172119105 ] } },
{ "type": "Feature", "properties": { "ein": "200984437", "name": "Georgia Stratigic Alliance For New Direction And Unified Policies", "street": "501 Pulliam St Sw Ste 100", "city": "Atlanta", "state": "GA", "zip": "30312-2700", "category": "Employment", "description": "Alliances & Advocacy", "ntee_code": "J01", "asset_amt": 135381, "income_amt": 867403, "revenue_amt": 867403 }, "geometry": { "type": "Point", "coordinates": [ -84.392616271972699, 33.742507934570305 ] } },
{ "type": "Feature", "properties": { "ein": "201641844", "name": "Diaper Free Baby Inc", "street": "711A Berne St Se", "city": "Atlanta", "state": "GA", "zip": "30312-3503", "category": "Human Services", "description": "Family Services", "ntee_code": "P40", "asset_amt": 0, "income_amt": 0, "revenue_amt": 0 }, "geometry": { "type": "Point", "coordinates": [ -84.364479064941406, 33.736640930175803 ] } },
{ "type": "Feature", "properties": { "ein": "201459636", "name": "Action Mission Ministry Inc", "street": "18 William Holmes Borders Jr Drive", "city": "Atlanta", "state": "GA", "zip": "30312-0000", "category": "Food", "description": "Food Banks & Pantries", "ntee_code": "K31", "asset_amt": 0, "income_amt": 0, "revenue_amt": 0 }, "geometry": { "type": "Point", "coordinates": [ -84.388542175292997, 33.757347106933601 ] } },
{ "type": "Feature", "properties": { "ein": "010888847", "name": "Bethel Towers Inc", "street": "504 Fair St Sw", "city": "Atlanta", "state": "GA", "zip": "30313-1206", "category": "Housing Shelter", "description": "Housing Development", "ntee_code": "L20", "asset_amt": 2961405, "income_amt": 1833194, "revenue_amt": 1833194 }, "geometry": { "type": "Point", "coordinates": [ -84.403274536132798, 33.748703002929695 ] } },
{ "type": "Feature", "properties": { "ein": "141908435", "name": "Russell Management Resident Services Inc", "street": "504 Fair St Sw", "city": "Atlanta", "state": "GA", "zip": "30313-1206", "category": "Human Services", "description": "Human Services", "ntee_code": "P20", "asset_amt": 0, "income_amt": 0, "revenue_amt": 0 }, "geometry": { "type": "Point", "coordinates": [ -84.403274536132798, 33.748703002929695 ] } },
{ "type": "Feature", "properties": { "ein": "200008218", "name": "Hills Park Neighborhood Association", "street": "925B Peachtree Street 216", "city": "Atlanta", "state": "GA", "zip": "30309-3918", "category": "Community Capacity Bldg", "description": "Community & Neighborhood Development", "ntee_code": "S20", "asset_amt": 0, "income_amt": 0, "revenue_amt": 0 }, "geometry": { "type": "Point", "coordinates": [ -84.384101867675795, 33.780101776122997 ] } },
{ "type": "Feature", "properties": { "ein": "010703701", "name": "Holy Union Christian Church", "street": "2038 Reynolds Dr Sw", "city": "Altlanta", "state": "GA", "zip": "30315-6039", "category": "Religious", "description": "Christianity", "ntee_code": "X20", "asset_amt": null, "income_amt": null, "revenue_amt": null }, "geometry": { "type": "Point", "coordinates": [ -84.401077270507798, 33.698886871337898 ] } },
{ "type": "Feature", "properties": { "ein": "043695057", "name": "Last Chance Church Inc", "street": "300 Love St Sw", "city": "Atlanta", "state": "GA", "zip": "30315-1048", "category": "Religious", "description": "Christianity", "ntee_code": "X20", "asset_amt": null, "income_amt": null, "revenue_amt": null }, "geometry": { "type": "Point", "coordinates": [ -84.397285461425795, 33.734222412109396 ] } },
{ "type": "Feature", "properties": { "ein": "010619288", "name": "Tapestry Community Homeowners Association Inc", "street": "911 Walker Ave Se", "city": "Atlanta", "state": "GA", "zip": "30316-2581", "category": "Community Capacity Bldg", "description": "Community & Neighborhood Development", "ntee_code": "S20", "asset_amt": 0, "income_amt": 0, "revenue_amt": 0 }, "geometry": { "type": "Point", "coordinates": [ -84.3594970703125, 33.729793548583999 ] } },
{ "type": "Feature", "properties": { "ein": "141869914", "name": "True Church Of God Outreach Ministry", "street": "1301 Simpson Rd Nw Apt 5", "city": "Atlanta", "state": "GA", "zip": "30314-2075", "category": "Religious", "description": "Christianity", "ntee_code": "X20", "asset_amt": null, "income_amt": null, "revenue_amt": null }, "geometry": { "type": "Point", "coordinates": [ -84.430183410644503, 33.763572692871101 ] } },
{ "type": "Feature", "properties": { "ein": "201099343", "name": "Victory Out Of Defeat Inc", "street": "1999 Pryor Rd Sw", "city": "Atlanta", "state": "GA", "zip": "30315-6051", "category": "Religious", "description": "Protestant", "ntee_code": "X21", "asset_amt": 0, "income_amt": 0, "revenue_amt": 0 }, "geometry": { "type": "Point", "coordinates": [ -84.398979187011705, 33.700653076171896 ] } },
{ "type": "Feature", "properties": { "ein": "200904477", "name": "World Gospel Community Center", "street": "280 Martha Ave Ne", "city": "Atlanta", "state": "GA", "zip": "30317-1443", "category": "Religious", "description": "Protestant", "ntee_code": "X21", "asset_amt": 0, "income_amt": 0, "revenue_amt": 0 }, "geometry": { "type": "Point", "coordinates": [ -84.313827514648409, 33.759841918945305 ] } },
{ "type": "Feature", "properties": { "ein": "010907877", "name": "Greater Bethel Atlanta Ame Church Inc", "street": "2455 Lakewood Ave Sw", "city": "Atlanta", "state": "GA", "zip": "30315-6327", "category": "Religious", "description": "Christianity", "ntee_code": "X20", "asset_amt": null, "income_amt": null, "revenue_amt": null }, "geometry": { "type": "Point", "coordinates": [ -84.399154663085909, 33.697170257568395 ] } },
{ "type": "Feature", "properties": { "ein": "030479748", "name": "Trinity Vineyard Inc", "street": "2270 Defoor Hills Rd Nw", "city": "Atlanta", "state": "GA", "zip": "30318-2200", "category": "Religious", "description": "Christianity", "ntee_code": "X20", "asset_amt": null, "income_amt": null, "revenue_amt": null }, "geometry": { "type": "Point", "coordinates": [ -84.434440612792997, 33.816036224365199 ] } },
{ "type": "Feature", "properties": { "ein": "010759211", "name": "Way Christian Tabernacle", "street": "1342 Glenwood Ave Se", "city": "Atlanta", "state": "GA", "zip": "30316-2048", "category": "Religious", "description": "Christianity", "ntee_code": "X20", "asset_amt": null, "income_amt": null, "revenue_amt": null }, "geometry": { "type": "Point", "coordinates": [ -84.343605041503906, 33.740158081054695 ] } },
{ "type": "Feature", "properties": { "ein": "010698118", "name": "Integrity Transformations Community Development Corporation", "street": "692 Lindsay St Nw", "city": "Atlanta", "state": "GA", "zip": "30318-8419", "category": "Food", "description": "Food Programs", "ntee_code": "K30", "asset_amt": 10137, "income_amt": 160486, "revenue_amt": 160486 }, "geometry": { "type": "Point", "coordinates": [ -84.416427612304702, 33.773410797119105 ] } },
{ "type": "Feature", "properties": { "ein": "141924075", "name": "Keyaron Fox Foundation Inc", "street": "1588 Tallulah St Nw", "city": "Atlanta", "state": "GA", "zip": "30318-7642", "category": "Philanthropy", "description": "Private Operating Foundations", "ntee_code": "T23", "asset_amt": 7644, "income_amt": 1, "revenue_amt": null }, "geometry": { "type": "Point", "coordinates": [ -84.411361694335909, 33.798805236816399 ] } },
{ "type": "Feature", "properties": { "ein": "050585900", "name": "All Saints Church Inc", "street": "2352 Bolton Rd Nw", "city": "Atlanta", "state": "GA", "zip": "30318-1232", "category": "Religious", "description": "Christianity", "ntee_code": "X20", "asset_amt": null, "income_amt": null, "revenue_amt": null }, "geometry": { "type": "Point", "coordinates": [ -84.461227416992202, 33.8198051452637 ] } },
{ "type": "Feature", "properties": { "ein": "200639835", "name": "Higher Dimensions Christian Ministries Inc", "street": "1333 Hosea L Williams Dr Ne", "city": "Atlanta", "state": "GA", "zip": "30317-1701", "category": "Religious", "description": "Protestant", "ntee_code": "X21", "asset_amt": null, "income_amt": null, "revenue_amt": null }, "geometry": { "type": "Point", "coordinates": [ -84.345527648925795, 33.753414154052699 ] } },
{ "type": "Feature", "properties": { "ein": "020603491", "name": "Personal Growth Institute", "street": "2132 James Jackson Pkwy Nw", "city": "Atlanta", "state": "GA", "zip": "30318-1015", "category": "Religious", "description": "Christianity", "ntee_code": "X20", "asset_amt": null, "income_amt": null, "revenue_amt": null }, "geometry": { "type": "Point", "coordinates": [ -84.477210998535199, 33.814456939697301 ] } },
{ "type": "Feature", "properties": { "ein": "200253270", "name": "Price Family Foundation Inc", "street": "4418 Club Dr Ne", "city": "Atlanta", "state": "GA", "zip": "30319-1122", "category": "Philanthropy", "description": "Private Independent Foundations", "ntee_code": "T22", "asset_amt": 14355, "income_amt": 115596, "revenue_amt": null }, "geometry": { "type": "Point", "coordinates": [ -84.35498046875, 33.875213623046896 ] } },
{ "type": "Feature", "properties": { "ein": "061531744", "name": "Canstruction Inc", "street": "1168 Howell Mill Rd Nw Suite F", "city": "Atlanta", "state": "GA", "zip": "30318-0516", "category": "Food", "description": "Fund Raising & Fund Distribution", "ntee_code": "K12", "asset_amt": 276032, "income_amt": 568694, "revenue_amt": 568694 }, "geometry": { "type": "Point", "coordinates": [ -84.411727905273409, 33.785717010497997 ] } },
{ "type": "Feature", "properties": { "ein": "043745718", "name": "Brian E Powell Foundation", "street": "3140 Ferncliff Commons Ne", "city": "Atlanta", "state": "GA", "zip": "30324-2567", "category": "Philanthropy", "description": "Private Independent Foundations", "ntee_code": "T22", "asset_amt": 580, "income_amt": 0, "revenue_amt": null }, "geometry": { "type": "Point", "coordinates": [ -84.356048583984403, 33.842941284179695 ] } },
{ "type": "Feature", "properties": { "ein": "020600755", "name": "Sane Ministries International Inc", "street": "2470 Cheshire Bridge Rd Ne", "city": "Atlanta", "state": "GA", "zip": "30324-3723", "category": "Religious", "description": "Protestant", "ntee_code": "X21", "asset_amt": null, "income_amt": null, "revenue_amt": null }, "geometry": { "type": "Point", "coordinates": [ -84.351646423339801, 33.822418212890604 ] } },
{ "type": "Feature", "properties": { "ein": "020539011", "name": "Soul Care Ministries Inc", "street": "3535 Peachtree Rd Ne 520 246", "city": "Atlanta", "state": "GA", "zip": "30326-0000", "category": "Human Services", "description": "American Red Cross", "ntee_code": "P21", "asset_amt": 0, "income_amt": 0, "revenue_amt": 0 }, "geometry": { "type": "Point", "coordinates": [ -84.360443115234403, 33.852485656738303 ] } },
{ "type": "Feature", "properties": { "ein": "201052873", "name": "Jeffrey And Jennifer Allred Family Foundation Inc", "street": "609 Fairfield Rd Nw", "city": "Atlanta", "state": "GA", "zip": "30327-3221", "category": "Philanthropy", "description": "Private Grantmaking Foundations", "ntee_code": "T20", "asset_amt": 58571, "income_amt": 39282, "revenue_amt": null }, "geometry": { "type": "Point", "coordinates": [ -84.408775329589801, 33.8619194030762 ] } },
{ "type": "Feature", "properties": { "ein": "200491864", "name": "Coremotion Foundation", "street": "1579 Monroe Dr Ste F 430", "city": "Atlanta", "state": "GA", "zip": "30324-5039", "category": "Philanthropy", "description": "Private Independent Foundations", "ntee_code": "T22", "asset_amt": 293853, "income_amt": 285501, "revenue_amt": null }, "geometry": { "type": "Point", "coordinates": [ -84.370765686035199, 33.799331665039098 ] } },
{ "type": "Feature", "properties": { "ein": "201856226", "name": "Post Hope Foundation Inc", "street": "4401 Northside Pkwy Nw Ste 800", "city": "Atlanta", "state": "GA", "zip": "30327-3093", "category": "Philanthropy", "description": "Public Foundations", "ntee_code": "T30", "asset_amt": 231128, "income_amt": 610979, "revenue_amt": 503774 }, "geometry": { "type": "Point", "coordinates": [ -84.450202941894503, 33.864509582519496 ] } },
{ "type": "Feature", "properties": { "ein": "200483100", "name": "Wish Foundation Inc", "street": "3715 Northside Pkwy Northcreek 200", "city": "Atlanta", "state": "GA", "zip": "30327-2882", "category": "Philanthropy", "description": "Private Independent Foundations", "ntee_code": "T22", "asset_amt": 5709795, "income_amt": 349459, "revenue_amt": null }, "geometry": { "type": "Point", "coordinates": [ -84.434219360351591, 33.859699249267599 ] } },
{ "type": "Feature", "properties": { "ein": "141857177", "name": "Restoration By Faith Ministries Inc", "street": "3837 Mays Ct Sw", "city": "Atlanta", "state": "GA", "zip": "30331-2050", "category": "Religious", "description": "Christianity", "ntee_code": "X20", "asset_amt": null, "income_amt": null, "revenue_amt": null }, "geometry": { "type": "Point", "coordinates": [ -84.512557983398409, 33.732231140136697 ] } },
{ "type": "Feature", "properties": { "ein": "201512172", "name": "Campbellton Road West Corridor Community Development Corporation", "street": "3581 Revere Rd Sw", "city": "Atlanta", "state": "GA", "zip": "30331-2340", "category": "Community Capacity Bldg", "description": "Economic Development", "ntee_code": "S30", "asset_amt": 0, "income_amt": 0, "revenue_amt": 0 }, "geometry": { "type": "Point", "coordinates": [ -84.504219055175795, 33.706943511962898 ] } },
{ "type": "Feature", "properties": { "ein": "200383691", "name": "Local 225 Building Association Inc", "street": "3500 Atlanta Industrial Dr Nw", "city": "Atlanta", "state": "GA", "zip": "30331-1032", "category": "Community Capacity Bldg", "description": "Real Estate Associations", "ntee_code": "S47", "asset_amt": 739948, "income_amt": 119208, "revenue_amt": -61702 }, "geometry": { "type": "Point", "coordinates": [ -84.495765686035199, 33.7964477539062 ] } },
{ "type": "Feature", "properties": { "ein": "200720994", "name": "Imani Foundation Inc", "street": "3201 Atlanta Industrial Pkwy Nw Bld", "city": "Atlanta", "state": "GA", "zip": "30331-1045", "category": "Community Capacity Bldg", "description": "Nonprofit Management", "ntee_code": "S50", "asset_amt": 64299, "income_amt": 907461, "revenue_amt": 907461 }, "geometry": { "type": "Point", "coordinates": [ -84.496757507324205, 33.790863037109396 ] } },
{ "type": "Feature", "properties": { "ein": "050608342", "name": "Living Waters Center Inc", "street": "3520 Sherbrooke Way Sw", "city": "Atlanta", "state": "GA", "zip": "30331-5408", "category": "Human Services", "description": "Emergency Assistance", "ntee_code": "P60", "asset_amt": 0, "income_amt": 0, "revenue_amt": 0 }, "geometry": { "type": "Point", "coordinates": [ -84.504211425781207, 33.672508239746101 ] } },
{ "type": "Feature", "properties": { "ein": "043630358", "name": "All Nations United Gospel", "street": "751 Fairburn Rd Sw Apt 5221", "city": "Atlanta", "state": "GA", "zip": "30331-8559", "category": "Religious", "description": "Protestant", "ntee_code": "X21", "asset_amt": null, "income_amt": null, "revenue_amt": null }, "geometry": { "type": "Point", "coordinates": [ -84.510551452636705, 33.734657287597699 ] } },
{ "type": "Feature", "properties": { "ein": "020627715", "name": "Juniper Tree Ministries", "street": "2863 Fairburn Pl Sw", "city": "Atlanta", "state": "GA", "zip": "30331-6006", "category": "Religious", "description": "Protestant", "ntee_code": "X21", "asset_amt": null, "income_amt": null, "revenue_amt": null }, "geometry": { "type": "Point", "coordinates": [ -84.517990112304702, 33.673919677734396 ] } },
{ "type": "Feature", "properties": { "ein": "200555747", "name": "Collaborative Law Institute Of Georgia Inc", "street": "4279 Roswell Rd Box 327", "city": "Atlanta", "state": "GA", "zip": "30342-3769", "category": "Community Capacity Bldg", "description": "Chambers of Commerce & Business Leagues", "ntee_code": "S41", "asset_amt": 819, "income_amt": 6107, "revenue_amt": 6107 }, "geometry": { "type": "Point", "coordinates": [ -84.380996704101591, 33.871547698974602 ] } },
{ "type": "Feature", "properties": { "ein": "020745078", "name": "American Case Management Association Georgia Chapter", "street": "1201 Peachtree St Ne", "city": "Atlanta", "state": "GA", "zip": "30361-3503", "category": "Human Services", "description": "Fund Raising & Fund Distribution", "ntee_code": "P12", "asset_amt": 22448, "income_amt": 9672, "revenue_amt": 9672 }, "geometry": { "type": "Point", "coordinates": [ -84.383316040039091, 33.7872123718262 ] } },
{ "type": "Feature", "properties": { "ein": "161622195", "name": "Caring For Others Inc", "street": "3537 Browns Mill Rd", "city": "Atlanta", "state": "GA", "zip": "30354-2701", "category": "Human Services", "description": "Human Services", "ntee_code": "P20", "asset_amt": 3390588, "income_amt": 5806805, "revenue_amt": 5806805 }, "geometry": { "type": "Point", "coordinates": [ -84.385391235351591, 33.660179138183601 ] } },
{ "type": "Feature", "properties": { "ein": "201565775", "name": "Galeo Latino Community Development Fund Inc", "street": "1100 Peachtree St", "city": "Atlanta", "state": "GA", "zip": "30359-0000", "category": "Community Capacity Bldg", "description": "Community & Neighborhood Development", "ntee_code": "S20", "asset_amt": 18500, "income_amt": 152978, "revenue_amt": 152978 }, "geometry": { "type": "Point", "coordinates": [ -84.383010864257798, 33.784519195556605 ] } },
{ "type": "Feature", "properties": { "ein": "202070261", "name": "Carter Brothers Charities Inc", "street": "100 Hartsfield Center Pkwy Ste 140", "city": "Atlanta", "state": "GA", "zip": "30354-1390", "category": "Philanthropy", "description": "Private Grantmaking Foundations", "ntee_code": "T20", "asset_amt": 10536, "income_amt": 102501, "revenue_amt": 102501 }, "geometry": { "type": "Point", "coordinates": [ -84.427658081054702, 33.654895782470696 ] } },
{ "type": "Feature", "properties": { "ein": "205977172", "name": "The Allison And Pete Davis Family Foundation Inc", "street": "869 Haven Oaks Ct Ne", "city": "Atlanta", "state": "GA", "zip": "30342-4348", "category": "Philanthropy", "description": "Private Grantmaking Foundations", "ntee_code": "T20", "asset_amt": 109864, "income_amt": 4975, "revenue_amt": null }, "geometry": { "type": "Point", "coordinates": [ -84.358894348144503, 33.857570648193395 ] } },
{ "type": "Feature", "properties": { "ein": "203650410", "name": "Richard And Susan Dugas Familyfoundation", "street": "8 Conifer Park Ln Ne", "city": "Atlanta", "state": "GA", "zip": "30342-4302", "category": "Philanthropy", "description": "Private Grantmaking Foundations", "ntee_code": "T20", "asset_amt": 1842879, "income_amt": 1053456, "revenue_amt": null }, "geometry": { "type": "Point", "coordinates": [ -84.363815307617202, 33.8559379577637 ] } },
{ "type": "Feature", "properties": { "ein": "202421492", "name": "Friends Of Chastain Park Inc", "street": "4279 Roswell Rd Pmb 102-118", "city": "Atlanta", "state": "GA", "zip": "30342-3769", "category": "Philanthropy", "description": "Private Grantmaking Foundations", "ntee_code": "T20", "asset_amt": 12803, "income_amt": 16870, "revenue_amt": null }, "geometry": { "type": "Point", "coordinates": [ -84.380996704101591, 33.871547698974602 ] } },
{ "type": "Feature", "properties": { "ein": "208426476", "name": "New Life Christian Bible Church Inc", "street": "264 Wilson Mill Rd Sw", "city": "Atlanta", "state": "GA", "zip": "30331-4122", "category": "Religious", "description": "Christianity", "ntee_code": "X20", "asset_amt": null, "income_amt": null, "revenue_amt": null }, "geometry": { "type": "Point", "coordinates": [ -84.514297485351591, 33.755558013916001 ] } },
{ "type": "Feature", "properties": { "ein": "223856492", "name": "Uplifting The Community Inc", "street": "130 Wynfield Way Sw", "city": "Atlanta", "state": "GA", "zip": "30331-6837", "category": "Human Services", "description": "Human Services", "ntee_code": "P20", "asset_amt": 26975, "income_amt": 0, "revenue_amt": 0 }, "geometry": { "type": "Point", "coordinates": [ -84.537071228027301, 33.707241058349602 ] } },
{ "type": "Feature", "properties": { "ein": "205132736", "name": "Holy Ghost Temple Church Of God Inchrist", "street": "3810 Kenner Dr Sw", "city": "Atlanta", "state": "GA", "zip": "30331-3738", "category": "Religious", "description": "Protestant", "ntee_code": "X21", "asset_amt": null, "income_amt": null, "revenue_amt": null }, "geometry": { "type": "Point", "coordinates": [ -84.505928039550795, 33.755172729492195 ] } },
{ "type": "Feature", "properties": { "ein": "205308782", "name": "People United For Change Inc", "street": "3642 Campbellton Rd Sw", "city": "Atlanta", "state": "GA", "zip": "30331-5200", "category": "Human Services", "description": "Centers to Support the Independence of Specific Populations", "ntee_code": "P80", "asset_amt": 0, "income_amt": 0, "revenue_amt": 0 }, "geometry": { "type": "Point", "coordinates": [ -84.507743835449205, 33.689987182617195 ] } },
{ "type": "Feature", "properties": { "ein": "202846636", "name": "St Mark African Methodist Episcopal Church Of Atlanta Inc", "street": "3605 Campbellton Rd Sw", "city": "Atlanta", "state": "GA", "zip": "30331-5219", "category": "Religious", "description": "Christianity", "ntee_code": "X20", "asset_amt": null, "income_amt": null, "revenue_amt": null }, "geometry": { "type": "Point", "coordinates": [ -84.506874084472699, 33.690090179443395 ] } },
{ "type": "Feature", "properties": { "ein": "204873372", "name": "Jewish Home Foundation Inc", "street": "3150 Howell Mill Rd Nw", "city": "Atlanta", "state": "GA", "zip": "30327-2108", "category": "Philanthropy", "description": "Public Foundations", "ntee_code": "T30", "asset_amt": 10574801, "income_amt": 589274, "revenue_amt": 589274 }, "geometry": { "type": "Point", "coordinates": [ -84.427185058593793, 33.840545654296896 ] } },
{ "type": "Feature", "properties": { "ein": "205529710", "name": "Klaus Family Foundation", "street": "1330 Monte Carlo Dr Nw", "city": "Atlanta", "state": "GA", "zip": "30327-3803", "category": "Philanthropy", "description": "Private Grantmaking Foundations", "ntee_code": "T20", "asset_amt": 10948052, "income_amt": 1793555, "revenue_amt": null }, "geometry": { "type": "Point", "coordinates": [ -84.428123474121094, 33.873470306396499 ] } },
{ "type": "Feature", "properties": { "ein": "206722483", "name": "The Adams Family Fund", "street": "2560 W Wesley Rd Nw", "city": "Atlanta", "state": "GA", "zip": "30327-2034", "category": "Philanthropy", "description": "Private Independent Foundations", "ntee_code": "T22", "asset_amt": 330725, "income_amt": 262852, "revenue_amt": null }, "geometry": { "type": "Point", "coordinates": [ -84.451843261718793, 33.842403411865199 ] } },
{ "type": "Feature", "properties": { "ein": "206759456", "name": "Betty And Leon Goldstein Foundation", "street": "2888 Sequoyah Dr Nw", "city": "Atlanta", "state": "GA", "zip": "30327-1806", "category": "Philanthropy", "description": "Private Independent Foundations", "ntee_code": "T22", "asset_amt": 651510, "income_amt": 175335, "revenue_amt": null }, "geometry": { "type": "Point", "coordinates": [ -84.437309265136705, 33.834671020507805 ] } },
{ "type": "Feature", "properties": { "ein": "207201443", "name": "Boger-Owen Foundation", "street": "303 Townsend Pl Nw", "city": "Atlanta", "state": "GA", "zip": "30327-3035", "category": "Philanthropy", "description": "Private Independent Foundations", "ntee_code": "T22", "asset_amt": 450155, "income_amt": 212299, "revenue_amt": null }, "geometry": { "type": "Point", "coordinates": [ -84.451110839843793, 33.864048004150398 ] } },
{ "type": "Feature", "properties": { "ein": "205508805", "name": "Noonan Foundation", "street": "3500 Riverly Rd Nw", "city": "Atlanta", "state": "GA", "zip": "30327-2526", "category": "Philanthropy", "description": "Private Independent Foundations", "ntee_code": "T22", "asset_amt": 6319618, "income_amt": 1749301, "revenue_amt": null }, "geometry": { "type": "Point", "coordinates": [ -84.453636169433594, 33.850177764892599 ] } },
{ "type": "Feature", "properties": { "ein": "205613533", "name": "Orr Family Foundation Inc", "street": "3290 Northside Pkwy Nw Ste 400", "city": "Atlanta", "state": "GA", "zip": "30327-2268", "category": "Philanthropy", "description": "Private Grantmaking Foundations", "ntee_code": "T20", "asset_amt": 410109, "income_amt": 39017, "revenue_amt": null }, "geometry": { "type": "Point", "coordinates": [ -84.426681518554702, 33.845329284668004 ] } },
{ "type": "Feature", "properties": { "ein": "202025163", "name": "Celeste And Kurt Zuch Family Foundation Inc", "street": "1210 W Garmon Rd", "city": "Atlanta", "state": "GA", "zip": "30327-4402", "category": "Philanthropy", "description": "Private Grantmaking Foundations", "ntee_code": "T20", "asset_amt": 570179, "income_amt": 474843, "revenue_amt": null }, "geometry": { "type": "Point", "coordinates": [ -84.428001403808594, 33.880680084228501 ] } },
{ "type": "Feature", "properties": { "ein": "206706016", "name": "Braithwaite Fam Foundation", "street": "4401 Northside Pkwy Nw Ste 750", "city": "Atlanta", "state": "GA", "zip": "30327-5278", "category": "Philanthropy", "description": "Private Grantmaking Foundations", "ntee_code": "T20", "asset_amt": 23336, "income_amt": 19, "revenue_amt": null }, "geometry": { "type": "Point", "coordinates": [ -84.450202941894503, 33.864509582519496 ] } },
{ "type": "Feature", "properties": { "ein": "203045753", "name": "T Gordon Little Foundation Inc", "street": "3290 Northside Pkwy Nw Ste 950", "city": "Atlanta", "state": "GA", "zip": "30327-2273", "category": "Philanthropy", "description": "Private Independent Foundations", "ntee_code": "T22", "asset_amt": 2080452, "income_amt": 745878, "revenue_amt": null }, "geometry": { "type": "Point", "coordinates": [ -84.426681518554702, 33.845329284668004 ] } },
{ "type": "Feature", "properties": { "ein": "204821888", "name": "North American Electric Reliabilitycorporation", "street": "3353 Peachtree Rd Ne N Tower Ste 60", "city": "Atlanta", "state": "GA", "zip": "30326-0000", "category": "Community Capacity Bldg", "description": "Chambers of Commerce & Business Leagues", "ntee_code": "S41", "asset_amt": 51177783, "income_amt": 59023482, "revenue_amt": 58702601 }, "geometry": { "type": "Point", "coordinates": [ -84.366897583007798, 33.848091125488303 ] } },
{ "type": "Feature", "properties": { "ein": "203341363", "name": "Atlanta St Patricks Day Foundation Inc", "street": "1266 W Paces Ferry Rd Ste 615", "city": "Atlanta", "state": "GA", "zip": "30327-2306", "category": "Philanthropy", "description": "Public Foundations", "ntee_code": "T30", "asset_amt": 534, "income_amt": 148998, "revenue_amt": 73085 }, "geometry": { "type": "Point", "coordinates": [ -84.429244995117202, 33.849250793456996 ] } },
{ "type": "Feature", "properties": { "ein": "208189985", "name": "Windham Brannon Foundation Inc", "street": "3630 Peachtree Rd Ne Ste 600", "city": "Atlanta", "state": "GA", "zip": "30326-1550", "category": "Philanthropy", "description": "Private Grantmaking Foundations", "ntee_code": "T20", "asset_amt": 2772, "income_amt": 7831, "revenue_amt": null }, "geometry": { "type": "Point", "coordinates": [ -84.358207702636705, 33.854015350341804 ] } },
{ "type": "Feature", "properties": { "ein": "207369458", "name": "J Tucker Foundation", "street": "3399 Peachtree Rd Ne Ste 1200", "city": "Atlanta", "state": "GA", "zip": "30326-2812", "category": "Philanthropy", "description": "Private Independent Foundations", "ntee_code": "T22", "asset_amt": 26220, "income_amt": 30000, "revenue_amt": null }, "geometry": { "type": "Point", "coordinates": [ -84.364433288574205, 33.848972320556605 ] } },
{ "type": "Feature", "properties": { "ein": "208083384", "name": "Nonami Foundation Inc", "street": "3445 Peachtree Rd Ne Ste 175", "city": "Atlanta", "state": "GA", "zip": "30326-1234", "category": "Philanthropy", "description": "Private Independent Foundations", "ntee_code": "T22", "asset_amt": 6825394, "income_amt": 1526065, "revenue_amt": null }, "geometry": { "type": "Point", "coordinates": [ -84.3616943359375, 33.850772857666001 ] } },
{ "type": "Feature", "properties": { "ein": "206978371", "name": "The Rondrick Williamson Foundation", "street": "415 Armour Dr Ne Apt 3103", "city": "Atlanta", "state": "GA", "zip": "30324-3939", "category": "Philanthropy", "description": "Community Foundations", "ntee_code": "T31", "asset_amt": 383, "income_amt": 2400, "revenue_amt": null }, "geometry": { "type": "Point", "coordinates": [ -84.373786926269503, 33.812629699706996 ] } },
{ "type": "Feature", "properties": { "ein": "203931240", "name": "Rfp Fund Inc", "street": "3475 Lenox Rd Ne Ste 970", "city": "Atlanta", "state": "GA", "zip": "30326-3230", "category": "Philanthropy", "description": "Single Organization Support", "ntee_code": "T11", "asset_amt": 10029006, "income_amt": 4120799, "revenue_amt": 565916 }, "geometry": { "type": "Point", "coordinates": [ -84.361877441406207, 33.8504638671875 ] } },
{ "type": "Feature", "properties": { "ein": "208322418", "name": "Twenty 20 Something", "street": "741 Morosgo Dr Unit B63", "city": "Atlanta", "state": "GA", "zip": "30324-3510", "category": "Human Services", "description": "Human Services", "ntee_code": "P20", "asset_amt": 0, "income_amt": 0, "revenue_amt": 0 }, "geometry": { "type": "Point", "coordinates": [ -84.363700866699205, 33.823112487793004 ] } },
{ "type": "Feature", "properties": { "ein": "205199333", "name": "Jerry W Walker Colorectal Cancerfoundation", "street": "3600 Cantrell Rd Ne", "city": "Atlanta", "state": "GA", "zip": "30319-1305", "category": "Philanthropy", "description": "Private Independent Foundations", "ntee_code": "T22", "asset_amt": 22047, "income_amt": 6500, "revenue_amt": null }, "geometry": { "type": "Point", "coordinates": [ -84.352699279785199, 33.852863311767599 ] } },
{ "type": "Feature", "properties": { "ein": "201865497", "name": "Mclain Family Foundation Inc", "street": "3560 Lenox Rd Ne Ste 2800", "city": "Atlanta", "state": "GA", "zip": "30326-4276", "category": "Philanthropy", "description": "Private Grantmaking Foundations", "ntee_code": "T20", "asset_amt": 1300081, "income_amt": 592571, "revenue_amt": null }, "geometry": { "type": "Point", "coordinates": [ -84.367622375488295, 33.852321624755895 ] } },
{ "type": "Feature", "properties": { "ein": "203460301", "name": "Steed Society Inc", "street": "770 English Ave Nw", "city": "Atlanta", "state": "GA", "zip": "30318-8400", "category": "Community Capacity Bldg", "description": "Community & Neighborhood Development", "ntee_code": "S20", "asset_amt": 0, "income_amt": 0, "revenue_amt": 0 }, "geometry": { "type": "Point", "coordinates": [ -84.413429260253906, 33.775688171386697 ] } },
{ "type": "Feature", "properties": { "ein": "205788654", "name": "Holy Light Tabernacle Ofdeliverance And Praise", "street": "1783 Johnson Rd Nw Apt 3103", "city": "Atlanta", "state": "GA", "zip": "30318-8905", "category": "Religious", "description": "Protestant", "ntee_code": "X21", "asset_amt": null, "income_amt": null, "revenue_amt": null }, "geometry": { "type": "Point", "coordinates": [ -84.445793151855497, 33.785366058349602 ] } },
{ "type": "Feature", "properties": { "ein": "202892874", "name": "Bethesda Christian Ministries Inc", "street": "2639 Morris St Nw", "city": "Atlanta", "state": "GA", "zip": "30318-4542", "category": "Religious", "description": "Protestant", "ntee_code": "X21", "asset_amt": 0, "income_amt": 0, "revenue_amt": 0 }, "geometry": { "type": "Point", "coordinates": [ -84.475006103515597, 33.7833251953125 ] } },
{ "type": "Feature", "properties": { "ein": "203750569", "name": "Johnnie B Moore Towers Ii Inc", "street": "2283 Baker Rd Nw", "city": "Atlanta", "state": "GA", "zip": "30318-6220", "category": "Religious", "description": "Religion-Related NEC", "ntee_code": "X99", "asset_amt": 4621554, "income_amt": 346893, "revenue_amt": 346893 }, "geometry": { "type": "Point", "coordinates": [ -84.462837219238295, 33.770023345947301 ] } },
{ "type": "Feature", "properties": { "ein": "207501843", "name": "Clear Family Foundation", "street": "3685 Peachtree Rd Ne Apt 10", "city": "Atlanta", "state": "GA", "zip": "30319-1262", "category": "Philanthropy", "description": "Private Independent Foundations", "ntee_code": "T22", "asset_amt": 14139, "income_amt": 2022, "revenue_amt": null }, "geometry": { "type": "Point", "coordinates": [ -84.354133605957003, 33.854663848877003 ] } },
{ "type": "Feature", "properties": { "ein": "204906640", "name": "Rosaleanas Community Developmentcenter Inc", "street": "350 Schoen St Se", "city": "Atlanta", "state": "GA", "zip": "30315-5308", "category": "Human Services", "description": "Human Services", "ntee_code": "P20", "asset_amt": 1, "income_amt": 0, "revenue_amt": 0 }, "geometry": { "type": "Point", "coordinates": [ -84.375236511230497, 33.704250335693395 ] } },
{ "type": "Feature", "properties": { "ein": "208939688", "name": "Revival Fire Ministriesinternational Inc", "street": "1835 Henry Thomas Dr Se", "city": "Atlanta", "state": "GA", "zip": "30315-5613", "category": "Religious", "description": "Religion-Related NEC", "ntee_code": "X99", "asset_amt": 0, "income_amt": 0, "revenue_amt": 0 }, "geometry": { "type": "Point", "coordinates": [ -84.351303100585909, 33.703693389892599 ] } },
{ "type": "Feature", "properties": { "ein": "202178972", "name": "Sabbath Christian Alliance", "street": "1670 Glenwood Ave Se", "city": "Atlanta", "state": "GA", "zip": "30316-1753", "category": "Religious", "description": "Christianity", "ntee_code": "X20", "asset_amt": null, "income_amt": null, "revenue_amt": null }, "geometry": { "type": "Point", "coordinates": [ -84.333175659179702, 33.739994049072301 ] } },
{ "type": "Feature", "properties": { "ein": "203217140", "name": "Central Community Services", "street": "501 Mitchell St Sw", "city": "Atlanta", "state": "GA", "zip": "30314-4723", "category": "Human Services", "description": "Personal Social Services", "ntee_code": "P50", "asset_amt": 0, "income_amt": 0, "revenue_amt": 0 }, "geometry": { "type": "Point", "coordinates": [ -84.402915954589801, 33.753890991210902 ] } },
{ "type": "Feature", "properties": { "ein": "205388808", "name": "Career Choice International", "street": "1463 Mims St Sw", "city": "Atlanta", "state": "GA", "zip": "30314-2641", "category": "Employment", "description": "Employment Preparation & Procurement", "ntee_code": "J20", "asset_amt": 0, "income_amt": 0, "revenue_amt": 0 }, "geometry": { "type": "Point", "coordinates": [ -84.435028076171903, 33.7496528625488 ] } },
{ "type": "Feature", "properties": { "ein": "208041086", "name": "Cowan Foundation Inc", "street": "3344 Peachtree Roadsuite 2903", "city": "Atlanta", "state": "GA", "zip": "30326-0000", "category": "Philanthropy", "description": "Private Independent Foundations", "ntee_code": "T22", "asset_amt": 701510, "income_amt": 89418, "revenue_amt": null }, "geometry": { "type": "Point", "coordinates": [ -84.369377136230497, 33.846866607666001 ] } },
{ "type": "Feature", "properties": { "ein": "203900639", "name": "Metropolitan Atlanta Communitydevelopment Corporation", "street": "633 Pryor St Sw", "city": "Atlanta", "state": "GA", "zip": "30312-2738", "category": "Housing Shelter", "description": "Low-Income & Subsidized Rental Housing", "ntee_code": "L21", "asset_amt": 0, "income_amt": 0, "revenue_amt": 0 }, "geometry": { "type": "Point", "coordinates": [ -84.394615173339801, 33.737545013427699 ] } },
{ "type": "Feature", "properties": { "ein": "203102825", "name": "Reachlife Ministries Inc", "street": "650 Hamilton Ave Se", "city": "Atlanta", "state": "GA", "zip": "30312-3778", "category": "Religious", "description": "Religious Media & Communications", "ntee_code": "X80", "asset_amt": 37981, "income_amt": 62288, "revenue_amt": 42365 }, "geometry": { "type": "Point", "coordinates": [ -84.367324829101591, 33.725837707519496 ] } },
{ "type": "Feature", "properties": { "ein": "203060988", "name": "Georgia Wand Education Fund Inc", "street": "250 Georgia Ave Se", "city": "Atlanta", "state": "GA", "zip": "30312-3046", "category": "Public Social Benefit", "description": "Citizen Participation", "ntee_code": "W24", "asset_amt": 419460, "income_amt": 1381830, "revenue_amt": 1376262 }, "geometry": { "type": "Point", "coordinates": [ -84.379493713378906, 33.736747741699197 ] } },
{ "type": "Feature", "properties": { "ein": "208038859", "name": "First Step Staffing", "street": "302 Decatur St Se", "city": "Atlanta", "state": "GA", "zip": "30312-1708", "category": "Employment", "description": "Job Training", "ntee_code": "J22", "asset_amt": 420367, "income_amt": 1602962, "revenue_amt": 1502184 }, "geometry": { "type": "Point", "coordinates": [ -84.379913330078097, 33.749794006347699 ] } },
{ "type": "Feature", "properties": { "ein": "205140942", "name": "Childrens Garden Preschool", "street": "486 Park Ave Se", "city": "Atlanta", "state": "GA", "zip": "30312-3452", "category": "Human Services", "description": "Child Day Care", "ntee_code": "P33", "asset_amt": 20058, "income_amt": 160386, "revenue_amt": 158667 }, "geometry": { "type": "Point", "coordinates": [ -84.369705200195298, 33.741283416747997 ] } },
{ "type": "Feature", "properties": { "ein": "202614511", "name": "Alliance For Retired Americans", "street": "501 Pulliam St Sw Ste 549", "city": "Atlanta", "state": "GA", "zip": "30312-2751", "category": "Civil Rights", "description": "Seniors Rights", "ntee_code": "R25", "asset_amt": 0, "income_amt": 0, "revenue_amt": 0 }, "geometry": { "type": "Point", "coordinates": [ -84.392616271972699, 33.742507934570305 ] } },
{ "type": "Feature", "properties": { "ein": "208853311", "name": "Jarvis Hayes Foundation", "street": "1331 Audubon Ct Sw", "city": "Atlanta", "state": "GA", "zip": "30311-2471", "category": "Human Services", "description": "Family Services", "ntee_code": "P40", "asset_amt": 1, "income_amt": 1, "revenue_amt": null }, "geometry": { "type": "Point", "coordinates": [ -84.469406127929702, 33.721279144287102 ] } },
{ "type": "Feature", "properties": { "ein": "204647176", "name": "Sankofa Ministries And Tellin Our Story", "street": "622 Lynn Cir Sw", "city": "Atlanta", "state": "GA", "zip": "30311-2315", "category": "Religious", "description": "Christianity", "ntee_code": "X20", "asset_amt": 0, "income_amt": 0, "revenue_amt": 0 }, "geometry": { "type": "Point", "coordinates": [ -84.486953735351591, 33.738132476806605 ] } },
{ "type": "Feature", "properties": { "ein": "203831519", "name": "Patty Hertz Reid Foundation Inc", "street": "1440 Spring St Nw", "city": "Atlanta", "state": "GA", "zip": "30309-2832", "category": "Philanthropy", "description": "Single Organization Support", "ntee_code": "T11", "asset_amt": 322692, "income_amt": 106287, "revenue_amt": 106287 }, "geometry": { "type": "Point", "coordinates": [ -84.389106750488295, 33.794700622558601 ] } },
{ "type": "Feature", "properties": { "ein": "202424773", "name": "Shoulberg Family Foundation Inc", "street": "1100 Spring Street Nw", "city": "Atlanta", "state": "GA", "zip": "30309-2846", "category": "Philanthropy", "description": "Private Grantmaking Foundations", "ntee_code": "T20", "asset_amt": 2797, "income_amt": 18000, "revenue_amt": null }, "geometry": { "type": "Point", "coordinates": [ -84.389244079589801, 33.784553527831996 ] } },
{ "type": "Feature", "properties": { "ein": "205053817", "name": "Apec Family Foundation Fund Inc", "street": "1099 Cascade Rd Sw", "city": "Atlanta", "state": "GA", "zip": "30311-2813", "category": "Philanthropy", "description": "Public Foundations", "ntee_code": "T30", "asset_amt": 0, "income_amt": 0, "revenue_amt": 0 }, "geometry": { "type": "Point", "coordinates": [ -84.447151184082003, 33.725330352783196 ] } },
{ "type": "Feature", "properties": { "ein": "202424943", "name": "Stephen Scott Selig Family Foundation Inc", "street": "1100 Spring Street Nw", "city": "Atlanta", "state": "GA", "zip": "30309-2846", "category": "Philanthropy", "description": "Private Independent Foundations", "ntee_code": "T22", "asset_amt": 2238, "income_amt": 18000, "revenue_amt": null }, "geometry": { "type": "Point", "coordinates": [ -84.389244079589801, 33.784553527831996 ] } },
{ "type": "Feature", "properties": { "ein": "202424890", "name": "Sls Family Foundation Inc", "street": "1100 Spring Street Nw", "city": "Atlanta", "state": "GA", "zip": "30309-2846", "category": "Philanthropy", "description": "Private Independent Foundations", "ntee_code": "T22", "asset_amt": 23379, "income_amt": 1, "revenue_amt": null }, "geometry": { "type": "Point", "coordinates": [ -84.389244079589801, 33.784553527831996 ] } },
{ "type": "Feature", "properties": { "ein": "202424529", "name": "Stephanie And Blake Selig Foundation Inc", "street": "1100 Spring Street Nw", "city": "Atlanta", "state": "GA", "zip": "30309-2846", "category": "Philanthropy", "description": "Private Independent Foundations", "ntee_code": "T22", "asset_amt": 15116, "income_amt": 18000, "revenue_amt": null }, "geometry": { "type": "Point", "coordinates": [ -84.389244079589801, 33.784553527831996 ] } },
{ "type": "Feature", "properties": { "ein": "202432829", "name": "Linda W Selig Foundation Inc", "street": "1100 Spring Street Nw", "city": "Atlanta", "state": "GA", "zip": "30309-2846", "category": "Philanthropy", "description": "Private Independent Foundations", "ntee_code": "T22", "asset_amt": 546, "income_amt": 1, "revenue_amt": null }, "geometry": { "type": "Point", "coordinates": [ -84.389244079589801, 33.784553527831996 ] } },
{ "type": "Feature", "properties": { "ein": "203431520", "name": "Fisher & Phillips Foundation", "street": "1075 Peachtree St Ne Ste 3500", "city": "Atlanta", "state": "GA", "zip": "30309-3900", "category": "Philanthropy", "description": "Private Grantmaking Foundations", "ntee_code": "T20", "asset_amt": 0, "income_amt": 0, "revenue_amt": 0 }, "geometry": { "type": "Point", "coordinates": [ -84.383285522460909, 33.783893585205099 ] } },
{ "type": "Feature", "properties": { "ein": "203098434", "name": "Impact France Inc", "street": "1100 Peachtree St Ne Ste 200", "city": "Atlanta", "state": "GA", "zip": "30309-4503", "category": "Philanthropy", "description": "Community Foundations", "ntee_code": "T31", "asset_amt": 79380, "income_amt": 796630, "revenue_amt": 796630 }, "geometry": { "type": "Point", "coordinates": [ -84.383010864257798, 33.784519195556605 ] } },
{ "type": "Feature", "properties": { "ein": "205855797", "name": "King-White Family Foundation Inc", "street": "50 Woodcrest Ave Ne", "city": "Atlanta", "state": "GA", "zip": "30309-1525", "category": "Philanthropy", "description": "Private Independent Foundations", "ntee_code": "T22", "asset_amt": 2386584, "income_amt": 1452319, "revenue_amt": null }, "geometry": { "type": "Point", "coordinates": [ -84.389152526855497, 33.804046630859396 ] } },
{ "type": "Feature", "properties": { "ein": "202584824", "name": "Gregory And Erica Lewis Family Foundation Inc", "street": "1100 Spring Street Nw", "city": "Atlanta", "state": "GA", "zip": "30309-2846", "category": "Philanthropy", "description": "Private Independent Foundations", "ntee_code": "T22", "asset_amt": 3040, "income_amt": 19000, "revenue_amt": null }, "geometry": { "type": "Point", "coordinates": [ -84.389244079589801, 33.784553527831996 ] } },
{ "type": "Feature", "properties": { "ein": "204337002", "name": "Doug And Robyn Ross Familyfoundation Inc", "street": "1440 Spring St Nw", "city": "Atlanta", "state": "GA", "zip": "30309-2832", "category": "Philanthropy", "description": "Private Grantmaking Foundations", "ntee_code": "T20", "asset_amt": 1564364, "income_amt": 1237814, "revenue_amt": 506923 }, "geometry": { "type": "Point", "coordinates": [ -84.389106750488295, 33.794700622558601 ] } },
{ "type": "Feature", "properties": { "ein": "202897316", "name": "Bryan And Amy Lewis Family Foundation Inc", "street": "1100 Spring Street Nw", "city": "Atlanta", "state": "GA", "zip": "30309-2846", "category": "Philanthropy", "description": "Private Independent Foundations", "ntee_code": "T22", "asset_amt": 2275, "income_amt": 18000, "revenue_amt": null }, "geometry": { "type": "Point", "coordinates": [ -84.389244079589801, 33.784553527831996 ] } },
{ "type": "Feature", "properties": { "ein": "205409413", "name": "Gender Gap Foundation Inc", "street": "2288 Peachtree Rd Nw Unit 3", "city": "Atlanta", "state": "GA", "zip": "30309-1179", "category": "Philanthropy", "description": "Philanthropy", "ntee_code": "T99", "asset_amt": 25182, "income_amt": 29922, "revenue_amt": 26121 }, "geometry": { "type": "Point", "coordinates": [ -84.389923095703097, 33.816738128662102 ] } },
{ "type": "Feature", "properties": { "ein": "204708212", "name": "Development In Gardening", "street": "999 Peachtree St Ne Ste 2300", "city": "Atlanta", "state": "GA", "zip": "30309-4416", "category": "Community Capacity Bldg", "description": "Community & Neighborhood Development", "ntee_code": "S20", "asset_amt": 105958, "income_amt": 253676, "revenue_amt": 253676 }, "geometry": { "type": "Point", "coordinates": [ -84.383972167968793, 33.781631469726598 ] } },
{ "type": "Feature", "properties": { "ein": "208042671", "name": "Mckenna Long & Aldridge Foundation Inc", "street": "303 Peachtree St Ne Ste 5300", "city": "Atlanta", "state": "GA", "zip": "30308-3265", "category": "Philanthropy", "description": "Private Independent Foundations", "ntee_code": "T22", "asset_amt": 406, "income_amt": 658495, "revenue_amt": null }, "geometry": { "type": "Point", "coordinates": [ -84.386741638183594, 33.763252258300803 ] } },
{ "type": "Feature", "properties": { "ein": "203149328", "name": "Alice And Noah N Langdale Jr Foundation Inc", "street": "1100 Peachtree St Ne Ste 2860", "city": "Atlanta", "state": "GA", "zip": "30309-9916", "category": "Philanthropy", "description": "Private Grantmaking Foundations", "ntee_code": "T20", "asset_amt": 7375847, "income_amt": 9966105, "revenue_amt": null }, "geometry": { "type": "Point", "coordinates": [ -84.383010864257798, 33.784519195556605 ] } },
{ "type": "Feature", "properties": { "ein": "208904022", "name": "Vision Seekers Incorporated", "street": "1223 Hardee St Ne Rm B-5", "city": "Atlanta", "state": "GA", "zip": "30307-2719", "category": "Housing Shelter", "description": "Housing Development", "ntee_code": "L20", "asset_amt": 240, "income_amt": 0, "revenue_amt": 0 }, "geometry": { "type": "Point", "coordinates": [ -84.347877502441406, 33.7553901672363 ] } },
{ "type": "Feature", "properties": { "ein": "204343044", "name": "Capitol Hill Neighborhooddevelopment Corporation", "street": "7121 Noble Dr Ne", "city": "Atlanta", "state": "GA", "zip": "30306-0000", "category": "Community Capacity Bldg", "description": "Community & Neighborhood Development", "ntee_code": "S20", "asset_amt": 57340, "income_amt": 0, "revenue_amt": 0 }, "geometry": { "type": "Point", "coordinates": [ -84.341278076171903, 33.802581787109396 ] } },
{ "type": "Feature", "properties": { "ein": "223696053", "name": "Janx Foundation Inc", "street": "917 Springdale Rd Ne", "city": "Atlanta", "state": "GA", "zip": "30306-4619", "category": "Philanthropy", "description": "Private Independent Foundations", "ntee_code": "T22", "asset_amt": 671891, "income_amt": 201722, "revenue_amt": null }, "geometry": { "type": "Point", "coordinates": [ -84.342201232910199, 33.7790718078613 ] } },
{ "type": "Feature", "properties": { "ein": "208686890", "name": "Lookout Foundation Inc", "street": "2877 Habersham Rd Nw", "city": "Atlanta", "state": "GA", "zip": "30305-2939", "category": "Philanthropy", "description": "Private Grantmaking Foundations", "ntee_code": "T20", "asset_amt": 6490775, "income_amt": 8356165, "revenue_amt": null }, "geometry": { "type": "Point", "coordinates": [ -84.394905090332003, 33.833450317382805 ] } },
{ "type": "Feature", "properties": { "ein": "208112871", "name": "Playmore Fuondation Inc", "street": "3 Vernon Rd Nw", "city": "Atlanta", "state": "GA", "zip": "30305-2963", "category": "Philanthropy", "description": "Public Foundations", "ntee_code": "T30", "asset_amt": 24361, "income_amt": 72, "revenue_amt": null }, "geometry": { "type": "Point", "coordinates": [ -84.390625, 33.828758239746101 ] } },
{ "type": "Feature", "properties": { "ein": "203687732", "name": "St Joseph Foundation For Family Values Inc", "street": "35 Demorest Ave Ne", "city": "Atlanta", "state": "GA", "zip": "30305-3715", "category": "Philanthropy", "description": "Private Independent Foundations", "ntee_code": "T22", "asset_amt": 158500, "income_amt": 2009, "revenue_amt": null }, "geometry": { "type": "Point", "coordinates": [ -84.383735656738295, 33.826019287109396 ] } },
{ "type": "Feature", "properties": { "ein": "203798084", "name": "Shumard Foundation Inc", "street": "3520 Piedmont Rd Ne Ste 200", "city": "Atlanta", "state": "GA", "zip": "30305-1511", "category": "Community Capacity Bldg", "description": "Single Organization Support", "ntee_code": "S11", "asset_amt": 20678576, "income_amt": 2403590, "revenue_amt": 2328757 }, "geometry": { "type": "Point", "coordinates": [ -84.377189636230497, 33.849704742431605 ] } },
{ "type": "Feature", "properties": { "ein": "205264413", "name": "The@Five Thirty Foundation Inc", "street": "450 E Paces Ferry Rd Ne", "city": "Atlanta", "state": "GA", "zip": "30305-3301", "category": "Philanthropy", "description": "Private Independent Foundations", "ntee_code": "T22", "asset_amt": 175023, "income_amt": 44423, "revenue_amt": null }, "geometry": { "type": "Point", "coordinates": [ -84.372962951660199, 33.838253021240199 ] } },
{ "type": "Feature", "properties": { "ein": "205088833", "name": "Spanx By Sara Blakely Foundation Inc", "street": "3035 Peachtree Road Ne Suite 200", "city": "Atlanta", "state": "GA", "zip": "30305-2745", "category": "Philanthropy", "description": "Public Foundations", "ntee_code": "T30", "asset_amt": 24149982, "income_amt": 62853966, "revenue_amt": null }, "geometry": { "type": "Point", "coordinates": [ -84.380996704101591, 33.837936401367195 ] } },
{ "type": "Feature", "properties": { "ein": "203027918", "name": "The Hagedorn Family Charitable Fund Inc", "street": "353 Peachtree Battle Ave Nw", "city": "Atlanta", "state": "GA", "zip": "30305-4064", "category": "Philanthropy", "description": "Private Independent Foundations", "ntee_code": "T22", "asset_amt": 283276, "income_amt": 134644, "revenue_amt": null }, "geometry": { "type": "Point", "coordinates": [ -84.399375915527301, 33.821834564208999 ] } },
{ "type": "Feature", "properties": { "ein": "205756777", "name": "The Klump Family Foundation Inc", "street": "3060 Peachtree Rd Nw Ste 400", "city": "Atlanta", "state": "GA", "zip": "30305-2239", "category": "Philanthropy", "description": "Private Grantmaking Foundations", "ntee_code": "T20", "asset_amt": 8823925, "income_amt": 8328818, "revenue_amt": null }, "geometry": { "type": "Point", "coordinates": [ -84.380271911621094, 33.839027404785199 ] } },
{ "type": "Feature", "properties": { "ein": "205999606", "name": "Origins Church Los Angeles Inc", "street": "3195 Peachtree Dr Ne", "city": "Atlanta", "state": "GA", "zip": "30305-2769", "category": "Religious", "description": "Protestant", "ntee_code": "X21", "asset_amt": null, "income_amt": null, "revenue_amt": null }, "geometry": { "type": "Point", "coordinates": [ -84.362930297851591, 33.841316223144496 ] } },
{ "type": "Feature", "properties": { "ein": "208550914", "name": "Jwb Family Foundation Inc", "street": "3003 Habersham Rd Nw", "city": "Atlanta", "state": "GA", "zip": "30305-2845", "category": "Philanthropy", "description": "Private Grantmaking Foundations", "ntee_code": "T20", "asset_amt": 173813, "income_amt": 1016, "revenue_amt": null }, "geometry": { "type": "Point", "coordinates": [ -84.396621704101591, 33.836891174316399 ] } },
{ "type": "Feature", "properties": { "ein": "202379487", "name": "International Association For Stability Handling And Use Of", "street": "3525 Piedmont Road Building 5", "city": "Atlanta", "state": "GA", "zip": "30305-1578", "category": "Community Capacity Bldg", "description": "Chambers of Commerce & Business Leagues", "ntee_code": "S41", "asset_amt": 374537, "income_amt": 87308, "revenue_amt": 87308 }, "geometry": { "type": "Point", "coordinates": [ -84.377845764160199, 33.850120544433601 ] } },
{ "type": "Feature", "properties": { "ein": "237082160", "name": "Georgia Association Of The American Institute Of Architects Inc", "street": "100 Edgewood Ave Ne Ste 190", "city": "Atlanta", "state": "GA", "zip": "30303-3024", "category": "Community Capacity Bldg", "description": "Chambers of Commerce & Business Leagues", "ntee_code": "S41", "asset_amt": 823210, "income_amt": 520026, "revenue_amt": 398822 }, "geometry": { "type": "Point", "coordinates": [ -84.385169982910199, 33.754508972168004 ] } },
{ "type": "Feature", "properties": { "ein": "204760148", "name": "Donna Boortz Foundation Inc", "street": "2870 Peachtree Rd Ste 403", "city": "Atlanta", "state": "GA", "zip": "30305-2918", "category": "Philanthropy", "description": "Private Independent Foundations", "ntee_code": "T22", "asset_amt": 165215, "income_amt": 65658, "revenue_amt": null }, "geometry": { "type": "Point", "coordinates": [ -84.383125305175795, 33.833755493164098 ] } },
{ "type": "Feature", "properties": { "ein": "208351046", "name": "Goodwill Of North Georgia Inc", "street": "235 Peachtree St Ne Ste 2300", "city": "Atlanta", "state": "GA", "zip": "30303-1406", "category": "Employment", "description": "Goodwill Industries", "ntee_code": "J32", "asset_amt": 148095463, "income_amt": 123817066, "revenue_amt": 117168146 }, "geometry": { "type": "Point", "coordinates": [ -84.387542724609403, 33.760585784912102 ] } },
{ "type": "Feature", "properties": { "ein": "202217504", "name": "The Charitable Foundation Of The", "street": "100 Edgewood Ave Ne Ste 508", "city": "Atlanta", "state": "GA", "zip": "30303-3068", "category": "Philanthropy", "description": "Public Foundations", "ntee_code": "T30", "asset_amt": 36341, "income_amt": 13159, "revenue_amt": 13159 }, "geometry": { "type": "Point", "coordinates": [ -84.385169982910199, 33.754508972168004 ] } },
{ "type": "Feature", "properties": { "ein": "202139797", "name": "Big Bethel Title Holding Company Inc", "street": "204 Auburn Ave Ne", "city": "Atlanta", "state": "GA", "zip": "30303-2602", "category": "Community Capacity Bldg", "description": "Real Estate Associations", "ntee_code": "S47", "asset_amt": 2876371, "income_amt": 49874, "revenue_amt": 49874 }, "geometry": { "type": "Point", "coordinates": [ -84.380966186523409, 33.755558013916001 ] } },
{ "type": "Feature", "properties": { "ein": "203542333", "name": "Red Nose Relief Inc", "street": "2660 Peachtree Rd Ne", "city": "Atlanta", "state": "GA", "zip": "30305-0000", "category": "Human Services", "description": "Personal Social Services", "ntee_code": "P50", "asset_amt": 0, "income_amt": 0, "revenue_amt": 0 }, "geometry": { "type": "Point", "coordinates": [ -84.387474060058594, 33.828254699706996 ] } },
{ "type": "Feature", "properties": { "ein": "203502367", "name": "Church Of Gwinnett", "street": "260 Peachtree St Nw Ste 502", "city": "Atlanta", "state": "GA", "zip": "30303-1201", "category": "Religious", "description": "Protestant", "ntee_code": "X21", "asset_amt": null, "income_amt": null, "revenue_amt": null }, "geometry": { "type": "Point", "coordinates": [ -84.387596130371094, 33.761581420898402 ] } },
{ "type": "Feature", "properties": { "ein": "204705699", "name": "Marrow For Life", "street": "135 Auburn Avenue", "city": "Atlanta", "state": "GA", "zip": "30303-2567", "category": "Human Services", "description": "Human Services NEC", "ntee_code": "P99", "asset_amt": 0, "income_amt": 0, "revenue_amt": 0 }, "geometry": { "type": "Point", "coordinates": [ -84.382926940917997, 33.755519866943395 ] } },
{ "type": "Feature", "properties": { "ein": "203982777", "name": "Cousins Properties Foundation Inc", "street": "191 Peachtree St Ne Ste 500", "city": "Atlanta", "state": "GA", "zip": "30303-1755", "category": "Philanthropy", "description": "Private Grantmaking Foundations", "ntee_code": "T20", "asset_amt": 4192617, "income_amt": 2421181, "revenue_amt": null }, "geometry": { "type": "Point", "coordinates": [ -84.387557983398409, 33.758869171142599 ] } },
{ "type": "Feature", "properties": { "ein": "261477073", "name": "Georgia Watch Foundation Inc", "street": "55 Marietta St Nw Ste 903", "city": "Atlanta", "state": "GA", "zip": "30303-2835", "category": "Human Services", "description": "Fund Raising & Fund Distribution", "ntee_code": "P12", "asset_amt": 177625, "income_amt": 4971, "revenue_amt": 4971 }, "geometry": { "type": "Point", "coordinates": [ -84.39111328125, 33.755516052246101 ] } },
{ "type": "Feature", "properties": { "ein": "264678400", "name": "Damaged Goodz Outreach Inc", "street": "50 Hurt Plz Se Ste 945", "city": "Atlanta", "state": "GA", "zip": "30303-2944", "category": "Human Services", "description": "Centers to Support the Independence of Specific Populations", "ntee_code": "P80", "asset_amt": 0, "income_amt": 0, "revenue_amt": 0 }, "geometry": { "type": "Point", "coordinates": [ -84.387672424316406, 33.754219055175803 ] } },
{ "type": "Feature", "properties": { "ein": "261193832", "name": "24 7 Gateway Llc", "street": "275 Pryor St Sw", "city": "Atlanta", "state": "GA", "zip": "30303-3638", "category": "Housing Shelter", "description": "Homeless Shelters", "ntee_code": "L41", "asset_amt": 7122015, "income_amt": 3817537, "revenue_amt": 2998906 }, "geometry": { "type": "Point", "coordinates": [ -84.394073486328097, 33.747482299804695 ] } },
{ "type": "Feature", "properties": { "ein": "260708412", "name": "Georgia Chamber Of Commercefoundation Inc", "street": "270 Peachtree Street Nw", "city": "Atlanta", "state": "GA", "zip": "30303-1283", "category": "Community Capacity Bldg", "description": "Chambers of Commerce & Business Leagues", "ntee_code": "S41", "asset_amt": 1239608, "income_amt": 295875, "revenue_amt": 295875 }, "geometry": { "type": "Point", "coordinates": [ -84.387588500976591, 33.761909484863303 ] } },
{ "type": "Feature", "properties": { "ein": "262739653", "name": "Acf 2012 Host Committee Inc", "street": "235 Andrew Young Intl Blvd Nw", "city": "Atlanta", "state": "GA", "zip": "30303-2718", "category": "Community Capacity Bldg", "description": "Chambers of Commerce & Business Leagues", "ntee_code": "S41", "asset_amt": 3968, "income_amt": 8, "revenue_amt": 8 }, "geometry": { "type": "Point", "coordinates": [ -84.394287109375, 33.759067535400398 ] } },
{ "type": "Feature", "properties": { "ein": "261947437", "name": "Gideons Promise Inc", "street": "101 Marietta Street", "city": "Atlanta", "state": "GA", "zip": "30303-2720", "category": "Human Services", "description": "Human Services", "ntee_code": "P20", "asset_amt": 798387, "income_amt": 1317617, "revenue_amt": 1281386 }, "geometry": { "type": "Point", "coordinates": [ -84.392143249511705, 33.756542205810497 ] } },
{ "type": "Feature", "properties": { "ein": "260022498", "name": "Corenet Global Community Reinvestment Challenge", "street": "133 Peachtree St Ne Ste 3000", "city": "Atlanta", "state": "GA", "zip": "30303-1815", "category": "Community Capacity Bldg", "description": "Professional Societies & Associations", "ntee_code": "S03", "asset_amt": 0, "income_amt": 0, "revenue_amt": 0 }, "geometry": { "type": "Point", "coordinates": [ -84.387840270996094, 33.757289886474602 ] } },
{ "type": "Feature", "properties": { "ein": "263685989", "name": "Structural Engineers Association Of Georgia Inc", "street": "233 Peachtree St Ne Ste 700", "city": "Atlanta", "state": "GA", "zip": "30303-1506", "category": "Community Capacity Bldg", "description": "Chambers of Commerce & Business Leagues", "ntee_code": "S41", "asset_amt": 0, "income_amt": 0, "revenue_amt": 0 }, "geometry": { "type": "Point", "coordinates": [ -84.387542724609403, 33.760513305664098 ] } },
{ "type": "Feature", "properties": { "ein": "263496365", "name": "Giving Back To Humanity", "street": "92 Broad St Sw", "city": "Atlanta", "state": "GA", "zip": "30303-3412", "category": "Human Services", "description": "Homeless Centers", "ntee_code": "P85", "asset_amt": 0, "income_amt": 0, "revenue_amt": 0 }, "geometry": { "type": "Point", "coordinates": [ -84.392990112304702, 33.752109527587898 ] } },
{ "type": "Feature", "properties": { "ein": "261400615", "name": "Catherine H And John H Crawford Iii Family Foundation Inc", "street": "2611 Peachtree Rd Ne", "city": "Atlanta", "state": "GA", "zip": "30305-3603", "category": "Philanthropy", "description": "Private Grantmaking Foundations", "ntee_code": "T20", "asset_amt": 1183846, "income_amt": 404859, "revenue_amt": null }, "geometry": { "type": "Point", "coordinates": [ -84.387405395507798, 33.8266410827637 ] } },
{ "type": "Feature", "properties": { "ein": "264500686", "name": "Atlanta Chevre Minyan", "street": "3530 Piedmont Rd Ne Apt 2B", "city": "Atlanta", "state": "GA", "zip": "30305-1523", "category": "Religious", "description": "Judaism", "ntee_code": "X30", "asset_amt": 0, "income_amt": 0, "revenue_amt": 0 }, "geometry": { "type": "Point", "coordinates": [ -84.378608703613295, 33.850505828857401 ] } },
{ "type": "Feature", "properties": { "ein": "256912420", "name": "Robert Sheft And Hope Gittis Sheft Foundation", "street": "3631 Tuxedo Rd Nw", "city": "Atlanta", "state": "GA", "zip": "30305-1015", "category": "Philanthropy", "description": "Named Trusts NEC", "ntee_code": "T90", "asset_amt": 2793910, "income_amt": 3519396, "revenue_amt": null }, "geometry": { "type": "Point", "coordinates": [ -84.401725769042997, 33.853782653808601 ] } },
{ "type": "Feature", "properties": { "ein": "263747851", "name": "Mtoto Africa Inc", "street": "2907 N Hills Dr Ne", "city": "Atlanta", "state": "GA", "zip": "30305-3422", "category": "Human Services", "description": "Human Services NEC", "ntee_code": "P99", "asset_amt": 0, "income_amt": 0, "revenue_amt": 0 }, "geometry": { "type": "Point", "coordinates": [ -84.370178222656207, 33.833778381347699 ] } },
{ "type": "Feature", "properties": { "ein": "263692989", "name": "Loudermilk Foundation Inc", "street": "3060 Peachtree Rd Nw Ste 330", "city": "Atlanta", "state": "GA", "zip": "30305-2207", "category": "Philanthropy", "description": "Private Independent Foundations", "ntee_code": "T22", "asset_amt": 2936, "income_amt": 1, "revenue_amt": null }, "geometry": { "type": "Point", "coordinates": [ -84.380271911621094, 33.839027404785199 ] } },
{ "type": "Feature", "properties": { "ein": "261202588", "name": "Fife Charitable Foundation Inc", "street": "2964 Peachtree Rd Nw Ste 326", "city": "Atlanta", "state": "GA", "zip": "30305-2120", "category": "Philanthropy", "description": "Private Grantmaking Foundations", "ntee_code": "T20", "asset_amt": 9041, "income_amt": 47500, "revenue_amt": null }, "geometry": { "type": "Point", "coordinates": [ -84.382026672363295, 33.835746765136697 ] } },
{ "type": "Feature", "properties": { "ein": "261608725", "name": "Singer Family Foundation Inc", "street": "2660 Peachtree Rd Nw Apt 16B", "city": "Atlanta", "state": "GA", "zip": "30305-3677", "category": "Philanthropy", "description": "Private Independent Foundations", "ntee_code": "T22", "asset_amt": 408263, "income_amt": 129803, "revenue_amt": null }, "geometry": { "type": "Point", "coordinates": [ -84.387474060058594, 33.828254699706996 ] } },
{ "type": "Feature", "properties": { "ein": "262782177", "name": "Alpha Delta Pi International Housing Inc", "street": "1386 Ponce De Leon Ave Ne", "city": "Atlanta", "state": "GA", "zip": "30306-4604", "category": "Community Capacity Bldg", "description": "Real Estate Associations", "ntee_code": "S47", "asset_amt": 7067553, "income_amt": 774088, "revenue_amt": 106281 }, "geometry": { "type": "Point", "coordinates": [ -84.342086791992202, 33.775146484375 ] } },
{ "type": "Feature", "properties": { "ein": "260710110", "name": "I Am International Inc", "street": "2870 Peachtree Rd Ste 236", "city": "Atlanta", "state": "GA", "zip": "30305-2918", "category": "Religious", "description": "Religion-Related NEC", "ntee_code": "X99", "asset_amt": null, "income_amt": null, "revenue_amt": null }, "geometry": { "type": "Point", "coordinates": [ -84.383125305175795, 33.833755493164098 ] } },
{ "type": "Feature", "properties": { "ein": "270287405", "name": "Well Being Project Inc", "street": "625 Piedmont Ave Ne", "city": "Atlanta", "state": "GA", "zip": "30308-6200", "category": "Human Services", "description": "Personal Social Services", "ntee_code": "P50", "asset_amt": 2573, "income_amt": 0, "revenue_amt": 0 }, "geometry": { "type": "Point", "coordinates": [ -84.381797790527301, 33.771759033203104 ] } },
{ "type": "Feature", "properties": { "ein": "261899576", "name": "Mothers Of Professional Basketball Players Inc", "street": "1700 Doncaster Dr Ne", "city": "Atlanta", "state": "GA", "zip": "30309-2608", "category": "Philanthropy", "description": "Public Foundations", "ntee_code": "T30", "asset_amt": 9657, "income_amt": 27478, "revenue_amt": 27478 }, "geometry": { "type": "Point", "coordinates": [ -84.382377624511705, 33.801120758056605 ] } },
{ "type": "Feature", "properties": { "ein": "261490435", "name": "Serenity Club Inc", "street": "699 Piedmont Ave", "city": "Atlanta", "state": "GA", "zip": "30308-1400", "category": "Human Services", "description": "Centers to Support the Independence of Specific Populations", "ntee_code": "P80", "asset_amt": 0, "income_amt": 0, "revenue_amt": 0 }, "geometry": { "type": "Point", "coordinates": [ -84.381622314453097, 33.773658752441399 ] } },
{ "type": "Feature", "properties": { "ein": "264058353", "name": "Heery International Foundation Inc", "street": "999 Peachtree Street Ne", "city": "Atlanta", "state": "GA", "zip": "30309-3915", "category": "Philanthropy", "description": "Private Grantmaking Foundations", "ntee_code": "T20", "asset_amt": 41750, "income_amt": 14250, "revenue_amt": null }, "geometry": { "type": "Point", "coordinates": [ -84.383972167968793, 33.781631469726598 ] } },
{ "type": "Feature", "properties": { "ein": "263980631", "name": "Atlanta Chapter Of The Federal Bar Association Inc", "street": "1170 Peachtree St Ne Ste 100", "city": "Atlanta", "state": "GA", "zip": "30309-7689", "category": "Community Capacity Bldg", "description": "Chambers of Commerce & Business Leagues", "ntee_code": "S41", "asset_amt": 69604, "income_amt": 38566, "revenue_amt": 38566 }, "geometry": { "type": "Point", "coordinates": [ -84.383117675781207, 33.786453247070305 ] } },
{ "type": "Feature", "properties": { "ein": "264712062", "name": "Atlanta Youth Wind Symphony Foundation Inc", "street": "1230 Peachtree St Ne Ste 1500", "city": "Atlanta", "state": "GA", "zip": "30309-3504", "category": "Philanthropy", "description": "Community Foundations", "ntee_code": "T31", "asset_amt": 0, "income_amt": 0, "revenue_amt": 0 }, "geometry": { "type": "Point", "coordinates": [ -84.383636474609403, 33.7878608703613 ] } },
{ "type": "Feature", "properties": { "ein": "261385661", "name": "Projectbootstraps Inc", "street": "2221 Peachtree Road Ne-D-141", "city": "Atlanta", "state": "GA", "zip": "30309-1148", "category": "Human Services", "description": "Emergency Assistance", "ntee_code": "P60", "asset_amt": 0, "income_amt": 0, "revenue_amt": 0 }, "geometry": { "type": "Point", "coordinates": [ -84.391586303710909, 33.815074920654304 ] } },
{ "type": "Feature", "properties": { "ein": "260083502", "name": "Asian Pacific American Internal Revenue Employees", "street": "401 W Peachtree St Mail Stop 937-D", "city": "Atlanta", "state": "GA", "zip": "30308-3510", "category": "Civil Rights", "description": "Intergroup & Race Relations", "ntee_code": "R30", "asset_amt": 0, "income_amt": 0, "revenue_amt": 0 }, "geometry": { "type": "Point", "coordinates": [ -84.387458801269503, 33.764881134033196 ] } },
{ "type": "Feature", "properties": { "ein": "261479187", "name": "St John Overcoming Church Ministeries", "street": "937 Sims St Sw", "city": "Atlanta", "state": "GA", "zip": "30310-3019", "category": "Religious", "description": "Christianity", "ntee_code": "X20", "asset_amt": null, "income_amt": null, "revenue_amt": null }, "geometry": { "type": "Point", "coordinates": [ -84.403190612792997, 33.729461669921896 ] } },
{ "type": "Feature", "properties": { "ein": "261565763", "name": "Providence Manor Development Corporation", "street": "1100 Peachtree St Ne Ste 2800", "city": "Atlanta", "state": "GA", "zip": "30309-4528", "category": "Housing Shelter", "description": "Low-Income & Subsidized Rental Housing", "ntee_code": "L21", "asset_amt": 4688355, "income_amt": 191353, "revenue_amt": 191353 }, "geometry": { "type": "Point", "coordinates": [ -84.383010864257798, 33.784519195556605 ] } },
{ "type": "Feature", "properties": { "ein": "264696218", "name": "Pleasant Word Christian Center International", "street": "634 Whitehall St Sw", "city": "Atlanta", "state": "GA", "zip": "30310-1922", "category": "Religious", "description": "Protestant", "ntee_code": "X21", "asset_amt": null, "income_amt": null, "revenue_amt": null }, "geometry": { "type": "Point", "coordinates": [ -84.408668518066406, 33.741981506347699 ] } },
{ "type": "Feature", "properties": { "ein": "261237679", "name": "Islamic Council Of Georgia", "street": "567 Lee St Ste F", "city": "Atlanta", "state": "GA", "zip": "30310-0000", "category": "Religious", "description": "Islam", "ntee_code": "X40", "asset_amt": null, "income_amt": null, "revenue_amt": null }, "geometry": { "type": "Point", "coordinates": [ -84.414085388183594, 33.739433288574197 ] } },
{ "type": "Feature", "properties": { "ein": "262779496", "name": "Genesis Mission Inc", "street": "1229 Oakland Ter Sw", "city": "Atlanta", "state": "GA", "zip": "30310-3951", "category": "Housing Shelter", "description": "Temporary Housing", "ntee_code": "L40", "asset_amt": 931, "income_amt": 99510, "revenue_amt": 99510 }, "geometry": { "type": "Point", "coordinates": [ -84.428390502929702, 33.721115112304695 ] } },
{ "type": "Feature", "properties": { "ein": "261252816", "name": "Be A King Lyfe Foundation Inc", "street": "1638 Laurens Way Sw", "city": "Atlanta", "state": "GA", "zip": "30311-3718", "category": "Human Services", "description": "Financial Counseling", "ntee_code": "P51", "asset_amt": 3714, "income_amt": 0, "revenue_amt": 0 }, "geometry": { "type": "Point", "coordinates": [ -84.480171203613295, 33.711166381835902 ] } },
{ "type": "Feature", "properties": { "ein": "262048738", "name": "Georgia Life Links Inc", "street": "1544 Venetian Dr Sw", "city": "Atlanta", "state": "GA", "zip": "30311-3550", "category": "Human Services", "description": "Human Services", "ntee_code": "P20", "asset_amt": 0, "income_amt": 0, "revenue_amt": 0 }, "geometry": { "type": "Point", "coordinates": [ -84.439247131347699, 33.714557647705099 ] } },
{ "type": "Feature", "properties": { "ein": "263936859", "name": "Georgia Trade Up Inc", "street": "501 Pulliam St", "city": "Atlanta", "state": "GA", "zip": "30312-2755", "category": "Employment", "description": "Vocational Rehabilitation", "ntee_code": "J30", "asset_amt": 66226, "income_amt": 100050, "revenue_amt": 100050 }, "geometry": { "type": "Point", "coordinates": [ -84.392616271972699, 33.742507934570305 ] } },
{ "type": "Feature", "properties": { "ein": "263973827", "name": "Plywood People Inc", "street": "176 Carroll St Se", "city": "Atlanta", "state": "GA", "zip": "30312-2304", "category": "Human Services", "description": "Human Services", "ntee_code": "P20", "asset_amt": 74908, "income_amt": 503833, "revenue_amt": 503833 }, "geometry": { "type": "Point", "coordinates": [ -84.368034362792997, 33.749645233154304 ] } },
{ "type": "Feature", "properties": { "ein": "260077795", "name": "Friends Of Mills Inc", "street": "515 John Wesley Dobbs Ave Ne", "city": "Atlanta", "state": "GA", "zip": "30312-1329", "category": "Human Services", "description": "Senior Centers", "ntee_code": "P81", "asset_amt": 37202, "income_amt": 67461, "revenue_amt": 51220 }, "geometry": { "type": "Point", "coordinates": [ -84.370590209960909, 33.759292602539098 ] } },
{ "type": "Feature", "properties": { "ein": "263473766", "name": "Loving Arms Child Development Center Inc", "street": "469 Hill St Se", "city": "Atlanta", "state": "GA", "zip": "30312-3020", "category": "Human Services", "description": "Child Day Care", "ntee_code": "P33", "asset_amt": 0, "income_amt": 181563, "revenue_amt": 181563 }, "geometry": { "type": "Point", "coordinates": [ -84.379173278808594, 33.741928100585902 ] } },
{ "type": "Feature", "properties": { "ein": "270000606", "name": "Georgia Avenue Community Ministry", "street": "645 Grant St Se", "city": "Atlanta", "state": "GA", "zip": "30312-3146", "category": "Food", "description": "Food Banks & Pantries", "ntee_code": "K31", "asset_amt": 104567, "income_amt": 1057239, "revenue_amt": 1041958 }, "geometry": { "type": "Point", "coordinates": [ -84.37646484375, 33.737083435058601 ] } },
{ "type": "Feature", "properties": { "ein": "262749721", "name": "Luckie Marietta Inc", "street": "300 Marietta St Nw Ste 304", "city": "Atlanta", "state": "GA", "zip": "30313-1633", "category": "Community Capacity Bldg", "description": "Chambers of Commerce & Business Leagues", "ntee_code": "S41", "asset_amt": 54767, "income_amt": 127638, "revenue_amt": 127638 }, "geometry": { "type": "Point", "coordinates": [ -84.396102905273409, 33.761409759521499 ] } },
{ "type": "Feature", "properties": { "ein": "260693191", "name": "21St Century Stem Foundation Inc", "street": "238 Walker St Sw Unit 21", "city": "Atlanta", "state": "GA", "zip": "30313-1267", "category": "Religious", "description": "Christianity", "ntee_code": "X20", "asset_amt": 0, "income_amt": 0, "revenue_amt": 0 }, "geometry": { "type": "Point", "coordinates": [ -84.4027099609375, 33.748046875 ] } },
{ "type": "Feature", "properties": { "ein": "264230439", "name": "Lighthouse Community Development Corporation", "street": "47 Anderson Avenue Nw", "city": "Atlanta", "state": "GA", "zip": "30314-0000", "category": "Human Services", "description": "Neighborhood Centers", "ntee_code": "P28", "asset_amt": 0, "income_amt": 0, "revenue_amt": 0 }, "geometry": { "type": "Point", "coordinates": [ -84.449195861816406, 33.756057739257805 ] } },
{ "type": "Feature", "properties": { "ein": "261596263", "name": "Jesus For Justice Poor Peoples Campaign Incorporated", "street": "1563 Jonesboro Rd Se", "city": "Atlanta", "state": "GA", "zip": "30315-4042", "category": "Religious", "description": "Christianity", "ntee_code": "X20", "asset_amt": 0, "income_amt": 0, "revenue_amt": 0 }, "geometry": { "type": "Point", "coordinates": [ -84.381629943847699, 33.710235595703104 ] } },
{ "type": "Feature", "properties": { "ein": "262437234", "name": "Community Council Of Metropolitan Atlanta", "street": "80 Walnut St Suite 103", "city": "Atlanta", "state": "GA", "zip": "30314-4741", "category": "Human Services", "description": "Human Services", "ntee_code": "P20", "asset_amt": 0, "income_amt": 0, "revenue_amt": 0 }, "geometry": { "type": "Point", "coordinates": [ -84.406501770019503, 33.755928039550803 ] } },
{ "type": "Feature", "properties": { "ein": "264248963", "name": "Joy Of Life Ministries Inc", "street": "202 Warren St Se", "city": "Atlanta", "state": "GA", "zip": "30317-2243", "category": "Religious", "description": "Protestant", "ntee_code": "X21", "asset_amt": null, "income_amt": null, "revenue_amt": null }, "geometry": { "type": "Point", "coordinates": [ -84.326240539550795, 33.747646331787102 ] } },
{ "type": "Feature", "properties": { "ein": "261924058", "name": "Chec Pro Inc", "street": "514 Park Valley Dr Nw", "city": "Atlanta", "state": "GA", "zip": "30318-6254", "category": "Human Services", "description": "Human Services", "ntee_code": "P20", "asset_amt": 0, "income_amt": 0, "revenue_amt": 0 }, "geometry": { "type": "Point", "coordinates": [ -84.462638854980497, 33.769199371337898 ] } },
{ "type": "Feature", "properties": { "ein": "260413396", "name": "Neighbor In Need", "street": "2735 Tupelo St Se", "city": "Atlanta", "state": "GA", "zip": "30317-2925", "category": "Human Services", "description": "Human Services", "ntee_code": "P20", "asset_amt": 15300, "income_amt": 60641, "revenue_amt": 39896 }, "geometry": { "type": "Point", "coordinates": [ -84.297126770019503, 33.748893737793004 ] } },
{ "type": "Feature", "properties": { "ein": "263661696", "name": "Gomotion Worldwide Inc", "street": "155 Howard St Ne", "city": "Atlanta", "state": "GA", "zip": "30317-1140", "category": "Religious", "description": "Religion-Related NEC", "ntee_code": "X99", "asset_amt": 0, "income_amt": 0, "revenue_amt": 0 }, "geometry": { "type": "Point", "coordinates": [ -84.3231201171875, 33.756240844726598 ] } },
{ "type": "Feature", "properties": { "ein": "263115194", "name": "Americas Affordable Housing Network Inc", "street": "855 Magna Carta Dr Nw", "city": "Atlanta", "state": "GA", "zip": "30318-6059", "category": "Housing Shelter", "description": "Housing & Shelter NEC", "ntee_code": "L99", "asset_amt": 8921, "income_amt": 9275, "revenue_amt": 9275 }, "geometry": { "type": "Point", "coordinates": [ -84.481101989746094, 33.777194976806605 ] } },
{ "type": "Feature", "properties": { "ein": "262251584", "name": "Small Voices Foundation", "street": "2454 Fernleaf Ct Nw", "city": "Atlanta", "state": "GA", "zip": "30318-1420", "category": "Human Services", "description": "Children & Youth Services", "ntee_code": "P30", "asset_amt": 0, "income_amt": 0, "revenue_amt": 0 }, "geometry": { "type": "Point", "coordinates": [ -84.439750671386705, 33.821243286132805 ] } },
{ "type": "Feature", "properties": { "ein": "264394379", "name": "Restore Life Incorporated", "street": "1974 Maywood Pl Nw", "city": "Atlanta", "state": "GA", "zip": "30318-6373", "category": "Employment", "description": "Job Training", "ntee_code": "J22", "asset_amt": 0, "income_amt": 0, "revenue_amt": 0 }, "geometry": { "type": "Point", "coordinates": [ -84.452453613281207, 33.772190093994105 ] } },
{ "type": "Feature", "properties": { "ein": "262033846", "name": "Georgia Municipal Black Caucus", "street": "2346 Bernard Rd Nw", "city": "Atlanta", "state": "GA", "zip": "30318-1169", "category": "Public Social Benefit", "description": "Government & Public Administration", "ntee_code": "W20", "asset_amt": 1127, "income_amt": 1127, "revenue_amt": 1127 }, "geometry": { "type": "Point", "coordinates": [ -84.473281860351591, 33.819652557372997 ] } },
{ "type": "Feature", "properties": { "ein": "260661963", "name": "Brookhaven Security Patrol Inc", "street": "4500 Club Valley Dr Ne", "city": "Atlanta", "state": "GA", "zip": "30319-1064", "category": "Community Capacity Bldg", "description": "Neighborhood & Block Associations", "ntee_code": "S22", "asset_amt": 259640, "income_amt": 128555, "revenue_amt": 128555 }, "geometry": { "type": "Point", "coordinates": [ -84.353019714355497, 33.877952575683601 ] } },
{ "type": "Feature", "properties": { "ein": "270230104", "name": "New Hope Initiatives Inc", "street": "970 Jefferson St Nw", "city": "Atlanta", "state": "GA", "zip": "30318-5236", "category": "Employment", "description": "Employment Preparation & Procurement", "ntee_code": "J20", "asset_amt": 60942, "income_amt": 386629, "revenue_amt": 386629 }, "geometry": { "type": "Point", "coordinates": [ -84.417068481445298, 33.776153564453104 ] } },
{ "type": "Feature", "properties": { "ein": "260338062", "name": "Madeleine Jude Brown Foundation Inc", "street": "3845 Club Dr Ne", "city": "Atlanta", "state": "GA", "zip": "30319-1109", "category": "Philanthropy", "description": "Private Independent Foundations", "ntee_code": "T22", "asset_amt": 978522, "income_amt": 133597, "revenue_amt": null }, "geometry": { "type": "Point", "coordinates": [ -84.350433349609403, 33.859977722168004 ] } },
{ "type": "Feature", "properties": { "ein": "260426383", "name": "Tyler Perry Foundation Inc", "street": "541 10Th St Ste 140", "city": "Atlanta", "state": "GA", "zip": "30318-5713", "category": "Philanthropy", "description": "Public Foundations", "ntee_code": "T30", "asset_amt": 7563, "income_amt": 244912, "revenue_amt": null }, "geometry": { "type": "Point", "coordinates": [ -84.405014038085909, 33.781562805175803 ] } },
{ "type": "Feature", "properties": { "ein": "264796828", "name": "Tony Tyler Foundation", "street": "780 Morosgo Dr Ne Unit 14366", "city": "Atlanta", "state": "GA", "zip": "30324-9054", "category": "Human Services", "description": "Human Services", "ntee_code": "P20", "asset_amt": 1, "income_amt": 1500, "revenue_amt": 1500 }, "geometry": { "type": "Point", "coordinates": [ -84.362594604492202, 33.822845458984396 ] } },
{ "type": "Feature", "properties": { "ein": "263592175", "name": "Fallen Sparrow Foundation Inc", "street": "3338 Peachtree Rd Ne Apt 3407", "city": "Atlanta", "state": "GA", "zip": "30326-1473", "category": "Human Services", "description": "Emergency Assistance", "ntee_code": "P60", "asset_amt": 27585, "income_amt": 75996, "revenue_amt": 75996 }, "geometry": { "type": "Point", "coordinates": [ -84.370628356933594, 33.848960876464801 ] } },
{ "type": "Feature", "properties": { "ein": "261441249", "name": "Beard-Payne Family Foundation Inc", "street": "4130 E Brookhaven Dr Ne", "city": "Brookhaven", "state": "GA", "zip": "30319-2862", "category": "Philanthropy", "description": "Private Grantmaking Foundations", "ntee_code": "T20", "asset_amt": 78994, "income_amt": 344911, "revenue_amt": null }, "geometry": { "type": "Point", "coordinates": [ -84.348686218261705, 33.868373870849602 ] } },
{ "type": "Feature", "properties": { "ein": "261436975", "name": "Patty And Doug Reid Family Foundation Inc", "street": "1200 Heritage Ct Nw", "city": "Atlanta", "state": "GA", "zip": "30327-2727", "category": "Philanthropy", "description": "Private Independent Foundations", "ntee_code": "T22", "asset_amt": 15697388, "income_amt": 15163688, "revenue_amt": null }, "geometry": { "type": "Point", "coordinates": [ -84.426353454589801, 33.8560981750488 ] } },
{ "type": "Feature", "properties": { "ein": "261437351", "name": "Rosser Shanklin Ubuntu Foundation Inc", "street": "64 W Brookhaven Dr Ne", "city": "Brookhaven", "state": "GA", "zip": "30319-1143", "category": "Philanthropy", "description": "Private Grantmaking Foundations", "ntee_code": "T20", "asset_amt": 1, "income_amt": 1, "revenue_amt": null }, "geometry": { "type": "Point", "coordinates": [ -84.350654602050795, 33.863063812255895 ] } },