{
"type": "FeatureCollection",
"name": "atl_financial",
"crs": { "type": "name", "properties": { "name": "urn:ogc:def:crs:OGC:1.3:CRS84" } },
"features": [
{ "type": "Feature", "properties": { "locnum": "983978578", "name": "Locust Grove Jewelry Gun-Pawn", "street": "Highway 42", "city": "Locust Grove", "state": "GA", "zip": "30248", "type": "Pawn Shop", "naics5": "522298", "naics7": "52229813", "salesvol": 166.0 }, "geometry": { "type": "Point", "coordinates": [ -84.1081, 33.344200000000122 ] } },
{ "type": "Feature", "properties": { "locnum": "227933363", "name": "Cash Credit Corp", "street": "Bill Gardner Pkwy", "city": "Locust Grove", "state": "GA", "zip": "30248", "type": "Consumer Lending", "naics5": "522291", "naics7": "52229103", "salesvol": 1530.0 }, "geometry": { "type": "Point", "coordinates": [ -84.119699999999895, 33.3539 ] } },
{ "type": "Feature", "properties": { "locnum": "433852916", "name": "First American Title Lending", "street": "Bill Gardner Pkwy", "city": "Locust Grove", "state": "GA", "zip": "30248", "type": "Consumer Lending", "naics5": "522291", "naics7": "52229103", "salesvol": 1530.0 }, "geometry": { "type": "Point", "coordinates": [ -84.119699999999895, 33.3539 ] } },
{ "type": "Feature", "properties": { "locnum": "400371347", "name": "Vision Intersoft Inc", "street": "Royce Dr", "city": "Locust Grove", "state": "GA", "zip": "30248", "type": "Consumer Lending", "naics5": "522291", "naics7": "52229101", "salesvol": 1530.0 }, "geometry": { "type": "Point", "coordinates": [ -84.1585, 33.360500000000108 ] } },
{ "type": "Feature", "properties": { "locnum": "677081598", "name": "Higgins Finance Co Llc", "street": "Greenville St", "city": "Newnan", "state": "GA", "zip": "30263", "type": "Consumer Lending", "naics5": "522291", "naics7": "52229101", "salesvol": 3060.0 }, "geometry": { "type": "Point", "coordinates": [ -84.7947, 33.363300000000137 ] } },
{ "type": "Feature", "properties": { "locnum": "478166291", "name": "Newnan Plaza Shop & Pawn", "street": "Greenville St", "city": "Newnan", "state": "GA", "zip": "30263", "type": "Pawn Shop", "naics5": "522298", "naics7": "52229813", "salesvol": 166.0 }, "geometry": { "type": "Point", "coordinates": [ -84.795299999999841, 33.3637 ] } },
{ "type": "Feature", "properties": { "locnum": "939727772", "name": "Western Finance Svc", "street": "Jefferson St", "city": "Newnan", "state": "GA", "zip": "30263", "type": "Consumer Lending", "naics5": "522291", "naics7": "52229103", "salesvol": 765.0 }, "geometry": { "type": "Point", "coordinates": [ -84.799199999999885, 33.377700000000104 ] } },
{ "type": "Feature", "properties": { "locnum": "422078012", "name": "Pawn Express Of Newnan", "street": "Temple Ave", "city": "Newnan", "state": "GA", "zip": "30263", "type": "Pawn Shop", "naics5": "522298", "naics7": "52229813", "salesvol": 166.0 }, "geometry": { "type": "Point", "coordinates": [ -84.8085, 33.380600000000115 ] } },
{ "type": "Feature", "properties": { "locnum": "396292096", "name": "Loan Max Title Loans", "street": "Jefferson St", "city": "Newnan", "state": "GA", "zip": "30263", "type": "Consumer Lending", "naics5": "522291", "naics7": "52229109", "salesvol": 1530.0 }, "geometry": { "type": "Point", "coordinates": [ -84.796, 33.3814 ] } },
{ "type": "Feature", "properties": { "locnum": "607393410", "name": "Atlanta Title Loans", "street": "Jefferson St", "city": "Newnan", "state": "GA", "zip": "30263", "type": "Consumer Lending", "naics5": "522291", "naics7": "52229103", "salesvol": 3060.0 }, "geometry": { "type": "Point", "coordinates": [ -84.796, 33.3814 ] } },
{ "type": "Feature", "properties": { "locnum": "695742999", "name": "Complete Cash", "street": "Temple Ave", "city": "Newnan", "state": "GA", "zip": "30263", "type": "Consumer Lending", "naics5": "522291", "naics7": "52229109", "salesvol": 765.0 }, "geometry": { "type": "Point", "coordinates": [ -84.8129, 33.3819 ] } },
{ "type": "Feature", "properties": { "locnum": "516625050", "name": "Abraham's Gold & Pawn", "street": "Temple Ave", "city": "Newnan", "state": "GA", "zip": "30263", "type": "Pawn Shop", "naics5": "522298", "naics7": "52229813", "salesvol": 166.0 }, "geometry": { "type": "Point", "coordinates": [ -84.8121, 33.382000000000126 ] } },
{ "type": "Feature", "properties": { "locnum": "229143862", "name": "Title Max", "street": "Jefferson St", "city": "Newnan", "state": "GA", "zip": "30263", "type": "Consumer Lending", "naics5": "522291", "naics7": "52229103", "salesvol": 3060.0 }, "geometry": { "type": "Point", "coordinates": [ -84.7958, 33.3823 ] } },
{ "type": "Feature", "properties": { "locnum": "205922099", "name": "Imog Jewlry & Pawn", "street": "Sharpsburg Mccullum Rd", "city": "Newnan", "state": "GA", "zip": "30265", "type": "Pawn Shop", "naics5": "522298", "naics7": "52229813", "salesvol": 249.0 }, "geometry": { "type": "Point", "coordinates": [ -84.6726, 33.3824 ] } },
{ "type": "Feature", "properties": { "locnum": "700385442", "name": "Community Loans", "street": "Bullsboro Dr", "city": "Newnan", "state": "GA", "zip": "30263", "type": "Consumer Lending", "naics5": "522291", "naics7": "52229103", "salesvol": 3060.0 }, "geometry": { "type": "Point", "coordinates": [ -84.7903, 33.383 ] } },
{ "type": "Feature", "properties": { "locnum": "128026747", "name": "Security Finance Corp", "street": "Temple Ave", "city": "Newnan", "state": "GA", "zip": "30263", "type": "Consumer Lending", "naics5": "522291", "naics7": "52229103", "salesvol": 3060.0 }, "geometry": { "type": "Point", "coordinates": [ -84.8137, 33.3833 ] } },
{ "type": "Feature", "properties": { "locnum": "635062144", "name": "Premier Title Lending", "street": "Temple Ave", "city": "Newnan", "state": "GA", "zip": "30263", "type": "Consumer Lending", "naics5": "522291", "naics7": "52229103", "salesvol": 2295.0 }, "geometry": { "type": "Point", "coordinates": [ -84.8137, 33.3833 ] } },
{ "type": "Feature", "properties": { "locnum": "672310984", "name": "Premier Title Pawn", "street": "Temple Ave", "city": "Newnan", "state": "GA", "zip": "30263", "type": "Consumer Lending", "naics5": "522291", "naics7": "52229109", "salesvol": 3825.0 }, "geometry": { "type": "Point", "coordinates": [ -84.8137, 33.3833 ] } },
{ "type": "Feature", "properties": { "locnum": "633019849", "name": "Title Bucks", "street": "Temple Ave", "city": "Newnan", "state": "GA", "zip": "30263", "type": "Consumer Lending", "naics5": "522291", "naics7": "52229103", "salesvol": 3060.0 }, "geometry": { "type": "Point", "coordinates": [ -84.8151, 33.3835 ] } },
{ "type": "Feature", "properties": { "locnum": "258795871", "name": "Sunset Finance Co Of Newnan", "street": "Bullsboro Dr", "city": "Newnan", "state": "GA", "zip": "30263", "type": "Consumer Lending", "naics5": "522291", "naics7": "52229103", "salesvol": 3060.0 }, "geometry": { "type": "Point", "coordinates": [ -84.7859, 33.3839 ] } },
{ "type": "Feature", "properties": { "locnum": "707327738", "name": "World Finance", "street": "Bullsboro Dr", "city": "Newnan", "state": "GA", "zip": "30263", "type": "Consumer Lending", "naics5": "522291", "naics7": "52229103", "salesvol": 2295.0 }, "geometry": { "type": "Point", "coordinates": [ -84.7829, 33.385400000000132 ] } },
{ "type": "Feature", "properties": { "locnum": "700082973", "name": "First American Title Lending", "street": "Bullsboro Dr", "city": "Newnan", "state": "GA", "zip": "30263", "type": "Consumer Lending", "naics5": "522291", "naics7": "52229103", "salesvol": 1530.0 }, "geometry": { "type": "Point", "coordinates": [ -84.7731, 33.3878 ] } },
{ "type": "Feature", "properties": { "locnum": "497681734", "name": "Service Loan Co", "street": "Bullsboro Dr", "city": "Newnan", "state": "GA", "zip": "30263", "type": "Consumer Lending", "naics5": "522291", "naics7": "52229103", "salesvol": 1530.0 }, "geometry": { "type": "Point", "coordinates": [ -84.7698, 33.3916 ] } },
{ "type": "Feature", "properties": { "locnum": "229143706", "name": "Covington Credit Corp", "street": "Bullsboro Dr", "city": "Newnan", "state": "GA", "zip": "30263", "type": "Consumer Lending", "naics5": "522291", "naics7": "52229103", "salesvol": 2295.0 }, "geometry": { "type": "Point", "coordinates": [ -84.7716, 33.3925 ] } },
{ "type": "Feature", "properties": { "locnum": "400645462", "name": "Insta Loan", "street": "Bullsboro Dr", "city": "Newnan", "state": "GA", "zip": "30263", "type": "Consumer Lending", "naics5": "522291", "naics7": "52229103", "salesvol": 3060.0 }, "geometry": { "type": "Point", "coordinates": [ -84.7657, 33.3936 ] } },
{ "type": "Feature", "properties": { "locnum": "424172690", "name": "1St Franklin Financial Corp", "street": "Bullsboro Dr", "city": "Newnan", "state": "GA", "zip": "30263", "type": "Consumer Lending", "naics5": "522291", "naics7": "52229101", "salesvol": 4590.0 }, "geometry": { "type": "Point", "coordinates": [ -84.7626, 33.395 ] } },
{ "type": "Feature", "properties": { "locnum": "612872408", "name": "Lendmark Financial Svc", "street": "Highway 34 E", "city": "Newnan", "state": "GA", "zip": "30265", "type": "Consumer Lending", "naics5": "522291", "naics7": "52229101", "salesvol": 2295.0 }, "geometry": { "type": "Point", "coordinates": [ -84.7446, 33.3966 ] } },
{ "type": "Feature", "properties": { "locnum": "422360108", "name": "Auto Cash Title Pawn", "street": "Highway 34 E", "city": "Newnan", "state": "GA", "zip": "30265", "type": "Pawn Shop", "naics5": "522298", "naics7": "52229813", "salesvol": 166.0 }, "geometry": { "type": "Point", "coordinates": [ -84.7517, 33.396900000000173 ] } },
{ "type": "Feature", "properties": { "locnum": "516625043", "name": "A-1 Fast Cash Inc", "street": "Highway 34 E", "city": "Newnan", "state": "GA", "zip": "30265", "type": "Pawn Shop", "naics5": "522298", "naics7": "52229813", "salesvol": 83.0 }, "geometry": { "type": "Point", "coordinates": [ -84.7297, 33.3985 ] } },
{ "type": "Feature", "properties": { "locnum": "705775833", "name": "Republic Finance Inc", "street": "Highway 34 E", "city": "Newnan", "state": "GA", "zip": "30265", "type": "Consumer Lending", "naics5": "522291", "naics7": "52229101", "salesvol": 2295.0 }, "geometry": { "type": "Point", "coordinates": [ -84.7297, 33.3985 ] } },
{ "type": "Feature", "properties": { "locnum": "715794791", "name": "Family Pawn Llc", "street": "Highway 34 E", "city": "Newnan", "state": "GA", "zip": "30265", "type": "Pawn Shop", "naics5": "522298", "naics7": "52229813", "salesvol": 166.0 }, "geometry": { "type": "Point", "coordinates": [ -84.725, 33.4018 ] } },
{ "type": "Feature", "properties": { "locnum": "402807102", "name": "Trading Post", "street": "Baker Rd", "city": "Newnan", "state": "GA", "zip": "30265", "type": "Pawn Shop", "naics5": "522298", "naics7": "52229813", "salesvol": 83.0 }, "geometry": { "type": "Point", "coordinates": [ -84.7065, 33.4053 ] } },
{ "type": "Feature", "properties": { "locnum": "708290266", "name": "T N T Pawn", "street": "Baker Rd", "city": "Newnan", "state": "GA", "zip": "30265", "type": "Pawn Shop", "naics5": "522298", "naics7": "52229813", "salesvol": 166.0 }, "geometry": { "type": "Point", "coordinates": [ -84.7065, 33.4053 ] } },
{ "type": "Feature", "properties": { "locnum": "426002807", "name": "Element Funding", "street": "Sharpsburg Mccullum Rd", "city": "Newnan", "state": "GA", "zip": "30265", "type": "Consumer Lending", "naics5": "522291", "naics7": "52229101", "salesvol": 3060.0 }, "geometry": { "type": "Point", "coordinates": [ -84.6821, 33.4067 ] } },
{ "type": "Feature", "properties": { "locnum": "128022985", "name": "Onemain Financial", "street": "Highway 34 E", "city": "Newnan", "state": "GA", "zip": "30265", "type": "Consumer Lending", "naics5": "522291", "naics7": "52229108", "salesvol": 2295.0 }, "geometry": { "type": "Point", "coordinates": [ -84.6792, 33.4093 ] } },
{ "type": "Feature", "properties": { "locnum": "620735597", "name": "Sib Financial Group", "street": "Tivoli Gardens Rd", "city": "Peachtree City", "state": "GA", "zip": "30269", "type": "Consumer Lending", "naics5": "522291", "naics7": "52229101", "salesvol": 1530.0 }, "geometry": { "type": "Point", "coordinates": [ -84.5614, 33.410700000000148 ] } },
{ "type": "Feature", "properties": { "locnum": "399616820", "name": "Bank Direct Finance", "street": "Walnut Grove Rd", "city": "Peachtree City", "state": "GA", "zip": "30269", "type": "Consumer Lending", "naics5": "522291", "naics7": "52229101", "salesvol": 765.0 }, "geometry": { "type": "Point", "coordinates": [ -84.5929, 33.4126 ] } },
{ "type": "Feature", "properties": { "locnum": "422245868", "name": "Car Financial", "street": "Stevens Entry", "city": "Peachtree City", "state": "GA", "zip": "30269", "type": "Consumer Lending", "naics5": "522291", "naics7": "52229102", "salesvol": 3825.0 }, "geometry": { "type": "Point", "coordinates": [ -84.565799999999868, 33.4151 ] } },
{ "type": "Feature", "properties": { "locnum": "427751112", "name": "Peachtree City Pawn", "street": "Highway 54 W", "city": "Peachtree City", "state": "GA", "zip": "30269", "type": "Pawn Shop", "naics5": "522298", "naics7": "52229813", "salesvol": 83.0 }, "geometry": { "type": "Point", "coordinates": [ -84.557, 33.427300000000102 ] } },
{ "type": "Feature", "properties": { "locnum": "427527995", "name": "Title Max", "street": "Highway 54 W", "city": "Peachtree City", "state": "GA", "zip": "30269", "type": "Consumer Lending", "naics5": "522291", "naics7": "52229103", "salesvol": 2295.0 }, "geometry": { "type": "Point", "coordinates": [ -84.5558, 33.4283 ] } },
{ "type": "Feature", "properties": { "locnum": "700389127", "name": "Highway 81 Pawn", "street": "Highway 81 E", "city": "Mcdonough", "state": "GA", "zip": "30252", "type": "Pawn Shop", "naics5": "522298", "naics7": "52229813", "salesvol": 166.0 }, "geometry": { "type": "Point", "coordinates": [ -84.0989, 33.428400000000103 ] } },
{ "type": "Feature", "properties": { "locnum": "425840096", "name": "Insta Loan", "street": "Highway 20 81", "city": "Mcdonough", "state": "GA", "zip": "30253", "type": "Consumer Lending", "naics5": "522291", "naics7": "52229103", "salesvol": 2295.0 }, "geometry": { "type": "Point", "coordinates": [ -84.1804, 33.429100000000112 ] } },
{ "type": "Feature", "properties": { "locnum": "406162629", "name": "Springleaf Financial Svc", "street": "Glynn St S", "city": "Fayetteville", "state": "GA", "zip": "30214", "type": "Consumer Lending", "naics5": "522291", "naics7": "52229108", "salesvol": 2295.0 }, "geometry": { "type": "Point", "coordinates": [ -84.4575, 33.4307 ] } },
{ "type": "Feature", "properties": { "locnum": "573220100", "name": "World Finance", "street": "Macon St", "city": "Mcdonough", "state": "GA", "zip": "30253", "type": "Consumer Lending", "naics5": "522291", "naics7": "52229103", "salesvol": 1530.0 }, "geometry": { "type": "Point", "coordinates": [ -84.1455, 33.4317 ] } },
{ "type": "Feature", "properties": { "locnum": "690586649", "name": "World Acceptance", "street": "Macon St", "city": "Mcdonough", "state": "GA", "zip": "30253", "type": "Consumer Lending", "naics5": "522291", "naics7": "52229103", "salesvol": 2295.0 }, "geometry": { "type": "Point", "coordinates": [ -84.1455, 33.4317 ] } },
{ "type": "Feature", "properties": { "locnum": "705407411", "name": "Lendmark Financial Svc", "street": "Willow Ln", "city": "Mcdonough", "state": "GA", "zip": "30253", "type": "Consumer Lending", "naics5": "522291", "naics7": "52229103", "salesvol": 2295.0 }, "geometry": { "type": "Point", "coordinates": [ -84.1804, 33.4327 ] } },
{ "type": "Feature", "properties": { "locnum": "417555213", "name": "Lovejoy Pawn", "street": "Tara Blvd", "city": "Hampton", "state": "GA", "zip": "30228", "type": "Pawn Shop", "naics5": "522298", "naics7": "52229813", "salesvol": 166.0 }, "geometry": { "type": "Point", "coordinates": [ -84.3233, 33.444900000000125 ] } },
{ "type": "Feature", "properties": { "locnum": "642821664", "name": "Title Max", "street": "Tara Blvd", "city": "Hampton", "state": "GA", "zip": "30228", "type": "Consumer Lending", "naics5": "522291", "naics7": "52229103", "salesvol": 3060.0 }, "geometry": { "type": "Point", "coordinates": [ -84.3233, 33.444900000000125 ] } },
{ "type": "Feature", "properties": { "locnum": "706308001", "name": "Insta Loan", "street": "Tara Blvd", "city": "Hampton", "state": "GA", "zip": "30228", "type": "Consumer Lending", "naics5": "522291", "naics7": "52229103", "salesvol": 2295.0 }, "geometry": { "type": "Point", "coordinates": [ -84.3233, 33.444900000000125 ] } },
{ "type": "Feature", "properties": { "locnum": "685321382", "name": "Sunset Finance Of Mc Donough", "street": "Keys Ferry St", "city": "Mcdonough", "state": "GA", "zip": "30253", "type": "Consumer Lending", "naics5": "522291", "naics7": "52229103", "salesvol": 2295.0 }, "geometry": { "type": "Point", "coordinates": [ -84.137199999999879, 33.4469 ] } },
{ "type": "Feature", "properties": { "locnum": "372724450", "name": "Kwik Kash Inc", "street": "Keys Ferry St", "city": "Mcdonough", "state": "GA", "zip": "30253", "type": "Pawn Shop", "naics5": "522298", "naics7": "52229813", "salesvol": 83.0 }, "geometry": { "type": "Point", "coordinates": [ -84.14, 33.4473 ] } },
{ "type": "Feature", "properties": { "locnum": "128415650", "name": "Airport Credit Corp\/Loans", "street": "Lanier Ave W", "city": "Fayetteville", "state": "GA", "zip": "30214", "type": "Consumer Lending", "naics5": "522291", "naics7": "52229103", "salesvol": 765.0 }, "geometry": { "type": "Point", "coordinates": [ -84.4639, 33.4474 ] } },
{ "type": "Feature", "properties": { "locnum": "428062946", "name": "Title Max", "street": "Tara Blvd", "city": "Lovejoy", "state": "GA", "zip": "30250", "type": "Consumer Lending", "naics5": "522291", "naics7": "52229103", "salesvol": 2295.0 }, "geometry": { "type": "Point", "coordinates": [ -84.3246, 33.4476 ] } },
{ "type": "Feature", "properties": { "locnum": "401529235", "name": "1St Franklin Financial Corp", "street": "John Frank Ward Blvd", "city": "Mcdonough", "state": "GA", "zip": "30253", "type": "Consumer Lending", "naics5": "522291", "naics7": "52229101", "salesvol": 5355.0 }, "geometry": { "type": "Point", "coordinates": [ -84.1402, 33.4477 ] } },
{ "type": "Feature", "properties": { "locnum": "431534788", "name": "Title Max", "street": "Tara Blvd", "city": "Hampton", "state": "GA", "zip": "30228", "type": "Consumer Lending", "naics5": "522291", "naics7": "52229103", "salesvol": 2295.0 }, "geometry": { "type": "Point", "coordinates": [ -84.324, 33.448000000000107 ] } },
{ "type": "Feature", "properties": { "locnum": "827049073", "name": "Southern Crescent Mortgage Inc", "street": "Lanier Ave W", "city": "Fayetteville", "state": "GA", "zip": "30214", "type": "Consumer Lending", "naics5": "522291", "naics7": "52229103", "salesvol": 3825.0 }, "geometry": { "type": "Point", "coordinates": [ -84.455999999999861, 33.4487 ] } },
{ "type": "Feature", "properties": { "locnum": "436341763", "name": "Southern Credit Union", "street": "Lanier Ave E", "city": "Fayetteville", "state": "GA", "zip": "30214", "type": "Consumer Lending", "naics5": "522291", "naics7": "52229103", "salesvol": 1530.0 }, "geometry": { "type": "Point", "coordinates": [ -84.4469, 33.4496 ] } },
{ "type": "Feature", "properties": { "locnum": "257077180", "name": "Title Max", "street": "Hampton Road 20\/81", "city": "Mcdonough", "state": "GA", "zip": "30253", "type": "Consumer Lending", "naics5": "522291", "naics7": "52229103", "salesvol": 1530.0 }, "geometry": { "type": "Point", "coordinates": [ -84.1892, 33.4503 ] } },
{ "type": "Feature", "properties": { "locnum": "425962359", "name": "I N L-Fayetteville Ga", "street": "Glynn St N", "city": "Fayetteville", "state": "GA", "zip": "30214", "type": "Consumer Lending", "naics5": "522291", "naics7": "52229103", "salesvol": 1530.0 }, "geometry": { "type": "Point", "coordinates": [ -84.4548, 33.4557000000001 ] } },
{ "type": "Feature", "properties": { "locnum": "706308028", "name": "Insta Loan", "street": "Glynn St N", "city": "Fayetteville", "state": "GA", "zip": "30214", "type": "Consumer Lending", "naics5": "522291", "naics7": "52229103", "salesvol": 2295.0 }, "geometry": { "type": "Point", "coordinates": [ -84.4548, 33.4557000000001 ] } },
{ "type": "Feature", "properties": { "locnum": "827072059", "name": "Pioneer Credit Co", "street": "Jonesboro Rd", "city": "Mcdonough", "state": "GA", "zip": "30253", "type": "Consumer Lending", "naics5": "522291", "naics7": "52229101", "salesvol": 3060.0 }, "geometry": { "type": "Point", "coordinates": [ -84.1773, 33.4584 ] } },
{ "type": "Feature", "properties": { "locnum": "717582036", "name": "Diversified Funding", "street": "Habersham Dr", "city": "Fayetteville", "state": "GA", "zip": "30214", "type": "Consumer Lending", "naics5": "522291", "naics7": "52229101", "salesvol": 1530.0 }, "geometry": { "type": "Point", "coordinates": [ -84.4547, 33.459 ] } },
{ "type": "Feature", "properties": { "locnum": "425592210", "name": "First American Title Lending", "street": "Jonesboro Rd", "city": "Mcdonough", "state": "GA", "zip": "30253", "type": "Consumer Lending", "naics5": "522291", "naics7": "52229103", "salesvol": 1530.0 }, "geometry": { "type": "Point", "coordinates": [ -84.220799999999898, 33.464400000000154 ] } },
{ "type": "Feature", "properties": { "locnum": "962232971", "name": "Springleaf Financial Svc", "street": "Jonesboro Rd", "city": "Mcdonough", "state": "GA", "zip": "30253", "type": "Consumer Lending", "naics5": "522291", "naics7": "52229108", "salesvol": 3060.0 }, "geometry": { "type": "Point", "coordinates": [ -84.220799999999898, 33.464400000000154 ] } },
{ "type": "Feature", "properties": { "locnum": "643329170", "name": "World Finance", "street": "Glynn St N", "city": "Fayetteville", "state": "GA", "zip": "30214", "type": "Consumer Lending", "naics5": "522291", "naics7": "52229103", "salesvol": 2295.0 }, "geometry": { "type": "Point", "coordinates": [ -84.449299999999894, 33.4652 ] } },
{ "type": "Feature", "properties": { "locnum": "425272669", "name": "1St Franklin Financial Corp", "street": "Banks Sta", "city": "Fayetteville", "state": "GA", "zip": "30214", "type": "Consumer Lending", "naics5": "522291", "naics7": "52229101", "salesvol": 2295.0 }, "geometry": { "type": "Point", "coordinates": [ -84.4486, 33.47 ] } },
{ "type": "Feature", "properties": { "locnum": "388324006", "name": "Title Max", "street": "Highway 85 N", "city": "Fayetteville", "state": "GA", "zip": "30214", "type": "Consumer Lending", "naics5": "522291", "naics7": "52229103", "salesvol": 2295.0 }, "geometry": { "type": "Point", "coordinates": [ -84.4429, 33.4732 ] } },
{ "type": "Feature", "properties": { "locnum": "127634541", "name": "Onemain Financial", "street": "Tara Blvd", "city": "Jonesboro", "state": "GA", "zip": "30236", "type": "Consumer Lending", "naics5": "522291", "naics7": "52229108", "salesvol": 3060.0 }, "geometry": { "type": "Point", "coordinates": [ -84.3377, 33.4763 ] } },
{ "type": "Feature", "properties": { "locnum": "354044711", "name": "Express Funding Solutions", "street": "Sutton Dr", "city": "Mcdonough", "state": "GA", "zip": "30252", "type": "Consumer Lending", "naics5": "522291", "naics7": "52229101", "salesvol": 2295.0 }, "geometry": { "type": "Point", "coordinates": [ -84.113699999999881, 33.4765 ] } },
{ "type": "Feature", "properties": { "locnum": "711002186", "name": "Southern Title Loans", "street": "Senoia Rd", "city": "Tyrone", "state": "GA", "zip": "30290", "type": "Consumer Lending", "naics5": "522291", "naics7": "52229103", "salesvol": 1530.0 }, "geometry": { "type": "Point", "coordinates": [ -84.5897, 33.4794 ] } },
{ "type": "Feature", "properties": { "locnum": "705610367", "name": "Republic Finance Inc", "street": "Highway 85 N", "city": "Fayetteville", "state": "GA", "zip": "30214", "type": "Consumer Lending", "naics5": "522291", "naics7": "52229101", "salesvol": 2295.0 }, "geometry": { "type": "Point", "coordinates": [ -84.4353, 33.4821 ] } },
{ "type": "Feature", "properties": { "locnum": "240790568", "name": "Payday Pawn Inc", "street": "Jodeco Rd", "city": "Mcdonough", "state": "GA", "zip": "30253", "type": "Pawn Shop", "naics5": "522298", "naics7": "52229813", "salesvol": 166.0 }, "geometry": { "type": "Point", "coordinates": [ -84.209699999999884, 33.4822 ] } },
{ "type": "Feature", "properties": { "locnum": "422246072", "name": "Am South", "street": "Carnes Rd", "city": "Jonesboro", "state": "GA", "zip": "30236", "type": "Consumer Lending", "naics5": "522291", "naics7": "52229103", "salesvol": 2295.0 }, "geometry": { "type": "Point", "coordinates": [ -84.297699999999892, 33.498800000000138 ] } },
{ "type": "Feature", "properties": { "locnum": "827093964", "name": "Jonesboro Exchange", "street": "S Main St", "city": "Jonesboro", "state": "GA", "zip": "30236", "type": "Pawn Shop", "naics5": "522298", "naics7": "52229813", "salesvol": 83.0 }, "geometry": { "type": "Point", "coordinates": [ -84.3519, 33.510500000000107 ] } },
{ "type": "Feature", "properties": { "locnum": "886966365", "name": "Sunny Side Pawn Shop", "street": "Kenwood Rd", "city": "Fayetteville", "state": "GA", "zip": "30214", "type": "Pawn Shop", "naics5": "522298", "naics7": "52229813", "salesvol": 83.0 }, "geometry": { "type": "Point", "coordinates": [ -84.4299, 33.5119 ] } },
{ "type": "Feature", "properties": { "locnum": "886971183", "name": "G & L Pawn Shop", "street": "Kenwood Rd", "city": "Fayetteville", "state": "GA", "zip": "30214", "type": "Pawn Shop", "naics5": "522298", "naics7": "52229813", "salesvol": 83.0 }, "geometry": { "type": "Point", "coordinates": [ -84.4299, 33.5119 ] } },
{ "type": "Feature", "properties": { "locnum": "128030152", "name": "J 'N' T Pawn Shop", "street": "Fayetteville Rd", "city": "Palmetto", "state": "GA", "zip": "30268", "type": "Pawn Shop", "naics5": "522298", "naics7": "52229813", "salesvol": 83.0 }, "geometry": { "type": "Point", "coordinates": [ -84.668, 33.5174 ] } },
{ "type": "Feature", "properties": { "locnum": "453974396", "name": "Pawn House", "street": "Main St", "city": "Palmetto", "state": "GA", "zip": "30268", "type": "Pawn Shop", "naics5": "522298", "naics7": "52229813", "salesvol": 83.0 }, "geometry": { "type": "Point", "coordinates": [ -84.6689, 33.518500000000159 ] } },
{ "type": "Feature", "properties": { "locnum": "394133490", "name": "Sunset Finance Co", "street": "N Main St", "city": "Jonesboro", "state": "GA", "zip": "30236", "type": "Consumer Lending", "naics5": "522291", "naics7": "52229103", "salesvol": 2295.0 }, "geometry": { "type": "Point", "coordinates": [ -84.3556, 33.5315 ] } },
{ "type": "Feature", "properties": { "locnum": "642821631", "name": "Title Max", "street": "Tara Blvd", "city": "Jonesboro", "state": "GA", "zip": "30236", "type": "Consumer Lending", "naics5": "522291", "naics7": "52229103", "salesvol": 1530.0 }, "geometry": { "type": "Point", "coordinates": [ -84.363399999999899, 33.532600000000109 ] } },
{ "type": "Feature", "properties": { "locnum": "827071432", "name": "Title Exchange & Pawn", "street": "N Main St", "city": "Jonesboro", "state": "GA", "zip": "30236", "type": "Pawn Shop", "naics5": "522298", "naics7": "52229813", "salesvol": 166.0 }, "geometry": { "type": "Point", "coordinates": [ -84.3587, 33.5343 ] } },
{ "type": "Feature", "properties": { "locnum": "827070707", "name": "World Finance", "street": "Spur 138", "city": "Jonesboro", "state": "GA", "zip": "30236", "type": "Consumer Lending", "naics5": "522291", "naics7": "52229103", "salesvol": 2295.0 }, "geometry": { "type": "Point", "coordinates": [ -84.363299999999882, 33.5379 ] } },
{ "type": "Feature", "properties": { "locnum": "886966217", "name": "Epawn", "street": "Spur 138", "city": "Jonesboro", "state": "GA", "zip": "30236", "type": "Pawn Shop", "naics5": "522298", "naics7": "52229813", "salesvol": 664.0 }, "geometry": { "type": "Point", "coordinates": [ -84.3628, 33.538000000000139 ] } },
{ "type": "Feature", "properties": { "locnum": "127977833", "name": "Onemain Financial", "street": "Tara Blvd", "city": "Jonesboro", "state": "GA", "zip": "30236", "type": "Consumer Lending", "naics5": "522291", "naics7": "52229108", "salesvol": 2295.0 }, "geometry": { "type": "Point", "coordinates": [ -84.367099999999894, 33.538800000000101 ] } },
{ "type": "Feature", "properties": { "locnum": "706308067", "name": "Title Bucks", "street": "Tara Blvd", "city": "Jonesboro", "state": "GA", "zip": "30236", "type": "Consumer Lending", "naics5": "522291", "naics7": "52229103", "salesvol": 2295.0 }, "geometry": { "type": "Point", "coordinates": [ -84.365499999999898, 33.5401 ] } },
{ "type": "Feature", "properties": { "locnum": "403515741", "name": "Western Finance Svc", "street": "Tara Blvd", "city": "Jonesboro", "state": "GA", "zip": "30236", "type": "Consumer Lending", "naics5": "522291", "naics7": "52229103", "salesvol": 1530.0 }, "geometry": { "type": "Point", "coordinates": [ -84.365799999999879, 33.5405 ] } },
{ "type": "Feature", "properties": { "locnum": "573220050", "name": "1St Franklin Financial Corp", "street": "N Henry Blvd", "city": "Stockbridge", "state": "GA", "zip": "30281", "type": "Consumer Lending", "naics5": "522291", "naics7": "52229101", "salesvol": 3060.0 }, "geometry": { "type": "Point", "coordinates": [ -84.232, 33.5439 ] } },
{ "type": "Feature", "properties": { "locnum": "403523596", "name": "Flight Finance Of Stockbridge", "street": "N Henry Blvd", "city": "Stockbridge", "state": "GA", "zip": "30281", "type": "Consumer Lending", "naics5": "522291", "naics7": "52229101", "salesvol": 1530.0 }, "geometry": { "type": "Point", "coordinates": [ -84.2409, 33.5443 ] } },
{ "type": "Feature", "properties": { "locnum": "517625778", "name": "Guarantee Finance", "street": "N Henry Blvd", "city": "Stockbridge", "state": "GA", "zip": "30281", "type": "Consumer Lending", "naics5": "522291", "naics7": "52229101", "salesvol": 1530.0 }, "geometry": { "type": "Point", "coordinates": [ -84.2409, 33.5443 ] } },
{ "type": "Feature", "properties": { "locnum": "677164840", "name": "Ge Capital Corp", "street": "Bernardo Dr", "city": "Riverdale", "state": "GA", "zip": "30296", "type": "Consumer Lending", "naics5": "522291", "naics7": "52229101", "salesvol": 3060.0 }, "geometry": { "type": "Point", "coordinates": [ -84.432099999999892, 33.5459 ] } },
{ "type": "Feature", "properties": { "locnum": "693967887", "name": "G A Auto Pawn", "street": "Highway 85", "city": "Riverdale", "state": "GA", "zip": "30274", "type": "Consumer Lending", "naics5": "522291", "naics7": "52229103", "salesvol": 2295.0 }, "geometry": { "type": "Point", "coordinates": [ -84.4144, 33.547100000000107 ] } },
{ "type": "Feature", "properties": { "locnum": "700327518", "name": "Community Loans", "street": "Highway 85", "city": "Riverdale", "state": "GA", "zip": "30274", "type": "Consumer Lending", "naics5": "522291", "naics7": "52229103", "salesvol": 2295.0 }, "geometry": { "type": "Point", "coordinates": [ -84.4144, 33.547100000000107 ] } },
{ "type": "Feature", "properties": { "locnum": "237352802", "name": "Title Bucks", "street": "Highway 85", "city": "Riverdale", "state": "GA", "zip": "30274", "type": "Consumer Lending", "naics5": "522291", "naics7": "52229103", "salesvol": 2295.0 }, "geometry": { "type": "Point", "coordinates": [ -84.4157, 33.5476 ] } },
{ "type": "Feature", "properties": { "locnum": "424009665", "name": "Riverdale Us Title Pawn", "street": "Highway 85", "city": "Riverdale", "state": "GA", "zip": "30274", "type": "Pawn Shop", "naics5": "522298", "naics7": "52229813", "salesvol": 166.0 }, "geometry": { "type": "Point", "coordinates": [ -84.4157, 33.5476 ] } },
{ "type": "Feature", "properties": { "locnum": "402601059", "name": "E Pawn Shop", "street": "Highway 85", "city": "Riverdale", "state": "GA", "zip": "30274", "type": "Pawn Shop", "naics5": "522298", "naics7": "52229813", "salesvol": 83.0 }, "geometry": { "type": "Point", "coordinates": [ -84.4149, 33.5476 ] } },
{ "type": "Feature", "properties": { "locnum": "608242012", "name": "Automotive Finance Corp", "street": "Oakley Industrial Blvd", "city": "Fairburn", "state": "GA", "zip": "30213", "type": "Consumer Lending", "naics5": "522291", "naics7": "52229102", "salesvol": 2295.0 }, "geometry": { "type": "Point", "coordinates": [ -84.5528, 33.5481 ] } },
{ "type": "Feature", "properties": { "locnum": "906904503", "name": "Cash America Pawn", "street": "N Henry Blvd", "city": "Stockbridge", "state": "GA", "zip": "30281", "type": "Pawn Shop", "naics5": "522298", "naics7": "52229813", "salesvol": 498.0 }, "geometry": { "type": "Point", "coordinates": [ -84.2534, 33.548200000000136 ] } },
{ "type": "Feature", "properties": { "locnum": "419732174", "name": "We Buy Gold Pawn Shop", "street": "Senoia Rd", "city": "Fairburn", "state": "GA", "zip": "30213", "type": "Pawn Shop", "naics5": "522298", "naics7": "52229813", "salesvol": 249.0 }, "geometry": { "type": "Point", "coordinates": [ -84.5773, 33.5483 ] } },
{ "type": "Feature", "properties": { "locnum": "705371963", "name": "First American Title Lending", "street": "Highway 138 Se", "city": "Stockbridge", "state": "GA", "zip": "30281", "type": "Consumer Lending", "naics5": "522291", "naics7": "52229103", "salesvol": 1530.0 }, "geometry": { "type": "Point", "coordinates": [ -84.275599999999855, 33.5493 ] } },
{ "type": "Feature", "properties": { "locnum": "211429311", "name": "Title Max", "street": "Highway 85", "city": "Riverdale", "state": "GA", "zip": "30274", "type": "Consumer Lending", "naics5": "522291", "naics7": "52229103", "salesvol": 3060.0 }, "geometry": { "type": "Point", "coordinates": [ -84.4154, 33.5495 ] } },
{ "type": "Feature", "properties": { "locnum": "962271078", "name": "Ace Cash Express", "street": "Highway 85", "city": "Riverdale", "state": "GA", "zip": "30274", "type": "Consumer Lending", "naics5": "522291", "naics7": "52229111", "salesvol": 1530.0 }, "geometry": { "type": "Point", "coordinates": [ -84.4142, 33.549800000000118 ] } },
{ "type": "Feature", "properties": { "locnum": "707357637", "name": "N F M Lending", "street": null, "city": "Stockbridge", "state": "GA", "zip": "30281", "type": "Consumer Lending", "naics5": "522291", "naics7": "52229103", "salesvol": 2295.0 }, "geometry": { "type": "Point", "coordinates": [ -84.2215, 33.549800000000118 ] } },
{ "type": "Feature", "properties": { "locnum": "403682843", "name": "Cash America Pawn", "street": "Tara Blvd", "city": "Jonesboro", "state": "GA", "zip": "30236", "type": "Pawn Shop", "naics5": "522298", "naics7": "52229813", "salesvol": 415.0 }, "geometry": { "type": "Point", "coordinates": [ -84.369, 33.5502 ] } },
{ "type": "Feature", "properties": { "locnum": "426829967", "name": "E Pawn", "street": "N Henry Blvd", "city": "Stockbridge", "state": "GA", "zip": "30281", "type": "Pawn Shop", "naics5": "522298", "naics7": "52229813", "salesvol": 166.0 }, "geometry": { "type": "Point", "coordinates": [ -84.2568, 33.5504 ] } },
{ "type": "Feature", "properties": { "locnum": "428062944", "name": "I N L", "street": "Highway 138 Sw", "city": "Riverdale", "state": "GA", "zip": "30296", "type": "Consumer Lending", "naics5": "522291", "naics7": "52229103", "salesvol": 2295.0 }, "geometry": { "type": "Point", "coordinates": [ -84.416399999999882, 33.5505 ] } },
{ "type": "Feature", "properties": { "locnum": "706308002", "name": "Insta Loan", "street": "Highway 138 Sw", "city": "Riverdale", "state": "GA", "zip": "30296", "type": "Consumer Lending", "naics5": "522291", "naics7": "52229103", "salesvol": 2295.0 }, "geometry": { "type": "Point", "coordinates": [ -84.416399999999882, 33.5505 ] } },
{ "type": "Feature", "properties": { "locnum": "661775809", "name": "Nuway Capital Funding", "street": "Highway 138 Sw", "city": "Riverdale", "state": "GA", "zip": "30296", "type": "Consumer Lending", "naics5": "522291", "naics7": "52229101", "salesvol": 17595.0 }, "geometry": { "type": "Point", "coordinates": [ -84.449499999999858, 33.5509 ] } },
{ "type": "Feature", "properties": { "locnum": "886966332", "name": "Cash America Pawn", "street": "Highway 85", "city": "Riverdale", "state": "GA", "zip": "30274", "type": "Pawn Shop", "naics5": "522298", "naics7": "52229813", "salesvol": 581.0 }, "geometry": { "type": "Point", "coordinates": [ -84.4152, 33.5511 ] } },
{ "type": "Feature", "properties": { "locnum": "573220993", "name": "Acme Pawn", "street": "Tara Blvd", "city": "Jonesboro", "state": "GA", "zip": "30236", "type": "Pawn Shop", "naics5": "522298", "naics7": "52229813", "salesvol": 83.0 }, "geometry": { "type": "Point", "coordinates": [ -84.371, 33.5513 ] } },
{ "type": "Feature", "properties": { "locnum": "643639404", "name": "First American Title Lending", "street": "Tara Blvd", "city": "Jonesboro", "state": "GA", "zip": "30236", "type": "Consumer Lending", "naics5": "522291", "naics7": "52229103", "salesvol": 1530.0 }, "geometry": { "type": "Point", "coordinates": [ -84.3703, 33.5514 ] } },
{ "type": "Feature", "properties": { "locnum": "700313092", "name": "Fast Cash Advance", "street": "N Henry Blvd", "city": "Stockbridge", "state": "GA", "zip": "30281", "type": "Consumer Lending", "naics5": "522291", "naics7": "52229103", "salesvol": 2295.0 }, "geometry": { "type": "Point", "coordinates": [ -84.2574, 33.5516 ] } },
{ "type": "Feature", "properties": { "locnum": "453999310", "name": "Atlanta Title Loans", "street": "Highway 85", "city": "Riverdale", "state": "GA", "zip": "30274", "type": "Consumer Lending", "naics5": "522291", "naics7": "52229103", "salesvol": 1530.0 }, "geometry": { "type": "Point", "coordinates": [ -84.4149, 33.552 ] } },
{ "type": "Feature", "properties": { "locnum": "705994554", "name": "Republic Finance Inc", "street": "Highway 138 W", "city": "Stockbridge", "state": "GA", "zip": "30281", "type": "Consumer Lending", "naics5": "522291", "naics7": "52229101", "salesvol": 2295.0 }, "geometry": { "type": "Point", "coordinates": [ -84.260899999999864, 33.552 ] } },
{ "type": "Feature", "properties": { "locnum": "425100510", "name": "Fairburn Auto Finance", "street": "Senoia Rd", "city": "Fairburn", "state": "GA", "zip": "30213", "type": "Consumer Lending", "naics5": "522291", "naics7": "52229102", "salesvol": 3060.0 }, "geometry": { "type": "Point", "coordinates": [ -84.5801, 33.5522 ] } },
{ "type": "Feature", "properties": { "locnum": "674481718", "name": "Insta Loan", "street": "Davidson Pkwy S", "city": "Stockbridge", "state": "GA", "zip": "30281", "type": "Consumer Lending", "naics5": "522291", "naics7": "52229103", "salesvol": 2295.0 }, "geometry": { "type": "Point", "coordinates": [ -84.2652, 33.5533 ] } },
{ "type": "Feature", "properties": { "locnum": "650004229", "name": "Title Max", "street": "Davidson Pkwy N", "city": "Stockbridge", "state": "GA", "zip": "30281", "type": "Consumer Lending", "naics5": "522291", "naics7": "52229103", "salesvol": 2295.0 }, "geometry": { "type": "Point", "coordinates": [ -84.2657, 33.5535 ] } },
{ "type": "Feature", "properties": { "locnum": "375421328", "name": "Security Finance Corp", "street": "Highway 138 Se", "city": "Stockbridge", "state": "GA", "zip": "30281", "type": "Consumer Lending", "naics5": "522291", "naics7": "52229103", "salesvol": 3825.0 }, "geometry": { "type": "Point", "coordinates": [ -84.265, 33.553900000000127 ] } },
{ "type": "Feature", "properties": { "locnum": "906904156", "name": "Covington Credit Corp", "street": "Highway 138 Se", "city": "Stockbridge", "state": "GA", "zip": "30281", "type": "Consumer Lending", "naics5": "522291", "naics7": "52229103", "salesvol": 4590.0 }, "geometry": { "type": "Point", "coordinates": [ -84.2649, 33.553900000000127 ] } },
{ "type": "Feature", "properties": { "locnum": "698160033", "name": "Peachtree Title Pawn", "street": null, "city": "Riverdale", "state": "GA", "zip": "30274", "type": "Pawn Shop", "naics5": "522298", "naics7": "52229813", "salesvol": 166.0 }, "geometry": { "type": "Point", "coordinates": [ -84.4016, 33.55440000000015 ] } },
{ "type": "Feature", "properties": { "locnum": "673968251", "name": "Guns & Gold Pawn Shop", "street": "Highway 85", "city": "Riverdale", "state": "GA", "zip": "30274", "type": "Pawn Shop", "naics5": "522298", "naics7": "52229813", "salesvol": 166.0 }, "geometry": { "type": "Point", "coordinates": [ -84.4136, 33.5554 ] } },
{ "type": "Feature", "properties": { "locnum": "407079193", "name": "Atlanta Title Loans", "street": "Tara Blvd", "city": "Jonesboro", "state": "GA", "zip": "30236", "type": "Pawn Shop", "naics5": "522298", "naics7": "52229813", "salesvol": 166.0 }, "geometry": { "type": "Point", "coordinates": [ -84.3714, 33.5582 ] } },
{ "type": "Feature", "properties": { "locnum": "706852889", "name": "Milestone Finance & Loan", "street": "Jonesboro Rd", "city": "Morrow", "state": "GA", "zip": "30260", "type": "Consumer Lending", "naics5": "522291", "naics7": "52229103", "salesvol": 2295.0 }, "geometry": { "type": "Point", "coordinates": [ -84.3466, 33.558900000000122 ] } },
{ "type": "Feature", "properties": { "locnum": "705871388", "name": "I N L Jonesboro Ga", "street": "Tara Blvd", "city": "Jonesboro", "state": "GA", "zip": "30236", "type": "Consumer Lending", "naics5": "522291", "naics7": "52229103", "salesvol": 2295.0 }, "geometry": { "type": "Point", "coordinates": [ -84.3707, 33.562200000000153 ] } },
{ "type": "Feature", "properties": { "locnum": "706308019", "name": "Insta Loan", "street": "Tara Blvd", "city": "Jonesboro", "state": "GA", "zip": "30236", "type": "Consumer Lending", "naics5": "522291", "naics7": "52229103", "salesvol": 2295.0 }, "geometry": { "type": "Point", "coordinates": [ -84.3707, 33.562200000000153 ] } },
{ "type": "Feature", "properties": { "locnum": "439295399", "name": "Georgia Auto Pawn Inc", "street": "Jonesboro Rd", "city": "Morrow", "state": "GA", "zip": "30260", "type": "Consumer Lending", "naics5": "522291", "naics7": "52229103", "salesvol": 2295.0 }, "geometry": { "type": "Point", "coordinates": [ -84.343999999999895, 33.563800000000121 ] } },
{ "type": "Feature", "properties": { "locnum": "609662960", "name": "Diversified Systems Technology", "street": "Highway 85", "city": "Riverdale", "state": "GA", "zip": "30274", "type": "Consumer Lending", "naics5": "522291", "naics7": "52229103", "salesvol": 765.0 }, "geometry": { "type": "Point", "coordinates": [ -84.414, 33.564200000000106 ] } },
{ "type": "Feature", "properties": { "locnum": "407084631", "name": "Cash America Pawn", "street": "Highway 85", "city": "Riverdale", "state": "GA", "zip": "30274", "type": "Pawn Shop", "naics5": "522298", "naics7": "52229813", "salesvol": 249.0 }, "geometry": { "type": "Point", "coordinates": [ -84.413899999999884, 33.565 ] } },
{ "type": "Feature", "properties": { "locnum": "127942159", "name": "Fairburn Pawn Shop", "street": "Sw Broad St", "city": "Fairburn", "state": "GA", "zip": "30213", "type": "Pawn Shop", "naics5": "522298", "naics7": "52229813", "salesvol": 249.0 }, "geometry": { "type": "Point", "coordinates": [ -84.5823, 33.566 ] } },
{ "type": "Feature", "properties": { "locnum": "983922196", "name": "Cash America Pawn", "street": "Tara Blvd", "city": "Jonesboro", "state": "GA", "zip": "30236", "type": "Pawn Shop", "naics5": "522298", "naics7": "52229813", "salesvol": 332.0 }, "geometry": { "type": "Point", "coordinates": [ -84.3718, 33.568 ] } },
{ "type": "Feature", "properties": { "locnum": "602501272", "name": "Mc Coy Brokerage Svc", "street": "Hiddenlake Dr", "city": "Rex", "state": "GA", "zip": "30273", "type": "Consumer Lending", "naics5": "522291", "naics7": "52229103", "salesvol": 2295.0 }, "geometry": { "type": "Point", "coordinates": [ -84.2866, 33.5683000000001 ] } },
{ "type": "Feature", "properties": { "locnum": "374646321", "name": "World Acceptance", "street": "Jonesboro Rd", "city": "Union City", "state": "GA", "zip": "30291", "type": "Consumer Lending", "naics5": "522291", "naics7": "52229103", "salesvol": 1530.0 }, "geometry": { "type": "Point", "coordinates": [ -84.5421, 33.5695 ] } },
{ "type": "Feature", "properties": { "locnum": "706117555", "name": "World Finance", "street": "Jonesboro Rd", "city": "Union City", "state": "GA", "zip": "30291", "type": "Consumer Lending", "naics5": "522291", "naics7": "52229103", "salesvol": 2295.0 }, "geometry": { "type": "Point", "coordinates": [ -84.5421, 33.5695 ] } },
{ "type": "Feature", "properties": { "locnum": "422044235", "name": "First American Title Lending", "street": "Jonesboro Rd", "city": "Union City", "state": "GA", "zip": "30291", "type": "Consumer Lending", "naics5": "522291", "naics7": "52229103", "salesvol": 1530.0 }, "geometry": { "type": "Point", "coordinates": [ -84.5429, 33.5698 ] } },
{ "type": "Feature", "properties": { "locnum": "827899626", "name": "Wilkes Finance Corp", "street": "Jonesboro Rd", "city": "Union City", "state": "GA", "zip": "30291", "type": "Consumer Lending", "naics5": "522291", "naics7": "52229103", "salesvol": 3060.0 }, "geometry": { "type": "Point", "coordinates": [ -84.5444, 33.569900000000118 ] } },
{ "type": "Feature", "properties": { "locnum": "700565912", "name": "Morrison Finance & Tax", "street": "Mount Zion Blvd", "city": "Morrow", "state": "GA", "zip": "30260", "type": "Consumer Lending", "naics5": "522291", "naics7": "52229101", "salesvol": 2295.0 }, "geometry": { "type": "Point", "coordinates": [ -84.3137, 33.569900000000118 ] } },
{ "type": "Feature", "properties": { "locnum": "225950138", "name": "Ace Cash Express", "street": "Highway 85", "city": "Riverdale", "state": "GA", "zip": "30274", "type": "Consumer Lending", "naics5": "522291", "naics7": "52229111", "salesvol": 1530.0 }, "geometry": { "type": "Point", "coordinates": [ -84.4121, 33.5701 ] } },
{ "type": "Feature", "properties": { "locnum": "700385432", "name": "Community Loans", "street": "Jonesboro Rd", "city": "Union City", "state": "GA", "zip": "30291", "type": "Consumer Lending", "naics5": "522291", "naics7": "52229103", "salesvol": 3060.0 }, "geometry": { "type": "Point", "coordinates": [ -84.543899999999866, 33.571 ] } },
{ "type": "Feature", "properties": { "locnum": "242442234", "name": "Title Max", "street": "Jonesboro Rd", "city": "Union City", "state": "GA", "zip": "30291", "type": "Consumer Lending", "naics5": "522291", "naics7": "52229109", "salesvol": 1530.0 }, "geometry": { "type": "Point", "coordinates": [ -84.5446, 33.5712 ] } },
{ "type": "Feature", "properties": { "locnum": "424193673", "name": "Insta Loan", "street": "Jonesboro Rd", "city": "Union City", "state": "GA", "zip": "30291", "type": "Consumer Lending", "naics5": "522291", "naics7": "52229103", "salesvol": 2295.0 }, "geometry": { "type": "Point", "coordinates": [ -84.5446, 33.5712 ] } },
{ "type": "Feature", "properties": { "locnum": "613218080", "name": "Union City Pawn & Jewlery", "street": "Jonesboro Rd", "city": "Union City", "state": "GA", "zip": "30291", "type": "Pawn Shop", "naics5": "522298", "naics7": "52229813", "salesvol": 166.0 }, "geometry": { "type": "Point", "coordinates": [ -84.5446, 33.5712 ] } },
{ "type": "Feature", "properties": { "locnum": "698729720", "name": "Equity Auto Loan", "street": "Jonesboro Rd", "city": "Union City", "state": "GA", "zip": "30291", "type": "Consumer Lending", "naics5": "522291", "naics7": "52229103", "salesvol": 3825.0 }, "geometry": { "type": "Point", "coordinates": [ -84.5446, 33.5712 ] } },
{ "type": "Feature", "properties": { "locnum": "453997322", "name": "Springleaf Financial Svc", "street": "Mount Zion Rd", "city": "Morrow", "state": "GA", "zip": "30260", "type": "Consumer Lending", "naics5": "522291", "naics7": "52229108", "salesvol": 3060.0 }, "geometry": { "type": "Point", "coordinates": [ -84.340499999999892, 33.571400000000111 ] } },
{ "type": "Feature", "properties": { "locnum": "240789131", "name": "Mc Intosh Finance", "street": "Shannon Pkwy", "city": "Union City", "state": "GA", "zip": "30291", "type": "Consumer Lending", "naics5": "522291", "naics7": "52229101", "salesvol": 2295.0 }, "geometry": { "type": "Point", "coordinates": [ -84.5388, 33.5716 ] } },
{ "type": "Feature", "properties": { "locnum": "426827743", "name": "Insta Loan", "street": "Jonesboro Rd", "city": "Morrow", "state": "GA", "zip": "30260", "type": "Consumer Lending", "naics5": "522291", "naics7": "52229103", "salesvol": 2295.0 }, "geometry": { "type": "Point", "coordinates": [ -84.3432, 33.571700000000128 ] } },
{ "type": "Feature", "properties": { "locnum": "542557301", "name": "Auto Acceptance Corp", "street": "Main St", "city": "Riverdale", "state": "GA", "zip": "30274", "type": "Consumer Lending", "naics5": "522291", "naics7": "52229103", "salesvol": 30600.0 }, "geometry": { "type": "Point", "coordinates": [ -84.413899999999884, 33.573 ] } },
{ "type": "Feature", "properties": { "locnum": "418302092", "name": "Ace Cash Express", "street": "Highway 85", "city": "Riverdale", "state": "GA", "zip": "30274", "type": "Consumer Lending", "naics5": "522291", "naics7": "52229111", "salesvol": 1530.0 }, "geometry": { "type": "Point", "coordinates": [ -84.4125, 33.5733 ] } },
{ "type": "Feature", "properties": { "locnum": "427726015", "name": "Equity Auto Loan", "street": "Tara Blvd", "city": "Jonesboro", "state": "GA", "zip": "30236", "type": "Consumer Lending", "naics5": "522291", "naics7": "52229103", "salesvol": 2295.0 }, "geometry": { "type": "Point", "coordinates": [ -84.372399999999899, 33.5733 ] } },
{ "type": "Feature", "properties": { "locnum": "698160074", "name": "Title Max", "street": "Tara Blvd", "city": "Jonesboro", "state": "GA", "zip": "30236", "type": "Consumer Lending", "naics5": "522291", "naics7": "52229103", "salesvol": 2295.0 }, "geometry": { "type": "Point", "coordinates": [ -84.372399999999899, 33.5733 ] } },
{ "type": "Feature", "properties": { "locnum": "492279237", "name": "Cash Express-Title Pawn", "street": "Tara Blvd", "city": "Jonesboro", "state": "GA", "zip": "30236", "type": "Consumer Lending", "naics5": "522291", "naics7": "52229103", "salesvol": 2295.0 }, "geometry": { "type": "Point", "coordinates": [ -84.3711, 33.5738 ] } },
{ "type": "Feature", "properties": { "locnum": "673967410", "name": "Peachtree Title Pawn & Cash", "street": "Tara Blvd", "city": "Jonesboro", "state": "GA", "zip": "30236", "type": "Pawn Shop", "naics5": "522298", "naics7": "52229813", "salesvol": 166.0 }, "geometry": { "type": "Point", "coordinates": [ -84.3726, 33.5747 ] } },
{ "type": "Feature", "properties": { "locnum": "889513370", "name": "Fsi", "street": "Rivertown Rd", "city": "Fairburn", "state": "GA", "zip": "30213", "type": "Consumer Lending", "naics5": "522291", "naics7": "52229101", "salesvol": 1530.0 }, "geometry": { "type": "Point", "coordinates": [ -84.626599999999883, 33.5748 ] } },
{ "type": "Feature", "properties": { "locnum": "428062948", "name": "World Finance", "street": "Southlake Pkwy", "city": "Morrow", "state": "GA", "zip": "30260", "type": "Consumer Lending", "naics5": "522291", "naics7": "52229103", "salesvol": 2295.0 }, "geometry": { "type": "Point", "coordinates": [ -84.340599999999853, 33.575600000000151 ] } },
{ "type": "Feature", "properties": { "locnum": "827984220", "name": "Riverdale Finance & Tax Inc", "street": "Church St", "city": "Riverdale", "state": "GA", "zip": "30274", "type": "Consumer Lending", "naics5": "522291", "naics7": "52229103", "salesvol": 2295.0 }, "geometry": { "type": "Point", "coordinates": [ -84.4158, 33.5786 ] } },
{ "type": "Feature", "properties": { "locnum": "826826257", "name": "Ace Cash Express", "street": "Tara Blvd", "city": "Jonesboro", "state": "GA", "zip": "30236", "type": "Consumer Lending", "naics5": "522291", "naics7": "52229111", "salesvol": 7650.0 }, "geometry": { "type": "Point", "coordinates": [ -84.3742, 33.578800000000143 ] } },
{ "type": "Feature", "properties": { "locnum": "407079656", "name": "Arrowhead Pawn & Jewelry", "street": "Tara Blvd", "city": "Jonesboro", "state": "GA", "zip": "30236", "type": "Pawn Shop", "naics5": "522298", "naics7": "52229813", "salesvol": 747.0 }, "geometry": { "type": "Point", "coordinates": [ -84.3744, 33.579 ] } },
{ "type": "Feature", "properties": { "locnum": "225239821", "name": "Payday Cash Advance", "street": "Highway 85", "city": "Riverdale", "state": "GA", "zip": "30274", "type": "Consumer Lending", "naics5": "522291", "naics7": "52229103", "salesvol": 2295.0 }, "geometry": { "type": "Point", "coordinates": [ -84.4111, 33.58 ] } },
{ "type": "Feature", "properties": { "locnum": "492279252", "name": "Instant Cash Loans-Car Titles", "street": "Tara Blvd", "city": "Jonesboro", "state": "GA", "zip": "30236", "type": "Consumer Lending", "naics5": "522291", "naics7": "52229109", "salesvol": 5355.0 }, "geometry": { "type": "Point", "coordinates": [ -84.3762, 33.581500000000112 ] } },
{ "type": "Feature", "properties": { "locnum": "629755315", "name": "Title Bucks", "street": "Tara Blvd", "city": "Jonesboro", "state": "GA", "zip": "30236", "type": "Consumer Lending", "naics5": "522291", "naics7": "52229103", "salesvol": 3060.0 }, "geometry": { "type": "Point", "coordinates": [ -84.3759, 33.581500000000112 ] } },
{ "type": "Feature", "properties": { "locnum": "827887696", "name": "Southland Pawn & Jewelry", "street": "Jonesboro Rd", "city": "Morrow", "state": "GA", "zip": "30260", "type": "Pawn Shop", "naics5": "522298", "naics7": "52229813", "salesvol": 166.0 }, "geometry": { "type": "Point", "coordinates": [ -84.3397, 33.5821 ] } },
{ "type": "Feature", "properties": { "locnum": "422246076", "name": "Title Max", "street": "Tara Blvd", "city": "Morrow", "state": "GA", "zip": "30260", "type": "Consumer Lending", "naics5": "522291", "naics7": "52229103", "salesvol": 6120.0 }, "geometry": { "type": "Point", "coordinates": [ -84.325999999999866, 33.583 ] } },
{ "type": "Feature", "properties": { "locnum": "642821201", "name": "Title Max", "street": "Highway 85", "city": "Riverdale", "state": "GA", "zip": "30274", "type": "Consumer Lending", "naics5": "522291", "naics7": "52229103", "salesvol": 3060.0 }, "geometry": { "type": "Point", "coordinates": [ -84.4076, 33.5903 ] } },
{ "type": "Feature", "properties": { "locnum": "706968686", "name": "I N L Riverdale Ga", "street": "Highway 85", "city": "Riverdale", "state": "GA", "zip": "30274", "type": "Consumer Lending", "naics5": "522291", "naics7": "52229103", "salesvol": 2295.0 }, "geometry": { "type": "Point", "coordinates": [ -84.4076, 33.5903 ] } },
{ "type": "Feature", "properties": { "locnum": "707804504", "name": "Insta Loan", "street": "Highway 85", "city": "Riverdale", "state": "GA", "zip": "30274", "type": "Consumer Lending", "naics5": "522291", "naics7": "52229103", "salesvol": 2295.0 }, "geometry": { "type": "Point", "coordinates": [ -84.4076, 33.5903 ] } },
{ "type": "Feature", "properties": { "locnum": "643386956", "name": "Title Max", "street": "Old Dixie Hwy", "city": "Forest Park", "state": "GA", "zip": "30297", "type": "Consumer Lending", "naics5": "522291", "naics7": "52229103", "salesvol": 1530.0 }, "geometry": { "type": "Point", "coordinates": [ -84.3767, 33.5917 ] } },
{ "type": "Feature", "properties": { "locnum": "425999324", "name": "Morrison Finance & Tax", "street": "Mount Zion Blvd", "city": "Ellenwood", "state": "GA", "zip": "30294", "type": "Consumer Lending", "naics5": "522291", "naics7": "52229101", "salesvol": 2295.0 }, "geometry": { "type": "Point", "coordinates": [ -84.3023, 33.59190000000013 ] } },
{ "type": "Feature", "properties": { "locnum": "698616158", "name": "Pdq Auto & Loan Finder", "street": "Silver Queen Rd", "city": "Ellenwood", "state": "GA", "zip": "30294", "type": "Consumer Lending", "naics5": "522291", "naics7": "52229103", "salesvol": 2295.0 }, "geometry": { "type": "Point", "coordinates": [ -84.2989, 33.5942 ] } },
{ "type": "Feature", "properties": { "locnum": "226218600", "name": "United Auto Acceptance", "street": "Garden Walk Blvd", "city": "College Park", "state": "GA", "zip": "30349", "type": "Consumer Lending", "naics5": "522291", "naics7": "52229103", "salesvol": 10710.0 }, "geometry": { "type": "Point", "coordinates": [ -84.4276, 33.5974 ] } },
{ "type": "Feature", "properties": { "locnum": "705846548", "name": "Title Pawn Rescue", "street": "Riverdale Rd", "city": "Atlanta", "state": "GA", "zip": "30349", "type": "Pawn Shop", "naics5": "522298", "naics7": "52229813", "salesvol": 249.0 }, "geometry": { "type": "Point", "coordinates": [ -84.4295, 33.6002 ] } },
{ "type": "Feature", "properties": { "locnum": "436214475", "name": "E Pawn", "street": "Riverdale Rd", "city": "Atlanta", "state": "GA", "zip": "30349", "type": "Pawn Shop", "naics5": "522298", "naics7": "52229813", "salesvol": 249.0 }, "geometry": { "type": "Point", "coordinates": [ -84.4303, 33.602100000000107 ] } },
{ "type": "Feature", "properties": { "locnum": "719891707", "name": "American Credit Acceptance", "street": "Old Dixie Hwy", "city": "Forest Park", "state": "GA", "zip": "30297", "type": "Consumer Lending", "naics5": "522291", "naics7": "52229101", "salesvol": 77265.0 }, "geometry": { "type": "Point", "coordinates": [ -84.3804, 33.6049 ] } },
{ "type": "Feature", "properties": { "locnum": "612172387", "name": "Auto Finance", "street": "Old Dixie Hwy", "city": "Forest Park", "state": "GA", "zip": "30297", "type": "Consumer Lending", "naics5": "522291", "naics7": "52229101", "salesvol": 19125.0 }, "geometry": { "type": "Point", "coordinates": [ -84.3798, 33.6054 ] } },
{ "type": "Feature", "properties": { "locnum": "706859877", "name": "Ball Pawn Llc", "street": "Riverdale Rd", "city": "Atlanta", "state": "GA", "zip": "30349", "type": "Pawn Shop", "naics5": "522298", "naics7": "52229813", "salesvol": 249.0 }, "geometry": { "type": "Point", "coordinates": [ -84.4349, 33.6066 ] } },
{ "type": "Feature", "properties": { "locnum": "527880371", "name": "Cash America Pawn", "street": "Old National Hwy", "city": "Atlanta", "state": "GA", "zip": "30349", "type": "Pawn Shop", "naics5": "522298", "naics7": "52229813", "salesvol": 332.0 }, "geometry": { "type": "Point", "coordinates": [ -84.4714, 33.6069 ] } },
{ "type": "Feature", "properties": { "locnum": "250983913", "name": "Title Max", "street": "Riverdale Rd", "city": "Atlanta", "state": "GA", "zip": "30349", "type": "Consumer Lending", "naics5": "522291", "naics7": "52229103", "salesvol": 1530.0 }, "geometry": { "type": "Point", "coordinates": [ -84.4362, 33.6071 ] } },
{ "type": "Feature", "properties": { "locnum": "128410008", "name": "A A Pawn Shop", "street": "Old National Hwy", "city": "College Park", "state": "GA", "zip": "30349", "type": "Pawn Shop", "naics5": "522298", "naics7": "52229813", "salesvol": 332.0 }, "geometry": { "type": "Point", "coordinates": [ -84.4706, 33.6082 ] } },
{ "type": "Feature", "properties": { "locnum": "643576341", "name": "Title Max", "street": "Old National Hwy", "city": "Atlanta", "state": "GA", "zip": "30349", "type": "Consumer Lending", "naics5": "522291", "naics7": "52229103", "salesvol": 3060.0 }, "geometry": { "type": "Point", "coordinates": [ -84.4706, 33.6082 ] } },
{ "type": "Feature", "properties": { "locnum": "427578105", "name": "Insta Loan", "street": "Riverdale Rd", "city": "Atlanta", "state": "GA", "zip": "30349", "type": "Consumer Lending", "naics5": "522291", "naics7": "52229103", "salesvol": 2295.0 }, "geometry": { "type": "Point", "coordinates": [ -84.436499999999896, 33.6109 ] } },
{ "type": "Feature", "properties": { "locnum": "427997850", "name": "I N L Riverdale Ga", "street": "Riverdale Rd", "city": "Atlanta", "state": "GA", "zip": "30349", "type": "Consumer Lending", "naics5": "522291", "naics7": "52229103", "salesvol": 3060.0 }, "geometry": { "type": "Point", "coordinates": [ -84.436499999999896, 33.6109 ] } },
{ "type": "Feature", "properties": { "locnum": "445457963", "name": "Ucac", "street": "Old Dixie Hwy", "city": "Forest Park", "state": "GA", "zip": "30297", "type": "Consumer Lending", "naics5": "522291", "naics7": "52229101", "salesvol": 15300.0 }, "geometry": { "type": "Point", "coordinates": [ -84.3819, 33.6128 ] } },
{ "type": "Feature", "properties": { "locnum": "706308048", "name": "Title Bucks", "street": "Old National Hwy", "city": "Atlanta", "state": "GA", "zip": "30349", "type": "Consumer Lending", "naics5": "522291", "naics7": "52229103", "salesvol": 2295.0 }, "geometry": { "type": "Point", "coordinates": [ -84.4733, 33.6135 ] } },
{ "type": "Feature", "properties": { "locnum": "971659610", "name": "Ace Cash Express", "street": "Old National Hwy", "city": "Atlanta", "state": "GA", "zip": "30349", "type": "Consumer Lending", "naics5": "522291", "naics7": "52229111", "salesvol": 1530.0 }, "geometry": { "type": "Point", "coordinates": [ -84.471899999999891, 33.6138 ] } },
{ "type": "Feature", "properties": { "locnum": "433861502", "name": "Check Into Cash", "street": "Fairview Rd", "city": "Ellenwood", "state": "GA", "zip": "30294", "type": "Consumer Lending", "naics5": "522291", "naics7": "52229111", "salesvol": 1530.0 }, "geometry": { "type": "Point", "coordinates": [ -84.2431, 33.6192 ] } },
{ "type": "Feature", "properties": { "locnum": "427176601", "name": "Auto Smith Of Ga-Forest Park", "street": "Forest Pkwy", "city": "Forest Park", "state": "GA", "zip": "30297", "type": "Consumer Lending", "naics5": "522291", "naics7": "52229101", "salesvol": 17595.0 }, "geometry": { "type": "Point", "coordinates": [ -84.3809, 33.6193 ] } },
{ "type": "Feature", "properties": { "locnum": "661900308", "name": "W & J Development & Finance", "street": "Forest Pkwy", "city": "Forest Park", "state": "GA", "zip": "30297", "type": "Consumer Lending", "naics5": "522291", "naics7": "52229101", "salesvol": 17595.0 }, "geometry": { "type": "Point", "coordinates": [ -84.372399999999899, 33.621300000000126 ] } },
{ "type": "Feature", "properties": { "locnum": "997314448", "name": "Western Finance Svc", "street": "Forest Pkwy", "city": "Forest Park", "state": "GA", "zip": "30297", "type": "Consumer Lending", "naics5": "522291", "naics7": "52229103", "salesvol": 3060.0 }, "geometry": { "type": "Point", "coordinates": [ -84.3698, 33.621300000000126 ] } },
{ "type": "Feature", "properties": { "locnum": "403738026", "name": "Equity Auto Loan", "street": "Jonesboro Rd", "city": "Forest Park", "state": "GA", "zip": "30297", "type": "Consumer Lending", "naics5": "522291", "naics7": "52229103", "salesvol": 3060.0 }, "geometry": { "type": "Point", "coordinates": [ -84.3522, 33.6214 ] } },
{ "type": "Feature", "properties": { "locnum": "425409010", "name": "Insta Loan", "street": "Jonesboro Rd", "city": "Forest Park", "state": "GA", "zip": "30297", "type": "Consumer Lending", "naics5": "522291", "naics7": "52229103", "salesvol": 2295.0 }, "geometry": { "type": "Point", "coordinates": [ -84.3522, 33.6214 ] } },
{ "type": "Feature", "properties": { "locnum": "480501345", "name": "World Finance", "street": "Forest Pkwy", "city": "Forest Park", "state": "GA", "zip": "30297", "type": "Consumer Lending", "naics5": "522291", "naics7": "52229103", "salesvol": 3060.0 }, "geometry": { "type": "Point", "coordinates": [ -84.374099999999856, 33.6216 ] } },
{ "type": "Feature", "properties": { "locnum": "127636736", "name": "Cash America Pawn", "street": "Jonesboro Rd", "city": "Forest Park", "state": "GA", "zip": "30297", "type": "Pawn Shop", "naics5": "522298", "naics7": "52229813", "salesvol": 415.0 }, "geometry": { "type": "Point", "coordinates": [ -84.354, 33.6227 ] } },
{ "type": "Feature", "properties": { "locnum": "713612547", "name": "Ace Cash Express", "street": "Jonesboro Rd", "city": "Forest Park", "state": "GA", "zip": "30297", "type": "Consumer Lending", "naics5": "522291", "naics7": "52229111", "salesvol": 765.0 }, "geometry": { "type": "Point", "coordinates": [ -84.3553, 33.6263 ] } },
{ "type": "Feature", "properties": { "locnum": "935068049", "name": "Ge Capital Corp", "street": "Lake Mirror Rd", "city": "Atlanta", "state": "GA", "zip": "30349", "type": "Consumer Lending", "naics5": "522291", "naics7": "52229101", "salesvol": 76500.0 }, "geometry": { "type": "Point", "coordinates": [ -84.4069, 33.6283 ] } },
{ "type": "Feature", "properties": { "locnum": "401418686", "name": "Money Tree Pawnbrokers", "street": "Jonesboro Rd", "city": "Forest Park", "state": "GA", "zip": "30297", "type": "Pawn Shop", "naics5": "522298", "naics7": "52229813", "salesvol": 166.0 }, "geometry": { "type": "Point", "coordinates": [ -84.356899999999868, 33.63140000000012 ] } },
{ "type": "Feature", "properties": { "locnum": "690614102", "name": "Equity One", "street": "Springbox Dr", "city": "Fairburn", "state": "GA", "zip": "30213", "type": "Consumer Lending", "naics5": "522291", "naics7": "52229103", "salesvol": 3060.0 }, "geometry": { "type": "Point", "coordinates": [ -84.635899999999879, 33.6399 ] } },
{ "type": "Feature", "properties": { "locnum": "426618810", "name": "Imperial Gold & Pawn", "street": "Jonesboro Rd", "city": "Forest Park", "state": "GA", "zip": "30297", "type": "Pawn Shop", "naics5": "522298", "naics7": "52229813", "salesvol": 166.0 }, "geometry": { "type": "Point", "coordinates": [ -84.3622, 33.6405 ] } },
{ "type": "Feature", "properties": { "locnum": "423510321", "name": "Community Loans Of America", "street": "Jonesboro Rd Se", "city": "Atlanta", "state": "GA", "zip": "30354", "type": "Consumer Lending", "naics5": "522291", "naics7": "52229103", "salesvol": 1530.0 }, "geometry": { "type": "Point", "coordinates": [ -84.364999999999853, 33.6483 ] } },
{ "type": "Feature", "properties": { "locnum": "427177094", "name": "Title Max", "street": "Jonesboro Rd Se", "city": "Atlanta", "state": "GA", "zip": "30354", "type": "Consumer Lending", "naics5": "522291", "naics7": "52229103", "salesvol": 3060.0 }, "geometry": { "type": "Point", "coordinates": [ -84.366699999999895, 33.6498 ] } },
{ "type": "Feature", "properties": { "locnum": "389966383", "name": "Title Max", "street": "Jonesboro Rd Se", "city": "Atlanta", "state": "GA", "zip": "30354", "type": "Consumer Lending", "naics5": "522291", "naics7": "52229103", "salesvol": 3825.0 }, "geometry": { "type": "Point", "coordinates": [ -84.3669, 33.6503 ] } },
{ "type": "Feature", "properties": { "locnum": "412966343", "name": "Cash America Pawn", "street": "Jonesboro Rd Se", "city": "Atlanta", "state": "GA", "zip": "30354", "type": "Pawn Shop", "naics5": "522298", "naics7": "52229813", "salesvol": 664.0 }, "geometry": { "type": "Point", "coordinates": [ -84.3643, 33.6504 ] } },
{ "type": "Feature", "properties": { "locnum": "462561085", "name": "Ace Cash Express", "street": "Camp Creek Pkwy", "city": "College Park", "state": "GA", "zip": "30337", "type": "Consumer Lending", "naics5": "522291", "naics7": "52229111", "salesvol": 1530.0 }, "geometry": { "type": "Point", "coordinates": [ -84.4819, 33.6517 ] } },
{ "type": "Feature", "properties": { "locnum": "710848370", "name": "Quicken Loans", "street": "Crown Rd Se", "city": "Atlanta", "state": "GA", "zip": "30304", "type": "Consumer Lending", "naics5": "522291", "naics7": "52229103", "salesvol": 3060.0 }, "geometry": { "type": "Point", "coordinates": [ -84.3942, 33.651800000000108 ] } },
{ "type": "Feature", "properties": { "locnum": "700151667", "name": "Nkosi Funding", "street": "Hartsfield Center Pkwy", "city": "Atlanta", "state": "GA", "zip": "30354", "type": "Consumer Lending", "naics5": "522291", "naics7": "52229101", "salesvol": 3060.0 }, "geometry": { "type": "Point", "coordinates": [ -84.427699999999888, 33.6549 ] } },
{ "type": "Feature", "properties": { "locnum": "427133427", "name": "R H J Group Llc", "street": "Renaissance Cir", "city": "Atlanta", "state": "GA", "zip": "30349", "type": "Consumer Lending", "naics5": "522291", "naics7": "52229101", "salesvol": 3060.0 }, "geometry": { "type": "Point", "coordinates": [ -84.627499999999884, 33.6572 ] } },
{ "type": "Feature", "properties": { "locnum": "422057291", "name": "Imperial Title Loan Llc", "street": "Victoria Ln", "city": "Atlanta", "state": "GA", "zip": "30354", "type": "Consumer Lending", "naics5": "522291", "naics7": "52229103", "salesvol": 2295.0 }, "geometry": { "type": "Point", "coordinates": [ -84.3984, 33.6573 ] } },
{ "type": "Feature", "properties": { "locnum": "898043526", "name": "Springleaf Financial Svc", "street": "Marketplace Blvd", "city": "East Point", "state": "GA", "zip": "30344", "type": "Consumer Lending", "naics5": "522291", "naics7": "52229108", "salesvol": 3825.0 }, "geometry": { "type": "Point", "coordinates": [ -84.503399999999885, 33.658900000000131 ] } },
{ "type": "Feature", "properties": { "locnum": "997555735", "name": "Hapeville Pawn Shop", "street": "Dogwood Dr", "city": "Hapeville", "state": "GA", "zip": "30354", "type": "Pawn Shop", "naics5": "522298", "naics7": "52229813", "salesvol": 83.0 }, "geometry": { "type": "Point", "coordinates": [ -84.4095, 33.6613 ] } },
{ "type": "Feature", "properties": { "locnum": "252054440", "name": "Title Max", "street": "Main St", "city": "Atlanta", "state": "GA", "zip": "30344", "type": "Consumer Lending", "naics5": "522291", "naics7": "52229103", "salesvol": 1530.0 }, "geometry": { "type": "Point", "coordinates": [ -84.4441, 33.6698 ] } },
{ "type": "Feature", "properties": { "locnum": "713431864", "name": "Ace Cash Express", "street": "Willingham Dr", "city": "East Point", "state": "GA", "zip": "30344", "type": "Consumer Lending", "naics5": "522291", "naics7": "52229111", "salesvol": 2295.0 }, "geometry": { "type": "Point", "coordinates": [ -84.442, 33.6698 ] } },
{ "type": "Feature", "properties": { "locnum": "714652559", "name": "C W Pawn", "street": "Washington Rd", "city": "East Point", "state": "GA", "zip": "30344", "type": "Pawn Shop", "naics5": "522298", "naics7": "52229813", "salesvol": 249.0 }, "geometry": { "type": "Point", "coordinates": [ -84.463, 33.6703 ] } },
{ "type": "Feature", "properties": { "locnum": "898046065", "name": "Title Exchange Inc", "street": "Washington Rd", "city": "East Point", "state": "GA", "zip": "30344", "type": "Pawn Shop", "naics5": "522298", "naics7": "52229813", "salesvol": 83.0 }, "geometry": { "type": "Point", "coordinates": [ -84.4602, 33.671800000000133 ] } },
{ "type": "Feature", "properties": { "locnum": "626038764", "name": "World Acceptance", "street": "Flat Shoals Pkwy", "city": "Decatur", "state": "GA", "zip": "30034", "type": "Consumer Lending", "naics5": "522291", "naics7": "52229103", "salesvol": 1530.0 }, "geometry": { "type": "Point", "coordinates": [ -84.228, 33.6807 ] } },
{ "type": "Feature", "properties": { "locnum": "690340468", "name": "Title Max", "street": "Sylvan Rd", "city": "Atlanta", "state": "GA", "zip": "30344", "type": "Consumer Lending", "naics5": "522291", "naics7": "52229103", "salesvol": 2295.0 }, "geometry": { "type": "Point", "coordinates": [ -84.4182, 33.681600000000138 ] } },
{ "type": "Feature", "properties": { "locnum": "704893077", "name": "Dispute M D Inc", "street": "Flat Shoals Pkwy", "city": "Decatur", "state": "GA", "zip": "30034", "type": "Consumer Lending", "naics5": "522291", "naics7": "52229101", "salesvol": 2295.0 }, "geometry": { "type": "Point", "coordinates": [ -84.2409, 33.6823 ] } },
{ "type": "Feature", "properties": { "locnum": "427544222", "name": "Insta Loan", "street": "Metropolitan Pkwy Sw", "city": "Atlanta", "state": "GA", "zip": "30315", "type": "Consumer Lending", "naics5": "522291", "naics7": "52229103", "salesvol": 3060.0 }, "geometry": { "type": "Point", "coordinates": [ -84.407299999999864, 33.682900000000167 ] } },
{ "type": "Feature", "properties": { "locnum": "650037633", "name": "Title Max", "street": "Greenbriar Pkwy Sw", "city": "Atlanta", "state": "GA", "zip": "30331", "type": "Consumer Lending", "naics5": "522291", "naics7": "52229103", "salesvol": 1530.0 }, "geometry": { "type": "Point", "coordinates": [ -84.4891, 33.6892 ] } },
{ "type": "Feature", "properties": { "locnum": "632924049", "name": "Delowe Pawn Shop", "street": "Headland Dr", "city": "Atlanta", "state": "GA", "zip": "30344", "type": "Pawn Shop", "naics5": "522298", "naics7": "52229813", "salesvol": 249.0 }, "geometry": { "type": "Point", "coordinates": [ -84.4576, 33.6896 ] } },
{ "type": "Feature", "properties": { "locnum": "480616309", "name": "Ace Cash Express", "street": "Greenbriar Pkwy Sw", "city": "Atlanta", "state": "GA", "zip": "30331", "type": "Consumer Lending", "naics5": "522291", "naics7": "52229111", "salesvol": 1530.0 }, "geometry": { "type": "Point", "coordinates": [ -84.489599999999882, 33.6905 ] } },
{ "type": "Feature", "properties": { "locnum": "401683786", "name": "Mc Intosh Pawn Shop", "street": "Miller Rd", "city": "Lithonia", "state": "GA", "zip": "30038", "type": "Pawn Shop", "naics5": "522298", "naics7": "52229813", "salesvol": 166.0 }, "geometry": { "type": "Point", "coordinates": [ -84.1862, 33.6919 ] } },
{ "type": "Feature", "properties": { "locnum": "706308005", "name": "Insta Loan", "street": "Flat Shoals Pkwy", "city": "Decatur", "state": "GA", "zip": "30034", "type": "Consumer Lending", "naics5": "522291", "naics7": "52229103", "salesvol": 2295.0 }, "geometry": { "type": "Point", "coordinates": [ -84.2613, 33.6951 ] } },
{ "type": "Feature", "properties": { "locnum": "425986303", "name": "Insta Loan", "street": "Campbellton Rd Sw", "city": "Atlanta", "state": "GA", "zip": "30311", "type": "Consumer Lending", "naics5": "522291", "naics7": "52229103", "salesvol": 2295.0 }, "geometry": { "type": "Point", "coordinates": [ -84.4866, 33.6955 ] } },
{ "type": "Feature", "properties": { "locnum": "827527839", "name": "World Finance", "street": "Lakewood Ave Sw", "city": "Atlanta", "state": "GA", "zip": "30315", "type": "Consumer Lending", "naics5": "522291", "naics7": "52229103", "salesvol": 3060.0 }, "geometry": { "type": "Point", "coordinates": [ -84.410499999999885, 33.6973 ] } },
{ "type": "Feature", "properties": { "locnum": "382696367", "name": "Title Max", "street": "Flat Shoals Rd", "city": "Decatur", "state": "GA", "zip": "30034", "type": "Consumer Lending", "naics5": "522291", "naics7": "52229103", "salesvol": 2295.0 }, "geometry": { "type": "Point", "coordinates": [ -84.2684, 33.7009 ] } },
{ "type": "Feature", "properties": { "locnum": "690836325", "name": "True Glory Hair", "street": "Covington Hwy", "city": "Lithonia", "state": "GA", "zip": "30058", "type": "Consumer Lending", "naics5": "522291", "naics7": "52229101", "salesvol": 2295.0 }, "geometry": { "type": "Point", "coordinates": [ -84.107499999999888, 33.7038 ] } },
{ "type": "Feature", "properties": { "locnum": "128415940", "name": "Blair Village Pawn Shop", "street": "Jonesboro Rd Se", "city": "Atlanta", "state": "GA", "zip": "30315", "type": "Pawn Shop", "naics5": "522298", "naics7": "52229813", "salesvol": 332.0 }, "geometry": { "type": "Point", "coordinates": [ -84.3787, 33.7046 ] } },
{ "type": "Feature", "properties": { "locnum": "396694606", "name": "Title Max", "street": "Metropolitan Pkwy Sw", "city": "Atlanta", "state": "GA", "zip": "30315", "type": "Consumer Lending", "naics5": "522291", "naics7": "52229103", "salesvol": 2295.0 }, "geometry": { "type": "Point", "coordinates": [ -84.4076, 33.7049 ] } },
{ "type": "Feature", "properties": { "locnum": "427694018", "name": "Cash America", "street": "Delowe Dr Sw", "city": "Atlanta", "state": "GA", "zip": "30311", "type": "Consumer Lending", "naics5": "522291", "naics7": "52229103", "salesvol": 3060.0 }, "geometry": { "type": "Point", "coordinates": [ -84.4573, 33.7052 ] } },
{ "type": "Feature", "properties": { "locnum": "712237726", "name": "Cash America Pawn", "street": "Delowe Dr Sw", "city": "Atlanta", "state": "GA", "zip": "30311", "type": "Pawn Shop", "naics5": "522298", "naics7": "52229813", "salesvol": 581.0 }, "geometry": { "type": "Point", "coordinates": [ -84.4573, 33.7052 ] } },
{ "type": "Feature", "properties": { "locnum": "234176774", "name": "Title Max", "street": "Campbellton Rd Sw", "city": "Atlanta", "state": "GA", "zip": "30311", "type": "Consumer Lending", "naics5": "522291", "naics7": "52229103", "salesvol": 3825.0 }, "geometry": { "type": "Point", "coordinates": [ -84.4581, 33.706000000000138 ] } },
{ "type": "Feature", "properties": { "locnum": "706321139", "name": "Insta Loan", "street": "Campbellton Rd Sw", "city": "Atlanta", "state": "GA", "zip": "30311", "type": "Consumer Lending", "naics5": "522291", "naics7": "52229103", "salesvol": 2295.0 }, "geometry": { "type": "Point", "coordinates": [ -84.4573, 33.7064 ] } },
{ "type": "Feature", "properties": { "locnum": "445354210", "name": "Evans Mill Pawnshop", "street": "Covington Hwy", "city": "Lithonia", "state": "GA", "zip": "30058", "type": "Pawn Shop", "naics5": "522298", "naics7": "52229813", "salesvol": 166.0 }, "geometry": { "type": "Point", "coordinates": [ -84.1153, 33.7068 ] } },
{ "type": "Feature", "properties": { "locnum": "399421510", "name": "Title Bucks", "street": "S Rainbow Dr", "city": "Decatur", "state": "GA", "zip": "30034", "type": "Consumer Lending", "naics5": "522291", "naics7": "52229103", "salesvol": 3060.0 }, "geometry": { "type": "Point", "coordinates": [ -84.271499999999861, 33.7071 ] } },
{ "type": "Feature", "properties": { "locnum": "234069607", "name": "Best Rate Financial", "street": "Main St", "city": "Lithonia", "state": "GA", "zip": "30058", "type": "Pawn Shop", "naics5": "522298", "naics7": "52229813", "salesvol": 83.0 }, "geometry": { "type": "Point", "coordinates": [ -84.108499999999893, 33.7106 ] } },
{ "type": "Feature", "properties": { "locnum": "433340697", "name": "Title Max", "street": "Main St", "city": "Lithonia", "state": "GA", "zip": "30058", "type": "Consumer Lending", "naics5": "522291", "naics7": "52229103", "salesvol": 2295.0 }, "geometry": { "type": "Point", "coordinates": [ -84.1081, 33.7107 ] } },
{ "type": "Feature", "properties": { "locnum": "711033120", "name": "Total Finance", "street": "Po Box 724686", "city": "Atlanta", "state": "GA", "zip": "31139", "type": "Consumer Lending", "naics5": "522291", "naics7": "52229101", "salesvol": 3060.0 }, "geometry": { "type": "Point", "coordinates": [ -84.4326, 33.711300000000108 ] } },
{ "type": "Feature", "properties": { "locnum": "214504771", "name": "Emergency Cash Locations", "street": "Candler Rd", "city": "Decatur", "state": "GA", "zip": "30034", "type": "Consumer Lending", "naics5": "522291", "naics7": "52229103", "salesvol": 2295.0 }, "geometry": { "type": "Point", "coordinates": [ -84.2721, 33.7121 ] } },
{ "type": "Feature", "properties": { "locnum": "708463964", "name": "Human Equity Ratings Org Inc", "street": "Park Central Blvd", "city": "Decatur", "state": "GA", "zip": "30035", "type": "Consumer Lending", "naics5": "522291", "naics7": "52229103", "salesvol": 2295.0 }, "geometry": { "type": "Point", "coordinates": [ -84.172, 33.7127 ] } },
{ "type": "Feature", "properties": { "locnum": "827851544", "name": "Double Eagle Pawn Shop", "street": "Highway 5", "city": "Douglasville", "state": "GA", "zip": "30135", "type": "Pawn Shop", "naics5": "522298", "naics7": "52229813", "salesvol": 166.0 }, "geometry": { "type": "Point", "coordinates": [ -84.7691, 33.7151 ] } },
{ "type": "Feature", "properties": { "locnum": "706539539", "name": "World Finance", "street": "Highway 5", "city": "Douglasville", "state": "GA", "zip": "30135", "type": "Consumer Lending", "naics5": "522291", "naics7": "52229103", "salesvol": 2295.0 }, "geometry": { "type": "Point", "coordinates": [ -84.766999999999896, 33.7158 ] } },
{ "type": "Feature", "properties": { "locnum": "127648723", "name": "Lithonia Finance Co", "street": "Covington Hwy", "city": "Lithonia", "state": "GA", "zip": "30058", "type": "Consumer Lending", "naics5": "522291", "naics7": "52229103", "salesvol": 2295.0 }, "geometry": { "type": "Point", "coordinates": [ -84.1306, 33.717 ] } },
{ "type": "Feature", "properties": { "locnum": "427567787", "name": "Title Max", "street": "Wesley Chapel Rd", "city": "Decatur", "state": "GA", "zip": "30035", "type": "Consumer Lending", "naics5": "522291", "naics7": "52229103", "salesvol": 2295.0 }, "geometry": { "type": "Point", "coordinates": [ -84.2169, 33.7187 ] } },
{ "type": "Feature", "properties": { "locnum": "127851582", "name": "Onemain Financial", "street": "Highway 5", "city": "Douglasville", "state": "GA", "zip": "30135", "type": "Consumer Lending", "naics5": "522291", "naics7": "52229108", "salesvol": 3060.0 }, "geometry": { "type": "Point", "coordinates": [ -84.7648, 33.7191 ] } },
{ "type": "Feature", "properties": { "locnum": "423518957", "name": "Republic Finance Inc", "street": "Highway 5", "city": "Douglasville", "state": "GA", "zip": "30135", "type": "Consumer Lending", "naics5": "522291", "naics7": "52229101", "salesvol": 2295.0 }, "geometry": { "type": "Point", "coordinates": [ -84.764499999999899, 33.72 ] } },
{ "type": "Feature", "properties": { "locnum": "433912082", "name": "Financing Group Coml Capital", "street": "Angel Falls Ln Sw", "city": "Atlanta", "state": "GA", "zip": "30311", "type": "Consumer Lending", "naics5": "522291", "naics7": "52229101", "salesvol": 3060.0 }, "geometry": { "type": "Point", "coordinates": [ -84.4953, 33.72 ] } },
{ "type": "Feature", "properties": { "locnum": "427694022", "name": "Cash America", "street": "Moreland Ave Se", "city": "Atlanta", "state": "GA", "zip": "30316", "type": "Consumer Lending", "naics5": "522291", "naics7": "52229103", "salesvol": 2295.0 }, "geometry": { "type": "Point", "coordinates": [ -84.3488, 33.72 ] } },
{ "type": "Feature", "properties": { "locnum": "462505314", "name": "Cash America Pawn", "street": "Moreland Ave Se", "city": "Atlanta", "state": "GA", "zip": "30316", "type": "Pawn Shop", "naics5": "522298", "naics7": "52229813", "salesvol": 664.0 }, "geometry": { "type": "Point", "coordinates": [ -84.3488, 33.72 ] } },
{ "type": "Feature", "properties": { "locnum": "700586680", "name": "First American Title Lending", "street": "Highway 5", "city": "Douglasville", "state": "GA", "zip": "30135", "type": "Consumer Lending", "naics5": "522291", "naics7": "52229103", "salesvol": 1530.0 }, "geometry": { "type": "Point", "coordinates": [ -84.764, 33.7207 ] } },
{ "type": "Feature", "properties": { "locnum": "269253829", "name": "Title Max", "street": "Moreland Ave Se", "city": "Atlanta", "state": "GA", "zip": "30316", "type": "Consumer Lending", "naics5": "522291", "naics7": "52229103", "salesvol": 3060.0 }, "geometry": { "type": "Point", "coordinates": [ -84.349499999999878, 33.7208 ] } },
{ "type": "Feature", "properties": { "locnum": "629641382", "name": "Title Max", "street": "Highway 5", "city": "Douglasville", "state": "GA", "zip": "30135", "type": "Consumer Lending", "naics5": "522291", "naics7": "52229103", "salesvol": 2295.0 }, "geometry": { "type": "Point", "coordinates": [ -84.7623, 33.721 ] } },
{ "type": "Feature", "properties": { "locnum": "683448088", "name": "Cash America Pawn", "street": "Covington Hwy", "city": "Decatur", "state": "GA", "zip": "30035", "type": "Pawn Shop", "naics5": "522298", "naics7": "52229813", "salesvol": 747.0 }, "geometry": { "type": "Point", "coordinates": [ -84.167799999999886, 33.7226 ] } },
{ "type": "Feature", "properties": { "locnum": "409304996", "name": "Onemain Financial", "street": "Covington Hwy", "city": "Lithonia", "state": "GA", "zip": "30058", "type": "Consumer Lending", "naics5": "522291", "naics7": "52229108", "salesvol": 3060.0 }, "geometry": { "type": "Point", "coordinates": [ -84.1665, 33.7229 ] } },
{ "type": "Feature", "properties": { "locnum": "003672094", "name": "1St Franklin Financial Corp", "street": "Douglas Blvd", "city": "Douglasville", "state": "GA", "zip": "30135", "type": "Consumer Lending", "naics5": "522291", "naics7": "52229101", "salesvol": 3060.0 }, "geometry": { "type": "Point", "coordinates": [ -84.7687, 33.7241 ] } },
{ "type": "Feature", "properties": { "locnum": "718339057", "name": "Acceptance Now", "street": "S Sunrise Blvd Snrse", "city": "Atlanta", "state": "GA", "zip": "30310", "type": "Consumer Lending", "naics5": "522291", "naics7": "52229101", "salesvol": 3060.0 }, "geometry": { "type": "Point", "coordinates": [ -84.4324, 33.72420000000011 ] } },
{ "type": "Feature", "properties": { "locnum": "269290987", "name": "Manerva Funding Auto Group", "street": "Covington Hwy", "city": "Decatur", "state": "GA", "zip": "30035", "type": "Consumer Lending", "naics5": "522291", "naics7": "52229101", "salesvol": 6885.0 }, "geometry": { "type": "Point", "coordinates": [ -84.1837, 33.7261 ] } },
{ "type": "Feature", "properties": { "locnum": "433917823", "name": "Insta Loan", "street": "Highway 5", "city": "Douglasville", "state": "GA", "zip": "30135", "type": "Consumer Lending", "naics5": "522291", "naics7": "52229103", "salesvol": 2295.0 }, "geometry": { "type": "Point", "coordinates": [ -84.762699999999896, 33.7262 ] } },
{ "type": "Feature", "properties": { "locnum": "607576667", "name": "Title Pawn", "street": "Highway 5", "city": "Douglasville", "state": "GA", "zip": "30135", "type": "Pawn Shop", "naics5": "522298", "naics7": "52229813", "salesvol": 166.0 }, "geometry": { "type": "Point", "coordinates": [ -84.762899999999888, 33.7269 ] } },
{ "type": "Feature", "properties": { "locnum": "827854084", "name": "Springleaf Financial Svc", "street": "The Landing Dr", "city": "Douglasville", "state": "GA", "zip": "30135", "type": "Consumer Lending", "naics5": "522291", "naics7": "52229108", "salesvol": 3060.0 }, "geometry": { "type": "Point", "coordinates": [ -84.7397, 33.7281 ] } },
{ "type": "Feature", "properties": { "locnum": "547997908", "name": "Fort Knox Pawn & Loan", "street": "Fairburn Rd", "city": "Douglasville", "state": "GA", "zip": "30135", "type": "Pawn Shop", "naics5": "522298", "naics7": "52229813", "salesvol": 83.0 }, "geometry": { "type": "Point", "coordinates": [ -84.665099999999896, 33.7286 ] } },
{ "type": "Feature", "properties": { "locnum": "930325469", "name": "Lendmark Financial Svc", "street": "Concourse Pkwy", "city": "Douglasville", "state": "GA", "zip": "30134", "type": "Consumer Lending", "naics5": "522291", "naics7": "52229101", "salesvol": 3060.0 }, "geometry": { "type": "Point", "coordinates": [ -84.7584, 33.730200000000103 ] } },
{ "type": "Feature", "properties": { "locnum": "677438434", "name": "Howell Mill Inst-Student", "street": "Clausell Ct", "city": "Decatur", "state": "GA", "zip": "30035", "type": "Consumer Lending", "naics5": "522291", "naics7": "52229103", "salesvol": 2295.0 }, "geometry": { "type": "Point", "coordinates": [ -84.2144, 33.7305 ] } },
{ "type": "Feature", "properties": { "locnum": "427825965", "name": "I N L Decatur Georgia", "street": "Candler Rd", "city": "Decatur", "state": "GA", "zip": "30032", "type": "Consumer Lending", "naics5": "522291", "naics7": "52229103", "salesvol": 2295.0 }, "geometry": { "type": "Point", "coordinates": [ -84.2852, 33.7336 ] } },
{ "type": "Feature", "properties": { "locnum": "706308047", "name": "Insta Loan", "street": "Candler Rd", "city": "Decatur", "state": "GA", "zip": "30032", "type": "Consumer Lending", "naics5": "522291", "naics7": "52229103", "salesvol": 2295.0 }, "geometry": { "type": "Point", "coordinates": [ -84.2852, 33.7336 ] } },
{ "type": "Feature", "properties": { "locnum": "404587079", "name": "Title Bucks", "street": "Covington Hwy", "city": "Decatur", "state": "GA", "zip": "30035", "type": "Consumer Lending", "naics5": "522291", "naics7": "52229103", "salesvol": 2295.0 }, "geometry": { "type": "Point", "coordinates": [ -84.2134, 33.7353 ] } },
{ "type": "Feature", "properties": { "locnum": "127607349", "name": "Candler Road Pawn Shop", "street": "Candler Rd", "city": "Decatur", "state": "GA", "zip": "30032", "type": "Pawn Shop", "naics5": "522298", "naics7": "52229813", "salesvol": 664.0 }, "geometry": { "type": "Point", "coordinates": [ -84.285799999999895, 33.7357 ] } },
{ "type": "Feature", "properties": { "locnum": "128171568", "name": "Freeman Finance", "street": "Lee St Sw", "city": "Atlanta", "state": "GA", "zip": "30310", "type": "Consumer Lending", "naics5": "522291", "naics7": "52229103", "salesvol": 3060.0 }, "geometry": { "type": "Point", "coordinates": [ -84.4143, 33.7372 ] } },
{ "type": "Feature", "properties": { "locnum": "669123390", "name": "Sac Financial Solutions", "street": "Glenwood Rd", "city": "Decatur", "state": "GA", "zip": "30032", "type": "Consumer Lending", "naics5": "522291", "naics7": "52229103", "salesvol": 2295.0 }, "geometry": { "type": "Point", "coordinates": [ -84.2586, 33.737600000000121 ] } },
{ "type": "Feature", "properties": { "locnum": "615626918", "name": "Title Max", "street": "Covington Hwy", "city": "Decatur", "state": "GA", "zip": "30035", "type": "Consumer Lending", "naics5": "522291", "naics7": "52229103", "salesvol": 2295.0 }, "geometry": { "type": "Point", "coordinates": [ -84.218099999999879, 33.7378 ] } },
{ "type": "Feature", "properties": { "locnum": "128173143", "name": "Lucky Finance Co", "street": "Ralph David Abernathy Blvd Sw", "city": "Atlanta", "state": "GA", "zip": "30310", "type": "Consumer Lending", "naics5": "522291", "naics7": "52229103", "salesvol": 2295.0 }, "geometry": { "type": "Point", "coordinates": [ -84.4163, 33.7382 ] } },
{ "type": "Feature", "properties": { "locnum": "372751495", "name": "Fast Cash Title", "street": "Glenwood Rd", "city": "Decatur", "state": "GA", "zip": "30032", "type": "Pawn Shop", "naics5": "522298", "naics7": "52229813", "salesvol": 83.0 }, "geometry": { "type": "Point", "coordinates": [ -84.2811, 33.7385 ] } },
{ "type": "Feature", "properties": { "locnum": "422057278", "name": "Cash America", "street": "Glenwood Rd", "city": "Decatur", "state": "GA", "zip": "30032", "type": "Consumer Lending", "naics5": "522291", "naics7": "52229103", "salesvol": 2295.0 }, "geometry": { "type": "Point", "coordinates": [ -84.2887, 33.7388 ] } },
{ "type": "Feature", "properties": { "locnum": "427694023", "name": "Cash America", "street": "Glenwood Rd", "city": "Decatur", "state": "GA", "zip": "30032", "type": "Consumer Lending", "naics5": "522291", "naics7": "52229103", "salesvol": 2295.0 }, "geometry": { "type": "Point", "coordinates": [ -84.2882, 33.7388 ] } },
{ "type": "Feature", "properties": { "locnum": "462478801", "name": "Cash America Pawn", "street": "Glenwood Rd", "city": "Decatur", "state": "GA", "zip": "30032", "type": "Pawn Shop", "naics5": "522298", "naics7": "52229813", "salesvol": 581.0 }, "geometry": { "type": "Point", "coordinates": [ -84.2882, 33.7388 ] } },
{ "type": "Feature", "properties": { "locnum": "401492541", "name": "Ace Cash Express", "street": "Oak St Sw", "city": "Atlanta", "state": "GA", "zip": "30310", "type": "Consumer Lending", "naics5": "522291", "naics7": "52229111", "salesvol": 1530.0 }, "geometry": { "type": "Point", "coordinates": [ -84.4168, 33.74070000000011 ] } },
{ "type": "Feature", "properties": { "locnum": "563139377", "name": "Ace Cash Express", "street": "Moreland Ave Se", "city": "Atlanta", "state": "GA", "zip": "30316", "type": "Consumer Lending", "naics5": "522291", "naics7": "52229111", "salesvol": 1530.0 }, "geometry": { "type": "Point", "coordinates": [ -84.349499999999878, 33.7435 ] } },
{ "type": "Feature", "properties": { "locnum": "250094752", "name": "Title Max", "street": "Candler Rd Se", "city": "Atlanta", "state": "GA", "zip": "30317", "type": "Consumer Lending", "naics5": "522291", "naics7": "52229103", "salesvol": 3060.0 }, "geometry": { "type": "Point", "coordinates": [ -84.291, 33.744 ] } },
{ "type": "Feature", "properties": { "locnum": "700010641", "name": "Quick & Simple Title Loans", "street": "Memorial Dr Se", "city": "Atlanta", "state": "GA", "zip": "30312", "type": "Consumer Lending", "naics5": "522291", "naics7": "52229103", "salesvol": 3060.0 }, "geometry": { "type": "Point", "coordinates": [ -84.3684, 33.7465 ] } },
{ "type": "Feature", "properties": { "locnum": "400825927", "name": "Title Loans", "street": "Moreland Ave Se", "city": "Atlanta", "state": "GA", "zip": "30316", "type": "Consumer Lending", "naics5": "522291", "naics7": "52229103", "salesvol": 2295.0 }, "geometry": { "type": "Point", "coordinates": [ -84.349499999999878, 33.7478 ] } },
{ "type": "Feature", "properties": { "locnum": "827128075", "name": "Wilkes Finance Corp", "street": "Hospital Dr", "city": "Douglasville", "state": "GA", "zip": "30134", "type": "Consumer Lending", "naics5": "522291", "naics7": "52229103", "salesvol": 19890.0 }, "geometry": { "type": "Point", "coordinates": [ -84.7304, 33.748 ] } },
{ "type": "Feature", "properties": { "locnum": "827854407", "name": "Wilkes Finance Corp", "street": "Fairburn Rd", "city": "Douglasville", "state": "GA", "zip": "30134", "type": "Consumer Lending", "naics5": "522291", "naics7": "52229103", "salesvol": 3060.0 }, "geometry": { "type": "Point", "coordinates": [ -84.733699999999857, 33.7504 ] } },
{ "type": "Feature", "properties": { "locnum": "242442069", "name": "Title Max", "street": "Fairburn Rd", "city": "Douglasville", "state": "GA", "zip": "30134", "type": "Consumer Lending", "naics5": "522291", "naics7": "52229103", "salesvol": 3060.0 }, "geometry": { "type": "Point", "coordinates": [ -84.7222, 33.7507 ] } },
{ "type": "Feature", "properties": { "locnum": "402912399", "name": "Title Bucks", "street": "Fairburn Rd", "city": "Douglasville", "state": "GA", "zip": "30134", "type": "Consumer Lending", "naics5": "522291", "naics7": "52229103", "salesvol": 2295.0 }, "geometry": { "type": "Point", "coordinates": [ -84.7332, 33.7508 ] } },
{ "type": "Feature", "properties": { "locnum": "260434717", "name": "E Super Pawn", "street": "Fairburn Rd", "city": "Douglasville", "state": "GA", "zip": "30134", "type": "Pawn Shop", "naics5": "522298", "naics7": "52229813", "salesvol": 415.0 }, "geometry": { "type": "Point", "coordinates": [ -84.7391, 33.751 ] } },
{ "type": "Feature", "properties": { "locnum": "700411254", "name": "Inl Avondale Ga1", "street": "Columbia Dr", "city": "Decatur", "state": "GA", "zip": "30032", "type": "Pawn Shop", "naics5": "522298", "naics7": "52229813", "salesvol": 166.0 }, "geometry": { "type": "Point", "coordinates": [ -84.2648, 33.751 ] } },
{ "type": "Feature", "properties": { "locnum": "706308006", "name": "Insta Loan", "street": "Columbia Dr", "city": "Decatur", "state": "GA", "zip": "30032", "type": "Consumer Lending", "naics5": "522291", "naics7": "52229103", "salesvol": 2295.0 }, "geometry": { "type": "Point", "coordinates": [ -84.2648, 33.751 ] } },
{ "type": "Feature", "properties": { "locnum": "518103288", "name": "Fast Cash Title Pawn Co", "street": "Fairburn Rd", "city": "Douglasville", "state": "GA", "zip": "30134", "type": "Pawn Shop", "naics5": "522298", "naics7": "52229813", "salesvol": 249.0 }, "geometry": { "type": "Point", "coordinates": [ -84.7392, 33.751100000000108 ] } },
{ "type": "Feature", "properties": { "locnum": "225235209", "name": "Quick Cash", "street": "Fairburn Rd", "city": "Douglasville", "state": "GA", "zip": "30134", "type": "Consumer Lending", "naics5": "522291", "naics7": "52229103", "salesvol": 765.0 }, "geometry": { "type": "Point", "coordinates": [ -84.7306, 33.751100000000108 ] } },
{ "type": "Feature", "properties": { "locnum": "254824030", "name": "Community Loan", "street": "Fairburn Rd", "city": "Douglasville", "state": "GA", "zip": "30134", "type": "Consumer Lending", "naics5": "522291", "naics7": "52229103", "salesvol": 2295.0 }, "geometry": { "type": "Point", "coordinates": [ -84.7396, 33.7512 ] } },
{ "type": "Feature", "properties": { "locnum": "892543026", "name": "Cash America Pawn", "street": "Fairburn Rd", "city": "Douglasville", "state": "GA", "zip": "30134", "type": "Pawn Shop", "naics5": "522298", "naics7": "52229813", "salesvol": 415.0 }, "geometry": { "type": "Point", "coordinates": [ -84.7283, 33.7512 ] } },
{ "type": "Feature", "properties": { "locnum": "705046219", "name": "Sunset Finance Of Douglasville", "street": "Broad St", "city": "Douglasville", "state": "GA", "zip": "30134", "type": "Consumer Lending", "naics5": "522291", "naics7": "52229103", "salesvol": 2295.0 }, "geometry": { "type": "Point", "coordinates": [ -84.7485, 33.751300000000121 ] } },
{ "type": "Feature", "properties": { "locnum": "427792606", "name": "Insta Loan", "street": "Fairburn Rd", "city": "Douglasville", "state": "GA", "zip": "30134", "type": "Consumer Lending", "naics5": "522291", "naics7": "52229103", "salesvol": 2295.0 }, "geometry": { "type": "Point", "coordinates": [ -84.724799999999888, 33.7516 ] } },
{ "type": "Feature", "properties": { "locnum": "612570713", "name": "Western Finance Svc", "street": "Fairburn Rd", "city": "Douglasville", "state": "GA", "zip": "30134", "type": "Consumer Lending", "naics5": "522291", "naics7": "52229103", "salesvol": 3060.0 }, "geometry": { "type": "Point", "coordinates": [ -84.724799999999888, 33.7516 ] } },
{ "type": "Feature", "properties": { "locnum": "205177389", "name": "Security Finance Corp", "street": "Fairburn Rd", "city": "Douglasville", "state": "GA", "zip": "30134", "type": "Consumer Lending", "naics5": "522291", "naics7": "52229103", "salesvol": 2295.0 }, "geometry": { "type": "Point", "coordinates": [ -84.7406, 33.752000000000123 ] } },
{ "type": "Feature", "properties": { "locnum": "453986309", "name": "Douglasville Gold & Pawn", "street": "Spring St", "city": "Douglasville", "state": "GA", "zip": "30134", "type": "Pawn Shop", "naics5": "522298", "naics7": "52229813", "salesvol": 166.0 }, "geometry": { "type": "Point", "coordinates": [ -84.740499999999898, 33.752300000000105 ] } },
{ "type": "Feature", "properties": { "locnum": "403644514", "name": "Equity Auto Loan", "street": "Moreland Ave Se", "city": "Atlanta", "state": "GA", "zip": "30316", "type": "Consumer Lending", "naics5": "522291", "naics7": "52229103", "salesvol": 2295.0 }, "geometry": { "type": "Point", "coordinates": [ -84.348899999999887, 33.7526 ] } },
{ "type": "Feature", "properties": { "locnum": "704951407", "name": "Inl Atlanta Ga2", "street": "Moreland Ave Se", "city": "Atlanta", "state": "GA", "zip": "30316", "type": "Consumer Lending", "naics5": "522291", "naics7": "52229103", "salesvol": 2295.0 }, "geometry": { "type": "Point", "coordinates": [ -84.348899999999887, 33.7526 ] } },
{ "type": "Feature", "properties": { "locnum": "706308000", "name": "Insta Loan", "street": "Moreland Ave Se", "city": "Atlanta", "state": "GA", "zip": "30316", "type": "Consumer Lending", "naics5": "522291", "naics7": "52229103", "salesvol": 2295.0 }, "geometry": { "type": "Point", "coordinates": [ -84.348899999999887, 33.7526 ] } },
{ "type": "Feature", "properties": { "locnum": "364889394", "name": "Jackson Loan & Finance Co", "street": "Martin Luther King Jr Dr Sw", "city": "Atlanta", "state": "GA", "zip": "30311", "type": "Consumer Lending", "naics5": "522291", "naics7": "52229103", "salesvol": 1530.0 }, "geometry": { "type": "Point", "coordinates": [ -84.4858, 33.753000000000114 ] } },
{ "type": "Feature", "properties": { "locnum": "389966466", "name": "Title Max", "street": "Martin Luther King Jr Dr Sw", "city": "Atlanta", "state": "GA", "zip": "30311", "type": "Consumer Lending", "naics5": "522291", "naics7": "52229103", "salesvol": 3825.0 }, "geometry": { "type": "Point", "coordinates": [ -84.4858, 33.753000000000114 ] } },
{ "type": "Feature", "properties": { "locnum": "400627438", "name": "American Finance", "street": "Martin Luther King Jr Dr Sw", "city": "Atlanta", "state": "GA", "zip": "30311", "type": "Consumer Lending", "naics5": "522291", "naics7": "52229103", "salesvol": 1530.0 }, "geometry": { "type": "Point", "coordinates": [ -84.4858, 33.753000000000114 ] } },
{ "type": "Feature", "properties": { "locnum": "403738025", "name": "Equity Auto Loan", "street": "Martin Luther King Jr Dr Sw", "city": "Atlanta", "state": "GA", "zip": "30311", "type": "Consumer Lending", "naics5": "522291", "naics7": "52229103", "salesvol": 2295.0 }, "geometry": { "type": "Point", "coordinates": [ -84.494399999999899, 33.753100000000117 ] } },